$GPRMC,015659,A,4819.5216,N,447.4866,W,10.00,356.98,140316,,*3F
$GPRMC,015659,A,4819.5705,N,447.4904,W,10.00,356.98,140316,,*3D
$GPRMC,015659,A,4819.6194,N,447.4943,W,10.00,356.98,140316,,*33
$GPRMC,015659,A,4819.6682,N,447.4982,W,10.00,356.98,140316,,*3E
$GPRMC,015659,A,4819.7171,N,447.5020,W,10.00,356.98,140316,,*34
$GPRMC,015659,A,4819.7659,N,447.5059,W,10.00,356.98,140316,,*37
$GPRMC,015659,A,4819.8148,N,447.5097,W,10.00,356.98,140316,,*3D
$GPRMC,015659,A,4819.8636,N,447.5136,W,10.00,356.98,140316,,*39
$GPRMC,015659,A,4819.9125,N,447.5175,W,10.00,356.98,140316,,*3A
$GPRMC,015659,A,4819.9613,N,447.5213,W,10.00,356.98,140316,,*3B
$GPRMC,015659,A,4820.0102,N,447.5252,W,10.00,356.98,140316,,*3A
$GPRMC,015659,A,4820.0590,N,447.5291,W,10.00,356.98,140316,,*3A
$GPRMC,015659,A,4820.1079,N,447.5329,W,10.00,356.98,140316,,*3B
$GPRMC,015659,A,4820.1568,N,447.5368,W,10.00,356.98,140316,,*3B
$GPRMC,015659,A,4820.2056,N,447.5407,W,10.00,356.98,140316,,*3E
$GPRMC,015659,A,4820.2545,N,447.5445,W,10.00,356.98,140316,,*3F
$GPRMC,015659,A,4820.3033,N,447.5484,W,10.00,356.98,140316,,*37
$GPRMC,015659,A,4820.3522,N,447.5522,W,10.00,356.98,140316,,*3F
$GPRMC,015659,A,4820.4010,N,447.5561,W,10.00,356.98,140316,,*3B
$GPRMC,015659,A,4820.4499,N,447.5600,W,10.00,356.98,140316,,*3A
$GPRMC,015659,A,4820.4987,N,447.5638,W,10.00,356.98,140316,,*33
$GPRMC,015659,A,4820.5476,N,447.5677,W,10.00,356.98,140316,,*3A
$GPRMC,015659,A,4820.5964,N,447.5716,W,10.00,356.98,140316,,*32
$GPRMC,015659,A,4820.6453,N,447.5754,W,10.00,356.98,140316,,*3E
$GPRMC,015659,A,4820.6941,N,447.5793,W,10.00,356.98,140316,,*3B
$GPRMC,015659,A,4820.7430,N,447.5832,W,10.00,356.98,140316,,*35
$GPRMC,015659,A,4820.7919,N,447.5870,W,10.00,356.98,140316,,*35
$GPRMC,015659,A,4820.8407,N,447.5909,W,10.00,356.98,140316,,*37
$GPRMC,015659,A,4820.8896,N,447.5948,W,10.00,356.98,140316,,*36
$GPRMC,015659,A,4820.9384,N,447.5986,W,10.00,356.98,140316,,*3D
$GPRMC,015659,A,4820.9873,N,447.6025,W,10.00,356.98,140316,,*3D
$GPRMC,015659,A,4821.0074,N,447.6041,W,10.00,355.50,140316,,*3F
$GPRMC,015659,A,4821.0561,N,447.6098,W,10.00,355.50,140316,,*3A
$GPRMC,015659,A,4821.1048,N,447.6156,W,10.00,355.50,140316,,*36
$GPRMC,015659,A,4821.1535,N,447.6213,W,10.00,355.50,140316,,*3B
$GPRMC,015659,A,4821.2022,N,447.6271,W,10.00,355.50,140316,,*3F
$GPRMC,015659,A,4821.2509,N,447.6329,W,10.00,355.50,140316,,*3F
$GPRMC,015659,A,4821.2996,N,447.6386,W,10.00,355.50,140316,,*30
$GPRMC,015659,A,4821.3483,N,447.6444,W,10.00,355.50,140316,,*31
$GPRMC,015659,A,4821.3970,N,447.6501,W,10.00,355.50,140316,,*30
$GPRMC,015659,A,4821.4457,N,447.6559,W,10.00,355.50,140316,,*32
$GPRMC,015659,A,4821.4944,N,447.6616,W,10.00,355.50,140316,,*35
$GPRMC,015659,A,4821.5431,N,447.6674,W,10.00,355.50,140316,,*3F
$GPRMC,015659,A,4821.5918,N,447.6732,W,10.00,355.50,140316,,*3A
$GPRMC,015659,A,4821.6405,N,447.6789,W,10.00,355.50,140316,,*38
$GPRMC,015659,A,4821.6892,N,447.6847,W,10.00,355.50,140316,,*37
$GPRMC,015659,A,4821.7379,N,447.6904,W,10.00,355.50,140316,,*3E
$GPRMC,015659,A,4821.7866,N,447.6962,W,10.00,355.50,140316,,*3B
$GPRMC,015659,A,4821.8353,N,447.7019,W,10.00,355.50,140316,,*3D
$GPRMC,015659,A,4821.8840,N,447.7077,W,10.00,355.50,140316,,*3C
$GPRMC,015659,A,4821.9327,N,447.7135,W,10.00,355.50,140316,,*30
$GPRMC,015659,A,4821.9814,N,447.7192,W,10.00,355.50,140316,,*36
$GPRMC,015659,A,4822.0301,N,447.7250,W,10.00,355.50,140316,,*3E
$GPRMC,015659,A,4822.0788,N,447.7307,W,10.00,355.50,140316,,*38
$GPRMC,015659,A,4822.1275,N,447.7365,W,10.00,355.50,140316,,*3A
$GPRMC,015659,A,4822.1761,N,447.7423,W,10.00,355.50,140316,,*3F
$GPRMC,015659,A,4822.2248,N,447.7480,W,10.00,355.50,140316,,*3B
$GPRMC,015659,A,4822.2735,N,447.7538,W,10.00,355.50,140316,,*36
$GPRMC,015659,A,4822.3222,N,447.7595,W,10.00,355.50,140316,,*33
$GPRMC,015659,A,4822.3709,N,447.7653,W,10.00,355.50,140316,,*36
$GPRMC,015659,A,4822.4196,N,447.7711,W,10.00,355.50,140316,,*36
$GPRMC,015659,A,4822.4683,N,447.7768,W,10.00,355.50,140316,,*3B
$GPRMC,015659,A,4822.4929,N,447.7797,W,10.00,294.84,140316,,*31
$GPRMC,015659,A,4822.5100,N,447.8352,W,10.00,294.84,140316,,*31
$GPRMC,015659,A,4822.5271,N,447.8907,W,10.00,294.84,140316,,*3E
$GPRMC,015659,A,4822.5442,N,447.9462,W,10.00,294.84,140316,,*37
$GPRMC,015659,A,4822.5613,N,448.0017,W,10.00,294.84,140316,,*31
$GPRMC,015659,A,4822.5784,N,448.0571,W,10.00,294.84,140316,,*3B
$GPRMC,015659,A,4822.5956,N,448.1126,W,10.00,294.84,140316,,*3D
$GPRMC,015659,A,4822.6127,N,448.1681,W,10.00,294.84,140316,,*3A
$GPRMC,015659,A,4822.6298,N,448.2236,W,10.00,294.84,140316,,*36
$GPRMC,015659,A,4822.6469,N,448.2791,W,10.00,294.84,140316,,*36
$GPRMC,015659,A,4822.6640,N,448.3346,W,10.00,294.84,140316,,*30
$GPRMC,015659,A,4822.6811,N,448.3901,W,10.00,294.84,140316,,*33
$GPRMC,015659,A,4822.6982,N,448.4456,W,10.00,294.84,140316,,*30
$GPRMC,015659,A,4822.7153,N,448.5011,W,10.00,294.84,140316,,*33
$GPRMC,015659,A,4822.7324,N,448.5566,W,10.00,294.84,140316,,*34
$GPRMC,015659,A,4822.7495,N,448.6120,W,10.00,294.84,140316,,*3C
$GPRMC,015659,A,4822.7667,N,448.6675,W,10.00,294.84,140316,,*34
$GPRMC,015659,A,4822.7838,N,448.7230,W,10.00,294.84,140316,,*34
$GPRMC,015659,A,4822.8009,N,448.7785,W,10.00,294.84,140316,,*3A
$GPRMC,015659,A,4822.8180,N,448.8340,W,10.00,294.84,140316,,*38
$GPRMC,015659,A,4822.8351,N,448.8895,W,10.00,294.84,140316,,*35
$GPRMC,015659,A,4822.8522,N,448.9450,W,10.00,294.84,140316,,*33
$GPRMC,015659,A,4822.8693,N,449.0005,W,10.00,294.84,140316,,*36
$GPRMC,015659,A,4822.8864,N,449.0560,W,10.00,294.84,140316,,*36
$GPRMC,015659,A,4822.9035,N,449.1115,W,10.00,294.84,140316,,*3C
$GPRMC,015659,A,4822.9206,N,449.1670,W,10.00,294.84,140316,,*3A
$GPRMC,015659,A,4822.9377,N,449.2225,W,10.00,294.84,140316,,*3A
$GPRMC,015659,A,4822.9548,N,449.2780,W,10.00,294.84,140316,,*3A
$GPRMC,015659,A,4822.9719,N,449.3335,W,10.00,294.84,140316,,*37
$GPRMC,015659,A,4822.9890,N,449.3890,W,10.00,294.84,140316,,*3D
$GPRMC,015659,A,4823.0061,N,449.4445,W,10.00,294.84,140316,,*30
$GPRMC,015659,A,4823.0232,N,449.5000,W,10.00,294.84,140316,,*30
$GPRMC,015659,A,4823.0403,N,449.5555,W,10.00,294.84,140316,,*31
$GPRMC,015659,A,4823.0574,N,449.6110,W,10.00,294.84,140316,,*36
$GPRMC,015659,A,4823.0745,N,449.6665,W,10.00,294.84,140316,,*33
$GPRMC,015659,A,4823.0916,N,449.7220,W,10.00,294.84,140316,,*3F
$GPRMC,015659,A,4823.1087,N,449.7775,W,10.00,294.84,140316,,*3A
$GPRMC,015659,A,4823.1258,N,449.8331,W,10.00,294.84,140316,,*31
$GPRMC,015659,A,4823.1429,N,449.8886,W,10.00,294.84,140316,,*36
$GPRMC,015659,A,4823.1600,N,449.9441,W,10.00,294.84,140316,,*39
$GPRMC,015659,A,4823.1771,N,449.9996,W,10.00,294.84,140316,,*39
$GPRMC,015659,A,4823.1942,N,450.0551,W,10.00,294.84,140316,,*31
$GPRMC,015659,A,4823.2113,N,450.1106,W,10.00,294.84,140316,,*39
$GPRMC,015659,A,4823.2284,N,450.1661,W,10.00,294.84,140316,,*32
