$GPRMC,093731,A,4821.8446,N,429.0353,W,10.00,224.28,051115,,*35
$GPRMC,093731,A,4821.8269,N,429.0612,W,10.00,224.28,051115,,*3E
$GPRMC,093731,A,4821.8092,N,429.0870,W,10.00,224.28,051115,,*32
$GPRMC,093731,A,4821.7916,N,429.1129,W,10.00,224.28,051115,,*3C
$GPRMC,093731,A,4821.7739,N,429.1387,W,10.00,224.28,051115,,*39
$GPRMC,093731,A,4821.7562,N,429.1646,W,10.00,224.28,051115,,*3D
$GPRMC,093731,A,4821.7386,N,429.1904,W,10.00,224.28,051115,,*38
$GPRMC,093731,A,4821.7209,N,429.2163,W,10.00,224.28,051115,,*34
$GPRMC,093731,A,4821.7032,N,429.2421,W,10.00,224.28,051115,,*3D
$GPRMC,093731,A,4821.6856,N,429.2680,W,10.00,224.28,051115,,*3F
$GPRMC,093731,A,4821.6679,N,429.2938,W,10.00,224.28,051115,,*30
$GPRMC,093731,A,4821.6502,N,429.3197,W,10.00,224.28,051115,,*33
$GPRMC,093731,A,4821.6326,N,429.3455,W,10.00,224.28,051115,,*38
$GPRMC,093731,A,4821.6149,N,429.3714,W,10.00,224.28,051115,,*35
$GPRMC,093731,A,4821.5972,N,429.3972,W,10.00,224.28,051115,,*38
$GPRMC,093731,A,4821.5796,N,429.4230,W,10.00,224.28,051115,,*36
$GPRMC,093731,A,4821.5619,N,429.4489,W,10.00,224.28,051115,,*34
$GPRMC,093731,A,4821.5442,N,429.4747,W,10.00,224.28,051115,,*39
$GPRMC,093731,A,4821.5266,N,429.5006,W,10.00,224.28,051115,,*3A
$GPRMC,093731,A,4821.5089,N,429.5264,W,10.00,224.28,051115,,*3F
$GPRMC,093731,A,4821.4912,N,429.5523,W,10.00,224.28,051115,,*31
$GPRMC,093731,A,4821.4736,N,429.5781,W,10.00,224.28,051115,,*33
$GPRMC,093731,A,4821.4559,N,429.6040,W,10.00,224.28,051115,,*31
$GPRMC,093731,A,4821.4382,N,429.6298,W,10.00,224.28,051115,,*36
$GPRMC,093731,A,4821.4222,N,429.6533,W,10.00,253.56,051115,,*32
$GPRMC,093731,A,4821.4199,N,429.6647,W,10.00,253.56,051115,,*31
$GPRMC,093731,A,4821.4177,N,429.6761,W,10.00,253.56,051115,,*34
$GPRMC,093731,A,4821.4154,N,429.6874,W,10.00,253.56,051115,,*3E
$GPRMC,093731,A,4821.4132,N,429.6988,W,10.00,253.56,051115,,*3C
$GPRMC,093731,A,4821.4110,N,429.7101,W,10.00,253.56,051115,,*34
$GPRMC,093731,A,4821.4087,N,429.7215,W,10.00,253.56,051115,,*3D
$GPRMC,093731,A,4821.4065,N,429.7329,W,10.00,253.56,051115,,*3F
$GPRMC,093731,A,4821.4043,N,429.7442,W,10.00,253.56,051115,,*31
$GPRMC,093731,A,4821.4020,N,429.7556,W,10.00,253.56,051115,,*30
$GPRMC,093731,A,4821.3998,N,429.7670,W,10.00,253.56,051115,,*3A
$GPRMC,093731,A,4821.3976,N,429.7783,W,10.00,253.56,051115,,*37
$GPRMC,093731,A,4821.3953,N,429.7897,W,10.00,253.56,051115,,*3A
$GPRMC,093731,A,4821.3931,N,429.8010,W,10.00,253.56,051115,,*36
$GPRMC,093731,A,4821.3909,N,429.8124,W,10.00,253.56,051115,,*3B
$GPRMC,093731,A,4821.3886,N,429.8238,W,10.00,253.56,051115,,*33
$GPRMC,093731,A,4821.3864,N,429.8351,W,10.00,253.56,051115,,*31
$GPRMC,093731,A,4821.3842,N,429.8465,W,10.00,253.56,051115,,*35
$GPRMC,093731,A,4821.3819,N,429.8578,W,10.00,253.56,051115,,*36
$GPRMC,093731,A,4821.3797,N,429.8692,W,10.00,253.56,051115,,*38
$GPRMC,093731,A,4821.3775,N,429.8806,W,10.00,253.56,051115,,*37
$GPRMC,093731,A,4821.3752,N,429.8919,W,10.00,253.56,051115,,*3D
$GPRMC,093731,A,4821.3730,N,429.9033,W,10.00,253.56,051115,,*39
$GPRMC,093731,A,4821.3708,N,429.9147,W,10.00,253.56,051115,,*30
$GPRMC,093731,A,4821.3685,N,429.9260,W,10.00,253.56,051115,,*32
$GPRMC,093731,A,4821.3663,N,429.9374,W,10.00,253.56,051115,,*3E
$GPRMC,093731,A,4821.3641,N,429.9487,W,10.00,253.56,051115,,*35
$GPRMC,093731,A,4821.3618,N,429.9601,W,10.00,253.56,051115,,*35
$GPRMC,093731,A,4821.3596,N,429.9715,W,10.00,253.56,051115,,*34
$GPRMC,093731,A,4821.3574,N,429.9828,W,10.00,253.56,051115,,*39
$GPRMC,093731,A,4821.3551,N,429.9942,W,10.00,253.56,051115,,*33
$GPRMC,093731,A,4821.3529,N,430.0056,W,10.00,253.56,051115,,*31
$GPRMC,093731,A,4821.3506,N,430.0169,W,10.00,253.56,051115,,*31
$GPRMC,093731,A,4821.3484,N,430.0283,W,10.00,253.56,051115,,*3D
$GPRMC,093731,A,4821.3462,N,430.0396,W,10.00,253.56,051115,,*30
$GPRMC,093731,A,4821.3439,N,430.0510,W,10.00,253.56,051115,,*36
$GPRMC,093731,A,4821.3417,N,430.0624,W,10.00,253.56,051115,,*3E
$GPRMC,093731,A,4821.3395,N,430.0737,W,10.00,253.56,051115,,*30
$GPRMC,093731,A,4821.3372,N,430.0851,W,10.00,253.56,051115,,*36
$GPRMC,093731,A,4821.3350,N,430.0964,W,10.00,253.56,051115,,*31
$GPRMC,093731,A,4821.3328,N,430.1078,W,10.00,253.56,051115,,*3B
$GPRMC,093731,A,4821.3305,N,430.1192,W,10.00,253.56,051115,,*31
$GPRMC,093731,A,4821.3283,N,430.1305,W,10.00,253.56,051115,,*32
$GPRMC,093731,A,4821.3261,N,430.1419,W,10.00,253.56,051115,,*34
$GPRMC,093731,A,4821.3238,N,430.1532,W,10.00,253.56,051115,,*30
$GPRMC,093731,A,4821.3216,N,430.1646,W,10.00,253.56,051115,,*3C
$GPRMC,093731,A,4821.3194,N,430.1760,W,10.00,253.56,051115,,*30
$GPRMC,093731,A,4821.3171,N,430.1873,W,10.00,253.56,051115,,*36
$GPRMC,093731,A,4821.3149,N,430.1987,W,10.00,253.56,051115,,*37
$GPRMC,093731,A,4821.3127,N,430.2101,W,10.00,253.56,051115,,*3A
$GPRMC,093731,A,4821.3104,N,430.2214,W,10.00,253.56,051115,,*3C
$GPRMC,093731,A,4821.3082,N,430.2328,W,10.00,253.56,051115,,*3D
$GPRMC,093731,A,4821.3060,N,430.2441,W,10.00,253.56,051115,,*39
$GPRMC,093731,A,4821.3037,N,430.2555,W,10.00,253.56,051115,,*3F
$GPRMC,093731,A,4821.3015,N,430.2669,W,10.00,253.56,051115,,*33
$GPRMC,093731,A,4821.2992,N,430.2782,W,10.00,253.56,051115,,*30
$GPRMC,093731,A,4821.2970,N,430.2896,W,10.00,253.56,051115,,*36
$GPRMC,093731,A,4821.2948,N,430.3009,W,10.00,253.56,051115,,*32
$GPRMC,093731,A,4821.2925,N,430.3123,W,10.00,253.56,051115,,*30
$GPRMC,093731,A,4821.2903,N,430.3237,W,10.00,253.56,051115,,*32
$GPRMC,093731,A,4821.2881,N,430.3350,W,10.00,253.56,051115,,*39
$GPRMC,093731,A,4821.2858,N,430.3464,W,10.00,253.56,051115,,*3D
$GPRMC,093731,A,4821.2836,N,430.3577,W,10.00,253.56,051115,,*36
$GPRMC,093731,A,4821.2814,N,430.3691,W,10.00,253.56,051115,,*3D
$GPRMC,093731,A,4821.2791,N,430.3805,W,10.00,253.56,051115,,*3C
$GPRMC,093731,A,4821.2769,N,430.3918,W,10.00,253.56,051115,,*36
$GPRMC,093731,A,4821.2747,N,430.4032,W,10.00,253.56,051115,,*3C
$GPRMC,093731,A,4821.2724,N,430.4146,W,10.00,253.56,051115,,*3B
$GPRMC,093731,A,4821.2702,N,430.4259,W,10.00,253.56,051115,,*32
$GPRMC,093731,A,4821.2680,N,430.4373,W,10.00,253.56,051115,,*30
$GPRMC,093731,A,4821.2657,N,430.4486,W,10.00,253.56,051115,,*37
$GPRMC,093731,A,4821.2635,N,430.4600,W,10.00,253.56,051115,,*3F
$GPRMC,093731,A,4821.2612,N,430.4714,W,10.00,253.56,051115,,*3E
$GPRMC,093731,A,4821.2590,N,430.4827,W,10.00,253.56,051115,,*38
$GPRMC,093731,A,4821.2568,N,430.4941,W,10.00,253.56,051115,,*3E
$GPRMC,093731,A,4821.2545,N,430.5054,W,10.00,253.56,051115,,*3D
$GPRMC,093731,A,4821.2523,N,430.5168,W,10.00,253.56,051115,,*33
$GPRMC,093731,A,4821.2501,N,430.5282,W,10.00,253.56,051115,,*34
$GPRMC,093731,A,4821.2478,N,430.5395,W,10.00,253.56,051115,,*3C
$GPRMC,093731,A,4821.2456,N,430.5509,W,10.00,253.56,051115,,*33
$GPRMC,093731,A,4821.2434,N,430.5622,W,10.00,253.56,051115,,*3D
$GPRMC,093731,A,4821.2411,N,430.5736,W,10.00,253.56,051115,,*3E
$GPRMC,093731,A,4821.2389,N,430.5850,W,10.00,253.56,051115,,*37
$GPRMC,093731,A,4821.2367,N,430.5963,W,10.00,253.56,051115,,*36
$GPRMC,093731,A,4821.2344,N,430.6077,W,10.00,253.56,051115,,*38
$GPRMC,093731,A,4821.2322,N,430.6190,W,10.00,253.56,051115,,*30
$GPRMC,093731,A,4821.2299,N,430.6304,W,10.00,253.56,051115,,*3E
$GPRMC,093731,A,4821.2277,N,430.6418,W,10.00,253.56,051115,,*34
$GPRMC,093731,A,4821.2255,N,430.6531,W,10.00,253.56,051115,,*3E
$GPRMC,093731,A,4821.2232,N,430.6645,W,10.00,253.56,051115,,*3F
$GPRMC,093731,A,4821.2210,N,430.6759,W,10.00,253.56,051115,,*33
$GPRMC,093731,A,4821.2188,N,430.6872,W,10.00,253.56,051115,,*37
$GPRMC,093731,A,4821.2165,N,430.6986,W,10.00,253.56,051115,,*3E
$GPRMC,093731,A,4821.2143,N,430.7099,W,10.00,253.56,051115,,*3C
$GPRMC,093731,A,4821.2121,N,430.7213,W,10.00,253.56,051115,,*38
$GPRMC,093731,A,4821.2098,N,430.7327,W,10.00,253.56,051115,,*3D
$GPRMC,093731,A,4821.2076,N,430.7440,W,10.00,253.56,051115,,*3B
$GPRMC,093731,A,4821.2054,N,430.7554,W,10.00,253.56,051115,,*3F
$GPRMC,093731,A,4821.2031,N,430.7667,W,10.00,253.56,051115,,*3F
$GPRMC,093731,A,4821.2009,N,430.7781,W,10.00,253.56,051115,,*3D
$GPRMC,093731,A,4821.1986,N,430.7895,W,10.00,253.56,051115,,*3A
$GPRMC,093731,A,4821.1964,N,430.8008,W,10.00,253.56,051115,,*35
$GPRMC,093731,A,4821.1942,N,430.8122,W,10.00,253.56,051115,,*38
$GPRMC,093731,A,4821.1919,N,430.8235,W,10.00,253.56,051115,,*33
$GPRMC,093731,A,4821.1897,N,430.8349,W,10.00,253.56,051115,,*3E
$GPRMC,093731,A,4821.1875,N,430.8463,W,10.00,253.56,051115,,*3D
$GPRMC,093731,A,4821.1852,N,430.8576,W,10.00,253.56,051115,,*3D
$GPRMC,093731,A,4821.1830,N,430.8690,W,10.00,253.56,051115,,*32
$GPRMC,093731,A,4821.1808,N,430.8803,W,10.00,253.56,051115,,*3D
$GPRMC,093731,A,4821.1785,N,430.8917,W,10.00,253.56,051115,,*33
$GPRMC,093731,A,4821.1763,N,430.9031,W,10.00,253.56,051115,,*37
$GPRMC,093731,A,4821.1740,N,430.9144,W,10.00,253.56,051115,,*35
$GPRMC,093731,A,4821.1718,N,430.9258,W,10.00,253.56,051115,,*36
$GPRMC,093731,A,4821.1696,N,430.9371,W,10.00,253.56,051115,,*3B
$GPRMC,093731,A,4821.1673,N,430.9485,W,10.00,253.56,051115,,*3C
$GPRMC,093731,A,4821.1651,N,430.9599,W,10.00,253.56,051115,,*30
$GPRMC,093731,A,4821.1629,N,430.9712,W,10.00,253.56,051115,,*3E
$GPRMC,093731,A,4821.1606,N,430.9826,W,10.00,253.56,051115,,*3B
$GPRMC,093731,A,4821.1584,N,430.9939,W,10.00,253.56,051115,,*3D
$GPRMC,093731,A,4821.1562,N,431.0053,W,10.00,253.56,051115,,*38
$GPRMC,093731,A,4821.1539,N,431.0167,W,10.00,253.56,051115,,*30
$GPRMC,093731,A,4821.1517,N,431.0280,W,10.00,253.56,051115,,*36
$GPRMC,093731,A,4821.1494,N,431.0394,W,10.00,253.56,051115,,*38
$GPRMC,093731,A,4821.1472,N,431.0507,W,10.00,253.56,051115,,*3C
$GPRMC,093731,A,4821.1450,N,431.0621,W,10.00,253.56,051115,,*3B
$GPRMC,093731,A,4821.1427,N,431.0735,W,10.00,253.56,051115,,*3F
$GPRMC,093731,A,4821.1405,N,431.0848,W,10.00,253.56,051115,,*3A
$GPRMC,093731,A,4821.1383,N,431.0962,W,10.00,253.56,051115,,*3A
$GPRMC,093731,A,4821.1360,N,431.1075,W,10.00,253.56,051115,,*39
$GPRMC,093731,A,4821.1338,N,431.1189,W,10.00,253.56,051115,,*36
$GPRMC,093731,A,4821.1316,N,431.1303,W,10.00,253.56,051115,,*3A
$GPRMC,093731,A,4821.1293,N,431.1416,W,10.00,253.56,051115,,*35
$GPRMC,093731,A,4821.1271,N,431.1530,W,10.00,253.56,051115,,*3C
$GPRMC,093731,A,4821.1248,N,431.1643,W,10.00,253.56,051115,,*31
$GPRMC,093731,A,4821.1226,N,431.1757,W,10.00,253.56,051115,,*3D
$GPRMC,093731,A,4821.1204,N,431.1871,W,10.00,253.56,051115,,*36
$GPRMC,093731,A,4821.1181,N,431.1984,W,10.00,253.56,051115,,*33
$GPRMC,093731,A,4821.1159,N,431.2098,W,10.00,253.56,051115,,*31
$GPRMC,093731,A,4821.1137,N,431.2211,W,10.00,253.56,051115,,*3A
$GPRMC,093731,A,4821.1114,N,431.2325,W,10.00,253.56,051115,,*3D
$GPRMC,093731,A,4821.1092,N,431.2439,W,10.00,253.56,051115,,*38
$GPRMC,093731,A,4821.1070,N,431.2552,W,10.00,253.56,051115,,*38
$GPRMC,093731,A,4821.1047,N,431.2666,W,10.00,253.56,051115,,*38
$GPRMC,093731,A,4821.1025,N,431.2779,W,10.00,253.56,051115,,*33
$GPRMC,093731,A,4821.1002,N,431.2893,W,10.00,253.56,051115,,*3D
$GPRMC,093731,A,4821.0980,N,431.3007,W,10.00,253.56,051115,,*3B
$GPRMC,093731,A,4821.0958,N,431.3120,W,10.00,253.56,051115,,*3A
$GPRMC,093731,A,4821.0935,N,431.3234,W,10.00,253.56,051115,,*37
$GPRMC,093731,A,4821.0913,N,431.3347,W,10.00,253.56,051115,,*36
$GPRMC,093731,A,4821.0891,N,431.3461,W,10.00,253.56,051115,,*3E
$GPRMC,093731,A,4821.0868,N,431.3575,W,10.00,253.56,051115,,*3C
$GPRMC,093731,A,4821.0846,N,431.3688,W,10.00,253.56,051115,,*31
$GPRMC,093731,A,4821.0823,N,431.3802,W,10.00,253.56,051115,,*3E
$GPRMC,093731,A,4821.0801,N,431.3915,W,10.00,253.56,051115,,*39
$GPRMC,093731,A,4821.0779,N,431.4029,W,10.00,253.56,051115,,*38
$GPRMC,093731,A,4821.0756,N,431.4143,W,10.00,253.56,051115,,*38
$GPRMC,093731,A,4821.0734,N,431.4256,W,10.00,253.56,051115,,*3B
$GPRMC,093731,A,4821.0712,N,431.4370,W,10.00,253.56,051115,,*3A
$GPRMC,093731,A,4821.0689,N,431.4483,W,10.00,253.56,051115,,*32
$GPRMC,093731,A,4821.0667,N,431.4597,W,10.00,253.56,051115,,*36
$GPRMC,093731,A,4821.0644,N,431.4710,W,10.00,253.56,051115,,*3A
$GPRMC,093731,A,4821.0622,N,431.4824,W,10.00,253.56,051115,,*32
$GPRMC,093731,A,4821.0600,N,431.4938,W,10.00,253.56,051115,,*3E
$GPRMC,093731,A,4821.0577,N,431.5051,W,10.00,253.56,051115,,*3A
$GPRMC,093731,A,4821.0555,N,431.5165,W,10.00,253.56,051115,,*3C
$GPRMC,093731,A,4821.0533,N,431.5278,W,10.00,253.56,051115,,*33
$GPRMC,093731,A,4821.0510,N,431.5392,W,10.00,253.56,051115,,*37
$GPRMC,093731,A,4821.0488,N,431.5506,W,10.00,253.56,051115,,*3C
$GPRMC,093731,A,4821.0466,N,431.5619,W,10.00,253.56,051115,,*31
$GPRMC,093731,A,4821.0443,N,431.5733,W,10.00,253.56,051115,,*3F
$GPRMC,093731,A,4821.0421,N,431.5846,W,10.00,253.56,051115,,*36
$GPRMC,093731,A,4821.0398,N,431.5960,W,10.00,253.56,051115,,*36
$GPRMC,093731,A,4821.0376,N,431.6074,W,10.00,253.56,051115,,*39
$GPRMC,093731,A,4821.0354,N,431.6187,W,10.00,253.56,051115,,*34
$GPRMC,093731,A,4821.0331,N,431.6301,W,10.00,253.56,051115,,*3B
$GPRMC,093731,A,4821.0309,N,431.6414,W,10.00,253.56,051115,,*33
$GPRMC,093731,A,4821.0287,N,431.6528,W,10.00,253.56,051115,,*3A
$GPRMC,093731,A,4821.0264,N,431.6642,W,10.00,253.56,051115,,*38
$GPRMC,093731,A,4821.0242,N,431.6755,W,10.00,253.56,051115,,*3B
$GPRMC,093731,A,4821.0219,N,431.6869,W,10.00,253.56,051115,,*35
$GPRMC,093731,A,4821.0197,N,431.6982,W,10.00,253.56,051115,,*34
$GPRMC,093731,A,4821.0175,N,431.7096,W,10.00,253.56,051115,,*35
$GPRMC,093731,A,4821.0152,N,431.7210,W,10.00,253.56,051115,,*3C
$GPRMC,093731,A,4821.0130,N,431.7323,W,10.00,253.56,051115,,*39
$GPRMC,093731,A,4821.0108,N,431.7437,W,10.00,253.56,051115,,*30
$GPRMC,093731,A,4821.0085,N,431.7550,W,10.00,253.56,051115,,*34
$GPRMC,093731,A,4821.0063,N,431.7664,W,10.00,253.56,051115,,*38
$GPRMC,093731,A,4821.0040,N,431.7777,W,10.00,253.56,051115,,*3A
$GPRMC,093731,A,4821.0018,N,431.7891,W,10.00,253.56,051115,,*30
$GPRMC,093731,A,4820.9996,N,431.8005,W,10.00,253.56,051115,,*3D
$GPRMC,093731,A,4820.9973,N,431.8118,W,10.00,253.56,051115,,*3B
$GPRMC,093731,A,4820.9951,N,431.8232,W,10.00,253.56,051115,,*30
$GPRMC,093731,A,4820.9929,N,431.8345,W,10.00,253.56,051115,,*3E
$GPRMC,093731,A,4820.9906,N,431.8459,W,10.00,253.56,051115,,*39
$GPRMC,093731,A,4820.9884,N,431.8573,W,10.00,253.56,051115,,*3B
$GPRMC,093731,A,4820.9861,N,431.8686,W,10.00,253.56,051115,,*39
$GPRMC,093731,A,4820.9839,N,431.8800,W,10.00,253.56,051115,,*34
$GPRMC,093731,A,4820.9817,N,431.8913,W,10.00,253.56,051115,,*3B
$GPRMC,093731,A,4820.9794,N,431.9027,W,10.00,253.56,051115,,*30
$GPRMC,093731,A,4820.9772,N,431.9141,W,10.00,253.56,051115,,*39
$GPRMC,093731,A,4820.9749,N,431.9254,W,10.00,253.56,051115,,*36
$GPRMC,093731,A,4820.9727,N,431.9368,W,10.00,253.56,051115,,*30
$GPRMC,093731,A,4820.9705,N,431.9481,W,10.00,253.56,051115,,*30
$GPRMC,093731,A,4820.9682,N,431.9595,W,10.00,253.56,051115,,*3A
$GPRMC,093731,A,4820.9660,N,431.9708,W,10.00,253.56,051115,,*30
$GPRMC,093731,A,4820.9638,N,431.9822,W,10.00,253.56,051115,,*3A
$GPRMC,093731,A,4820.9615,N,431.9936,W,10.00,253.56,051115,,*31
$GPRMC,093731,A,4820.9593,N,432.0049,W,10.00,253.56,051115,,*37
$GPRMC,093731,A,4820.9570,N,432.0163,W,10.00,253.56,051115,,*33
$GPRMC,093731,A,4820.9548,N,432.0276,W,10.00,253.56,051115,,*3F
$GPRMC,093731,A,4820.9526,N,432.0390,W,10.00,253.56,051115,,*3E
$GPRMC,093731,A,4820.9503,N,432.0504,W,10.00,253.56,051115,,*32
$GPRMC,093731,A,4820.9481,N,432.0617,W,10.00,253.56,051115,,*38
$GPRMC,093731,A,4820.9459,N,432.0731,W,10.00,253.56,051115,,*38
$GPRMC,093731,A,4820.9436,N,432.0844,W,10.00,253.56,051115,,*3C
$GPRMC,093731,A,4820.9414,N,432.0958,W,10.00,253.56,051115,,*30
$GPRMC,093731,A,4820.9391,N,432.1071,W,10.00,253.56,051115,,*39
$GPRMC,093731,A,4820.9369,N,432.1185,W,10.00,253.56,051115,,*34
$GPRMC,093731,A,4820.9347,N,432.1299,W,10.00,253.56,051115,,*36
$GPRMC,093731,A,4820.9324,N,432.1412,W,10.00,253.56,051115,,*36
$GPRMC,093731,A,4820.9302,N,432.1526,W,10.00,253.56,051115,,*34
$GPRMC,093731,A,4820.9280,N,432.1639,W,10.00,253.56,051115,,*32
$GPRMC,093731,A,4820.9257,N,432.1753,W,10.00,253.56,051115,,*35
$GPRMC,093731,A,4820.9235,N,432.1867,W,10.00,253.56,051115,,*39
$GPRMC,093731,A,4820.9212,N,432.1980,W,10.00,253.56,051115,,*34
$GPRMC,093731,A,4820.9190,N,432.2094,W,10.00,253.56,051115,,*32
$GPRMC,093731,A,4820.9168,N,432.2207,W,10.00,253.56,051115,,*3D
$GPRMC,093731,A,4820.9145,N,432.2321,W,10.00,253.56,051115,,*37
$GPRMC,093731,A,4820.9123,N,432.2434,W,10.00,253.56,051115,,*34
$GPRMC,093731,A,4820.9100,N,432.2548,W,10.00,253.56,051115,,*3F
$GPRMC,093731,A,4820.9078,N,432.2662,W,10.00,253.56,051115,,*3A
$GPRMC,093731,A,4820.9056,N,432.2775,W,10.00,253.56,051115,,*31
$GPRMC,093731,A,4820.9033,N,432.2889,W,10.00,253.56,051115,,*3E
$GPRMC,093731,A,4820.9011,N,432.3002,W,10.00,253.56,051115,,*34
$GPRMC,093731,A,4820.8999,N,432.3064,W,10.00,244.84,051115,,*35
$GPRMC,093731,A,4820.8948,N,432.3227,W,10.00,244.84,051115,,*3C
$GPRMC,093731,A,4820.8897,N,432.3389,W,10.00,244.84,051115,,*3A
$GPRMC,093731,A,4820.8846,N,432.3552,W,10.00,244.84,051115,,*36
$GPRMC,093731,A,4820.8795,N,432.3714,W,10.00,244.84,051115,,*37
$GPRMC,093731,A,4820.8744,N,432.3877,W,10.00,244.84,051115,,*31
$GPRMC,093731,A,4820.8693,N,432.4039,W,10.00,244.84,051115,,*3F
$GPRMC,093731,A,4820.8642,N,432.4202,W,10.00,244.84,051115,,*39
$GPRMC,093731,A,4820.8592,N,432.4364,W,10.00,244.84,051115,,*36
$GPRMC,093731,A,4820.8541,N,432.4527,W,10.00,244.84,051115,,*39
$GPRMC,093731,A,4820.8490,N,432.4689,W,10.00,244.84,051115,,*33
$GPRMC,093731,A,4820.8439,N,432.4852,W,10.00,244.84,051115,,*38
$GPRMC,093731,A,4820.8388,N,432.5014,W,10.00,244.84,051115,,*3E
$GPRMC,093731,A,4820.8337,N,432.5177,W,10.00,244.84,051115,,*3E
$GPRMC,093731,A,4820.8286,N,432.5339,W,10.00,244.84,051115,,*3D
$GPRMC,093731,A,4820.8235,N,432.5502,W,10.00,244.84,051115,,*3B
$GPRMC,093731,A,4820.8184,N,432.5664,W,10.00,244.84,051115,,*31
$GPRMC,093731,A,4820.8134,N,432.5827,W,10.00,244.84,051115,,*33
$GPRMC,093731,A,4820.8083,N,432.5989,W,10.00,244.84,051115,,*3B
$GPRMC,093731,A,4820.8032,N,432.6152,W,10.00,244.84,051115,,*3C
$GPRMC,093731,A,4820.7981,N,432.6314,W,10.00,244.84,051115,,*32
$GPRMC,093731,A,4820.7930,N,432.6477,W,10.00,244.84,051115,,*3A
$GPRMC,093731,A,4820.7879,N,432.6639,W,10.00,244.84,051115,,*3E
$GPRMC,093731,A,4820.7828,N,432.6802,W,10.00,244.84,051115,,*3C
$GPRMC,093731,A,4820.7777,N,432.6964,W,10.00,244.84,051115,,*38
$GPRMC,093731,A,4820.7726,N,432.7127,W,10.00,244.84,051115,,*32
$GPRMC,093731,A,4820.7676,N,432.7289,W,10.00,244.84,051115,,*31
$GPRMC,093731,A,4820.7625,N,432.7452,W,10.00,244.84,051115,,*37
$GPRMC,093731,A,4820.7574,N,432.7614,W,10.00,244.84,051115,,*30
$GPRMC,093731,A,4820.7523,N,432.7777,W,10.00,244.84,051115,,*36
$GPRMC,093731,A,4820.7472,N,432.7939,W,10.00,244.84,051115,,*37
$GPRMC,093731,A,4820.7421,N,432.8102,W,10.00,244.84,051115,,*3E
$GPRMC,093731,A,4820.7370,N,432.8264,W,10.00,244.84,051115,,*3E
$GPRMC,093731,A,4820.7319,N,432.8427,W,10.00,244.84,051115,,*30
$GPRMC,093731,A,4820.7268,N,432.8589,W,10.00,244.84,051115,,*32
$GPRMC,093731,A,4820.7217,N,432.8752,W,10.00,244.84,051115,,*3E
$GPRMC,093731,A,4820.7167,N,432.8914,W,10.00,244.84,051115,,*36
$GPRMC,093731,A,4820.7116,N,432.9077,W,10.00,244.84,051115,,*3D
$GPRMC,093731,A,4820.7065,N,432.9239,W,10.00,244.84,051115,,*30
$GPRMC,093731,A,4820.7014,N,432.9402,W,10.00,244.84,051115,,*38
$GPRMC,093731,A,4820.6963,N,432.9564,W,10.00,244.84,051115,,*31
$GPRMC,093731,A,4820.6912,N,432.9727,W,10.00,244.84,051115,,*32
$GPRMC,093731,A,4820.6861,N,432.9889,W,10.00,244.84,051115,,*3C
$GPRMC,093731,A,4820.6810,N,433.0052,W,10.00,244.84,051115,,*3C
$GPRMC,093731,A,4820.6759,N,433.0214,W,10.00,244.84,051115,,*3E
$GPRMC,093731,A,4820.6708,N,433.0377,W,10.00,244.84,051115,,*3E
$GPRMC,093731,A,4820.6658,N,433.0539,W,10.00,244.84,051115,,*36
$GPRMC,093731,A,4820.6607,N,433.0702,W,10.00,244.84,051115,,*36
$GPRMC,093731,A,4820.6556,N,433.0864,W,10.00,244.84,051115,,*3E
$GPRMC,093731,A,4820.6505,N,433.1027,W,10.00,244.84,051115,,*36
$GPRMC,093731,A,4820.6454,N,433.1189,W,10.00,244.84,051115,,*36
$GPRMC,093731,A,4820.6403,N,433.1352,W,10.00,244.84,051115,,*30
$GPRMC,093731,A,4820.6352,N,433.1514,W,10.00,244.84,051115,,*37
$GPRMC,093731,A,4820.6301,N,433.1677,W,10.00,244.84,051115,,*37
$GPRMC,093731,A,4820.6250,N,433.1839,W,10.00,244.84,051115,,*36
$GPRMC,093731,A,4820.6199,N,433.2002,W,10.00,244.84,051115,,*33
$GPRMC,093731,A,4820.6148,N,433.2164,W,10.00,244.84,051115,,*3E
$GPRMC,093731,A,4820.6098,N,433.2327,W,10.00,244.84,051115,,*37
$GPRMC,093731,A,4820.6047,N,433.2489,W,10.00,244.84,051115,,*36
$GPRMC,093731,A,4820.5996,N,433.2652,W,10.00,244.84,051115,,*34
$GPRMC,093731,A,4820.5945,N,433.2814,W,10.00,244.84,051115,,*36
$GPRMC,093731,A,4820.5894,N,433.2977,W,10.00,244.84,051115,,*3F
$GPRMC,093731,A,4820.5843,N,433.3139,W,10.00,244.84,051115,,*36
$GPRMC,093731,A,4820.5792,N,433.3302,W,10.00,244.84,051115,,*3F
$GPRMC,093731,A,4820.5741,N,433.3464,W,10.00,244.84,051115,,*36
$GPRMC,093731,A,4820.5690,N,433.3627,W,10.00,244.84,051115,,*3E
$GPRMC,093731,A,4820.5639,N,433.3789,W,10.00,244.84,051115,,*38
$GPRMC,093731,A,4820.5588,N,433.3952,W,10.00,244.84,051115,,*39
$GPRMC,093731,A,4820.5538,N,433.4114,W,10.00,244.84,051115,,*3F
$GPRMC,093731,A,4820.5487,N,433.4277,W,10.00,244.84,051115,,*3C
$GPRMC,093731,A,4820.5436,N,433.4439,W,10.00,244.84,051115,,*3A
$GPRMC,093731,A,4820.5385,N,433.4602,W,10.00,244.84,051115,,*3F
$GPRMC,093731,A,4820.5334,N,433.4764,W,10.00,244.84,051115,,*34
$GPRMC,093731,A,4820.5283,N,433.4926,W,10.00,244.84,051115,,*31
$GPRMC,093731,A,4820.5232,N,433.5089,W,10.00,244.84,051115,,*36
$GPRMC,093731,A,4820.5181,N,433.5251,W,10.00,244.84,051115,,*3A
$GPRMC,093731,A,4820.5130,N,433.5414,W,10.00,244.84,051115,,*37
$GPRMC,093731,A,4820.5079,N,433.5576,W,10.00,244.84,051115,,*3E
$GPRMC,093731,A,4820.5028,N,433.5739,W,10.00,244.84,051115,,*33
$GPRMC,093731,A,4820.4977,N,433.5901,W,10.00,244.84,051115,,*34
$GPRMC,093731,A,4820.4927,N,433.6064,W,10.00,244.84,051115,,*38
$GPRMC,093731,A,4820.4876,N,433.6226,W,10.00,244.84,051115,,*39
$GPRMC,093731,A,4820.4825,N,433.6389,W,10.00,244.84,051115,,*3B
$GPRMC,093731,A,4820.4774,N,433.6551,W,10.00,244.84,051115,,*33
$GPRMC,093731,A,4820.4723,N,433.6714,W,10.00,244.84,051115,,*32
$GPRMC,093731,A,4820.4672,N,433.6876,W,10.00,244.84,051115,,*3C
$GPRMC,093731,A,4820.4621,N,433.7039,W,10.00,244.84,051115,,*38
$GPRMC,093731,A,4820.4570,N,433.7201,W,10.00,244.84,051115,,*36
$GPRMC,093731,A,4820.4519,N,433.7364,W,10.00,244.84,051115,,*3B
$GPRMC,093731,A,4820.4468,N,433.7526,W,10.00,244.84,051115,,*3C
$GPRMC,093731,A,4820.4417,N,433.7688,W,10.00,244.84,051115,,*33
$GPRMC,093731,A,4820.4366,N,433.7851,W,10.00,244.84,051115,,*38
$GPRMC,093731,A,4820.4316,N,433.8013,W,10.00,244.84,051115,,*3E
$GPRMC,093731,A,4820.4265,N,433.8176,W,10.00,244.84,051115,,*39
$GPRMC,093731,A,4820.4214,N,433.8338,W,10.00,244.84,051115,,*37
$GPRMC,093731,A,4820.4163,N,433.8501,W,10.00,244.84,051115,,*38
$GPRMC,093731,A,4820.4112,N,433.8663,W,10.00,244.84,051115,,*39
$GPRMC,093731,A,4820.4061,N,433.8826,W,10.00,244.84,051115,,*33
$GPRMC,093731,A,4820.4010,N,433.8988,W,10.00,244.84,051115,,*30
$GPRMC,093731,A,4820.3959,N,433.9151,W,10.00,244.84,051115,,*3E
$GPRMC,093731,A,4820.3908,N,433.9313,W,10.00,244.84,051115,,*3E
$GPRMC,093731,A,4820.3857,N,433.9476,W,10.00,244.84,051115,,*31
$GPRMC,093731,A,4820.3825,N,433.9577,W,10.00,228.56,051115,,*31
$GPRMC,093731,A,4820.3740,N,433.9721,W,10.00,228.56,051115,,*3C
$GPRMC,093731,A,4820.3656,N,433.9866,W,10.00,228.56,051115,,*36
$GPRMC,093731,A,4820.3571,N,434.0010,W,10.00,228.56,051115,,*37
$GPRMC,093731,A,4820.3486,N,434.0154,W,10.00,228.56,051115,,*3F
$GPRMC,093731,A,4820.3401,N,434.0298,W,10.00,228.56,051115,,*33
$GPRMC,093731,A,4820.3316,N,434.0443,W,10.00,228.56,051115,,*32
$GPRMC,093731,A,4820.3231,N,434.0587,W,10.00,228.56,051115,,*3F
$GPRMC,093731,A,4820.3146,N,434.0731,W,10.00,228.56,051115,,*33
$GPRMC,093731,A,4820.3061,N,434.0875,W,10.00,228.56,051115,,*38
$GPRMC,093731,A,4820.2976,N,434.1020,W,10.00,228.56,051115,,*3F
$GPRMC,093731,A,4820.2891,N,434.1164,W,10.00,228.56,051115,,*36
$GPRMC,093731,A,4820.2806,N,434.1308,W,10.00,228.56,051115,,*30
$GPRMC,093731,A,4820.2721,N,434.1452,W,10.00,228.56,051115,,*32
$GPRMC,093731,A,4820.2637,N,434.1597,W,10.00,228.56,051115,,*3C
$GPRMC,093731,A,4820.2552,N,434.1741,W,10.00,228.56,051115,,*35
$GPRMC,093731,A,4820.2467,N,434.1885,W,10.00,228.56,051115,,*35
$GPRMC,093731,A,4820.2382,N,434.2029,W,10.00,228.56,051115,,*34
$GPRMC,093731,A,4820.2297,N,434.2173,W,10.00,228.56,051115,,*3F
$GPRMC,093731,A,4820.2212,N,434.2318,W,10.00,228.56,051115,,*3D
$GPRMC,093731,A,4820.2127,N,434.2462,W,10.00,228.56,051115,,*32
$GPRMC,093731,A,4820.2042,N,434.2606,W,10.00,228.56,051115,,*30
$GPRMC,093731,A,4820.1957,N,434.2750,W,10.00,228.56,051115,,*3C
$GPRMC,093731,A,4820.1872,N,434.2895,W,10.00,228.56,051115,,*3C
$GPRMC,093731,A,4820.1787,N,434.3039,W,10.00,228.56,051115,,*36
$GPRMC,093731,A,4820.1702,N,434.3183,W,10.00,228.56,051115,,*3B
$GPRMC,093731,A,4820.1618,N,434.3327,W,10.00,228.56,051115,,*3D
$GPRMC,093731,A,4820.1533,N,434.3472,W,10.00,228.56,051115,,*30
$GPRMC,093731,A,4820.1448,N,434.3616,W,10.00,228.56,051115,,*3D
$GPRMC,093731,A,4820.1363,N,434.3760,W,10.00,228.56,051115,,*33
$GPRMC,093731,A,4820.1278,N,434.3904,W,10.00,228.56,051115,,*34
$GPRMC,093731,A,4820.1193,N,434.4048,W,10.00,228.56,051115,,*34
$GPRMC,093731,A,4820.1108,N,434.4193,W,10.00,228.56,051115,,*31
$GPRMC,093731,A,4820.1023,N,434.4337,W,10.00,228.56,051115,,*35
$GPRMC,093731,A,4820.0938,N,434.4481,W,10.00,228.56,051115,,*3D
$GPRMC,093731,A,4820.0853,N,434.4625,W,10.00,228.56,051115,,*3D
$GPRMC,093731,A,4820.0768,N,434.4770,W,10.00,228.56,051115,,*3B
$GPRMC,093731,A,4820.0683,N,434.4914,W,10.00,228.56,051115,,*33
$GPRMC,093731,A,4820.0598,N,434.5058,W,10.00,228.56,051115,,*3A
$GPRMC,093731,A,4820.0514,N,434.5202,W,10.00,228.56,051115,,*33
$GPRMC,093731,A,4820.0429,N,434.5346,W,10.00,228.56,051115,,*3D
$GPRMC,093731,A,4820.0344,N,434.5491,W,10.00,228.56,051115,,*3C
$GPRMC,093731,A,4820.0259,N,434.5635,W,10.00,228.56,051115,,*3D
$GPRMC,093731,A,4820.0174,N,434.5779,W,10.00,228.56,051115,,*38
$GPRMC,093731,A,4820.0089,N,434.5923,W,10.00,228.56,051115,,*3A
$GPRMC,093731,A,4820.0004,N,434.6067,W,10.00,228.56,051115,,*35
$GPRMC,093731,A,4819.9919,N,434.6212,W,10.00,228.56,051115,,*33
$GPRMC,093731,A,4819.9834,N,434.6356,W,10.00,228.56,051115,,*3C
$GPRMC,093731,A,4819.9749,N,434.6500,W,10.00,228.56,051115,,*3C
$GPRMC,093731,A,4819.9664,N,434.6644,W,10.00,228.56,051115,,*31
$GPRMC,093731,A,4819.9579,N,434.6788,W,10.00,228.56,051115,,*3F
$GPRMC,093731,A,4819.9494,N,434.6933,W,10.00,228.56,051115,,*33
$GPRMC,093731,A,4819.9410,N,434.7077,W,10.00,228.56,051115,,*37
$GPRMC,093731,A,4819.9325,N,434.7221,W,10.00,228.56,051115,,*37
$GPRMC,093731,A,4819.9240,N,434.7365,W,10.00,228.56,051115,,*34
$GPRMC,093731,A,4819.9155,N,434.7510,W,10.00,228.56,051115,,*37
$GPRMC,093731,A,4819.9070,N,434.7654,W,10.00,228.56,051115,,*32
$GPRMC,093731,A,4819.8985,N,434.7798,W,10.00,228.56,051115,,*31
$GPRMC,093731,A,4819.8900,N,434.7942,W,10.00,228.56,051115,,*35
$GPRMC,093731,A,4819.8815,N,434.8086,W,10.00,228.56,051115,,*3E
$GPRMC,093731,A,4819.8730,N,434.8231,W,10.00,228.56,051115,,*38
$GPRMC,093731,A,4819.8645,N,434.8375,W,10.00,228.56,051115,,*3A
$GPRMC,093731,A,4819.8560,N,434.8519,W,10.00,228.56,051115,,*32
$GPRMC,093731,A,4819.8475,N,434.8663,W,10.00,228.56,051115,,*39
$GPRMC,093731,A,4819.8390,N,434.8807,W,10.00,228.56,051115,,*39
$GPRMC,093731,A,4819.8305,N,434.8952,W,10.00,228.56,051115,,*34
$GPRMC,093731,A,4819.8220,N,434.9096,W,10.00,228.56,051115,,*32
$GPRMC,093731,A,4819.8136,N,434.9240,W,10.00,228.56,051115,,*3F
$GPRMC,093731,A,4819.8051,N,434.9384,W,10.00,228.56,051115,,*36
$GPRMC,093731,A,4819.7966,N,434.9528,W,10.00,228.56,051115,,*34
$GPRMC,093731,A,4819.7881,N,434.9672,W,10.00,228.56,051115,,*30
$GPRMC,093731,A,4819.7796,N,434.9817,W,10.00,228.56,051115,,*34
$GPRMC,093731,A,4819.7711,N,434.9961,W,10.00,228.56,051115,,*3B
$GPRMC,093731,A,4819.7626,N,435.0105,W,10.00,228.56,051115,,*3C
$GPRMC,093731,A,4819.7541,N,435.0249,W,10.00,228.56,051115,,*35
$GPRMC,093731,A,4819.7456,N,435.0393,W,10.00,228.56,051115,,*34
$GPRMC,093731,A,4819.7371,N,435.0538,W,10.00,228.56,051115,,*31
$GPRMC,093731,A,4819.7286,N,435.0682,W,10.00,228.56,051115,,*3A
$GPRMC,093731,A,4819.7201,N,435.0826,W,10.00,228.56,051115,,*35
$GPRMC,093731,A,4819.7116,N,435.0970,W,10.00,228.56,051115,,*32
$GPRMC,093731,A,4819.7031,N,435.1114,W,10.00,228.56,051115,,*3D
$GPRMC,093731,A,4819.6946,N,435.1259,W,10.00,228.56,051115,,*3F
$GPRMC,093731,A,4819.6862,N,435.1403,W,10.00,228.56,051115,,*31
$GPRMC,093731,A,4819.6777,N,435.1547,W,10.00,228.56,051115,,*3B
$GPRMC,093731,A,4819.6692,N,435.1691,W,10.00,228.56,051115,,*39
$GPRMC,093731,A,4819.6607,N,435.1835,W,10.00,228.56,051115,,*35
$GPRMC,093731,A,4819.6522,N,435.1979,W,10.00,228.56,051115,,*38
$GPRMC,093731,A,4819.6437,N,435.2124,W,10.00,228.56,051115,,*3E
$GPRMC,093731,A,4819.6352,N,435.2268,W,10.00,228.56,051115,,*31
$GPRMC,093731,A,4819.6314,N,435.2333,W,10.00,351.17,051115,,*36
$GPRMC,093731,A,4819.6577,N,435.2394,W,10.00,351.17,051115,,*38
$GPRMC,093731,A,4819.6841,N,435.2455,W,10.00,351.17,051115,,*3A
$GPRMC,093731,A,4819.7104,N,435.2517,W,10.00,351.17,051115,,*34
$GPRMC,093731,A,4819.7368,N,435.2578,W,10.00,351.17,051115,,*35
$GPRMC,093731,A,4819.7631,N,435.2640,W,10.00,351.17,051115,,*34
$GPRMC,093731,A,4819.7895,N,435.2701,W,10.00,351.17,051115,,*30
$GPRMC,093731,A,4819.8159,N,435.2762,W,10.00,351.17,051115,,*33
$GPRMC,093731,A,4819.8422,N,435.2824,W,10.00,351.17,051115,,*37
$GPRMC,093731,A,4819.8686,N,435.2885,W,10.00,351.17,051115,,*30
$GPRMC,093731,A,4819.8949,N,435.2946,W,10.00,351.17,051115,,*32
$GPRMC,093731,A,4819.9213,N,435.3008,W,10.00,351.17,051115,,*35
$GPRMC,093731,A,4819.9476,N,435.3069,W,10.00,351.17,051115,,*37
$GPRMC,093731,A,4819.9740,N,435.3131,W,10.00,351.17,051115,,*3D
$GPRMC,093731,A,4820.0003,N,435.3192,W,10.00,351.17,051115,,*37
$GPRMC,093731,A,4820.0267,N,435.3253,W,10.00,351.17,051115,,*39
$GPRMC,093731,A,4820.0531,N,435.3315,W,10.00,351.17,051115,,*3E
$GPRMC,093731,A,4820.0794,N,435.3376,W,10.00,351.17,051115,,*36
$GPRMC,093731,A,4820.1058,N,435.3438,W,10.00,351.17,051115,,*3D
$GPRMC,093731,A,4820.1321,N,435.3499,W,10.00,351.17,051115,,*3B
$GPRMC,093731,A,4820.1585,N,435.3560,W,10.00,351.17,051115,,*34
