$GPRMC,111155,A,4823.2875,N,425.5176,W,10.00,200.85,161115,,*31
$GPRMC,111155,A,4823.2135,N,425.5599,W,10.00,200.85,161115,,*39
$GPRMC,111155,A,4823.1394,N,425.6022,W,10.00,200.85,161115,,*35
$GPRMC,111155,A,4823.0654,N,425.6445,W,10.00,200.85,161115,,*38
$GPRMC,111155,A,4822.9914,N,425.6869,W,10.00,200.85,161115,,*39
$GPRMC,111155,A,4822.9174,N,425.7292,W,10.00,200.85,161115,,*38
$GPRMC,111155,A,4822.8434,N,425.7715,W,10.00,200.85,161115,,*32
$GPRMC,111155,A,4822.7694,N,425.8138,W,10.00,200.85,161115,,*33
$GPRMC,111155,A,4822.6953,N,425.8561,W,10.00,200.85,161115,,*3E
$GPRMC,111155,A,4822.6213,N,425.8984,W,10.00,200.85,161115,,*36
$GPRMC,111155,A,4822.5473,N,425.9407,W,10.00,200.85,161115,,*32
$GPRMC,111155,A,4822.4733,N,425.9830,W,10.00,200.85,161115,,*3C
$GPRMC,111155,A,4822.4286,N,426.0085,W,10.00,265.81,161115,,*3C
$GPRMC,111155,A,4822.4236,N,426.1112,W,10.00,265.81,161115,,*39
$GPRMC,111155,A,4822.4186,N,426.2140,W,10.00,265.81,161115,,*35
$GPRMC,111155,A,4822.4136,N,426.3167,W,10.00,265.81,161115,,*3A
$GPRMC,111155,A,4822.4085,N,426.4194,W,10.00,265.81,161115,,*38
$GPRMC,111155,A,4822.4035,N,426.5221,W,10.00,265.81,161115,,*3F
$GPRMC,111155,A,4822.3985,N,426.6249,W,10.00,265.81,161115,,*37
$GPRMC,111155,A,4822.3935,N,426.7276,W,10.00,265.81,161115,,*31
$GPRMC,111155,A,4822.3884,N,426.8303,W,10.00,265.81,161115,,*36
$GPRMC,111155,A,4822.3834,N,426.9330,W,10.00,265.81,161115,,*3C
$GPRMC,111155,A,4822.3784,N,427.0357,W,10.00,265.81,161115,,*31
$GPRMC,111155,A,4822.3733,N,427.1385,W,10.00,265.81,161115,,*33
$GPRMC,111155,A,4822.3683,N,427.2412,W,10.00,265.81,161115,,*33
$GPRMC,111155,A,4822.3633,N,427.3439,W,10.00,265.81,161115,,*30
$GPRMC,111155,A,4822.3582,N,427.4466,W,10.00,265.81,161115,,*34
$GPRMC,111155,A,4822.3532,N,427.5493,W,10.00,265.81,161115,,*34
$GPRMC,111155,A,4822.3509,N,427.5962,W,10.00,193.61,161115,,*3B
$GPRMC,111155,A,4822.1946,N,427.6530,W,10.00,193.61,161115,,*36
$GPRMC,111155,A,4822.0384,N,427.7098,W,10.00,193.61,161115,,*35
$GPRMC,111155,A,4821.9107,N,427.7561,W,10.00,192.88,161115,,*33
$GPRMC,111155,A,4821.8411,N,427.7800,W,10.00,192.88,161115,,*3A
$GPRMC,111155,A,4821.7715,N,427.8039,W,10.00,192.88,161115,,*3F
$GPRMC,111155,A,4821.7019,N,427.8278,W,10.00,192.88,161115,,*33
$GPRMC,111155,A,4821.6324,N,427.8517,W,10.00,192.88,161115,,*31
$GPRMC,111155,A,4821.5628,N,427.8755,W,10.00,192.88,161115,,*3F
$GPRMC,111155,A,4821.4932,N,427.8994,W,10.00,192.88,161115,,*39
$GPRMC,111155,A,4821.4236,N,427.9233,W,10.00,192.88,161115,,*31
$GPRMC,111155,A,4821.3540,N,427.9472,W,10.00,192.88,161115,,*33
$GPRMC,111155,A,4821.2844,N,427.9711,W,10.00,192.88,161115,,*3D
$GPRMC,111155,A,4821.2148,N,427.9949,W,10.00,192.88,161115,,*3B
$GPRMC,111155,A,4821.1452,N,428.0188,W,10.00,192.88,161115,,*35
$GPRMC,111155,A,4821.0756,N,428.0427,W,10.00,192.88,161115,,*33
$GPRMC,111155,A,4821.0060,N,428.0665,W,10.00,192.88,161115,,*35
$GPRMC,111155,A,4820.9364,N,428.0904,W,10.00,192.88,161115,,*32
$GPRMC,111155,A,4820.9169,N,428.0971,W,10.00,244.07,161115,,*30
$GPRMC,111155,A,4820.8799,N,428.2112,W,10.00,244.07,161115,,*37
$GPRMC,111155,A,4820.8429,N,428.3254,W,10.00,244.07,161115,,*3F
$GPRMC,111155,A,4820.8059,N,428.4395,W,10.00,244.07,161115,,*37
$GPRMC,111155,A,4820.7689,N,428.5536,W,10.00,244.07,161115,,*3D
$GPRMC,111155,A,4820.7319,N,428.6677,W,10.00,244.07,161115,,*34
$GPRMC,111155,A,4820.6949,N,428.7818,W,10.00,244.07,161115,,*3C
$GPRMC,111155,A,4820.6579,N,428.8959,W,10.00,244.07,161115,,*38
$GPRMC,111155,A,4820.6209,N,429.0100,W,10.00,244.07,161115,,*35
$GPRMC,111155,A,4820.5839,N,429.1241,W,10.00,244.07,161115,,*38
$GPRMC,111155,A,4820.5469,N,429.2382,W,10.00,244.07,161115,,*3C
$GPRMC,111155,A,4820.5405,N,429.2579,W,10.00,338.11,161115,,*39
$GPRMC,111155,A,4820.6129,N,429.3015,W,10.00,338.11,161115,,*3F
$GPRMC,111155,A,4820.6852,N,429.3451,W,10.00,338.11,161115,,*3E
$GPRMC,111155,A,4820.7576,N,429.3887,W,10.00,338.11,161115,,*33
$GPRMC,111155,A,4820.8299,N,429.4324,W,10.00,338.11,161115,,*3F
$GPRMC,111155,A,4820.9023,N,429.4760,W,10.00,338.11,161115,,*39
$GPRMC,111155,A,4820.9746,N,429.5196,W,10.00,338.11,161115,,*33
$GPRMC,111155,A,4821.0470,N,429.5633,W,10.00,338.11,161115,,*35
$GPRMC,111155,A,4821.1194,N,429.6069,W,10.00,338.11,161115,,*31
$GPRMC,111155,A,4821.1917,N,429.6505,W,10.00,338.11,161115,,*3D
$GPRMC,111155,A,4821.2641,N,429.6942,W,10.00,338.11,161115,,*3D
$GPRMC,111155,A,4821.3364,N,429.7378,W,10.00,338.11,161115,,*3C
$GPRMC,111155,A,4821.4065,N,429.7801,W,10.00,254.38,161115,,*3C
$GPRMC,111155,A,4821.3826,N,429.9086,W,10.00,254.38,161115,,*3D
$GPRMC,111155,A,4821.3586,N,430.0372,W,10.00,254.38,161115,,*33
$GPRMC,111155,A,4821.3346,N,430.1657,W,10.00,254.38,161115,,*3A
$GPRMC,111155,A,4821.3107,N,430.2943,W,10.00,254.38,161115,,*34
$GPRMC,111155,A,4821.2867,N,430.4228,W,10.00,254.38,161115,,*3A
$GPRMC,111155,A,4821.2627,N,430.5513,W,10.00,254.38,161115,,*3E
$GPRMC,111155,A,4821.2388,N,430.6799,W,10.00,254.38,161115,,*3D
$GPRMC,111155,A,4821.2148,N,430.8084,W,10.00,254.38,161115,,*36
$GPRMC,111155,A,4821.1908,N,430.9369,W,10.00,254.38,161115,,*38
$GPRMC,111155,A,4821.1861,N,430.9624,W,10.00,279.05,161115,,*3B
$GPRMC,111155,A,4821.2073,N,431.1623,W,10.00,279.05,161115,,*3D
$GPRMC,111155,A,4821.2285,N,431.3623,W,10.00,279.05,161115,,*34
$GPRMC,111155,A,4821.2498,N,431.5623,W,10.00,279.05,161115,,*38
$GPRMC,111155,A,4821.2709,N,431.7614,W,10.00,250.06,161115,,*3D
$GPRMC,111155,A,4821.2396,N,431.8909,W,10.00,250.06,161115,,*33
$GPRMC,111155,A,4821.2083,N,432.0203,W,10.00,250.06,161115,,*3E
$GPRMC,111155,A,4821.1770,N,432.1498,W,10.00,250.06,161115,,*33
$GPRMC,111155,A,4821.1456,N,432.2793,W,10.00,250.06,161115,,*3F
$GPRMC,111155,A,4821.1143,N,432.4087,W,10.00,250.06,161115,,*3A
$GPRMC,111155,A,4821.0830,N,432.5382,W,10.00,250.06,161115,,*31
$GPRMC,111155,A,4821.0517,N,432.6676,W,10.00,250.06,161115,,*34
$GPRMC,111155,A,4821.0204,N,432.7971,W,10.00,250.06,161115,,*38
$GPRMC,111155,A,4821.0004,N,432.8797,W,10.00,227.30,161115,,*36
$GPRMC,111155,A,4820.8658,N,433.0984,W,10.00,227.30,161115,,*35
