$GPRMC,024914,A,4821.4819,N,429.6983,W,10.00,254.51,210318,,*3A
$GPRMC,024914,A,4821.4814,N,429.7012,W,10.00,254.51,210318,,*37
$GPRMC,024914,A,4821.4808,N,429.7040,W,10.00,254.51,210318,,*3D
$GPRMC,024914,A,4821.4803,N,429.7069,W,10.00,254.51,210318,,*3D
$GPRMC,024914,A,4821.4798,N,429.7098,W,10.00,254.51,210318,,*3E
$GPRMC,024914,A,4821.4792,N,429.7126,W,10.00,254.51,210318,,*30
$GPRMC,024914,A,4821.4787,N,429.7155,W,10.00,254.51,210318,,*30
$GPRMC,024914,A,4821.4782,N,429.7184,W,10.00,254.51,210318,,*39
$GPRMC,024914,A,4821.4777,N,429.7212,W,10.00,254.51,210318,,*3F
$GPRMC,024914,A,4821.4771,N,429.7241,W,10.00,254.51,210318,,*3F
$GPRMC,024914,A,4821.4766,N,429.7269,W,10.00,254.51,210318,,*33
$GPRMC,024914,A,4821.4761,N,429.7298,W,10.00,254.51,210318,,*3A
$GPRMC,024914,A,4821.4755,N,429.7327,W,10.00,254.51,210318,,*38
$GPRMC,024914,A,4821.4750,N,429.7355,W,10.00,254.51,210318,,*38
$GPRMC,024914,A,4821.4745,N,429.7384,W,10.00,254.51,210318,,*30
$GPRMC,024914,A,4821.4739,N,429.7413,W,10.00,254.51,210318,,*32
$GPRMC,024914,A,4821.4734,N,429.7441,W,10.00,254.51,210318,,*38
$GPRMC,024914,A,4821.4729,N,429.7470,W,10.00,254.51,210318,,*36
$GPRMC,024914,A,4821.4724,N,429.7498,W,10.00,254.51,210318,,*3D
$GPRMC,024914,A,4821.4718,N,429.7527,W,10.00,254.51,210318,,*37
$GPRMC,024914,A,4821.4713,N,429.7556,W,10.00,254.51,210318,,*3A
$GPRMC,024914,A,4821.4708,N,429.7584,W,10.00,254.51,210318,,*3F
$GPRMC,024914,A,4821.4702,N,429.7613,W,10.00,254.51,210318,,*38
$GPRMC,024914,A,4821.4697,N,429.7642,W,10.00,254.51,210318,,*31
$GPRMC,024914,A,4821.4692,N,429.7670,W,10.00,254.51,210318,,*35
$GPRMC,024914,A,4821.4687,N,429.7699,W,10.00,254.51,210318,,*36
$GPRMC,024914,A,4821.4681,N,429.7727,W,10.00,254.51,210318,,*34
$GPRMC,024914,A,4821.4676,N,429.7756,W,10.00,254.51,210318,,*3A
$GPRMC,024914,A,4821.4671,N,429.7785,W,10.00,254.51,210318,,*33
$GPRMC,024914,A,4821.4665,N,429.7813,W,10.00,254.51,210318,,*36
$GPRMC,024914,A,4821.4660,N,429.7842,W,10.00,254.51,210318,,*37
$GPRMC,024914,A,4821.4655,N,429.7871,W,10.00,254.51,210318,,*31
$GPRMC,024914,A,4821.4650,N,429.7899,W,10.00,254.51,210318,,*32
$GPRMC,024914,A,4821.4644,N,429.7928,W,10.00,254.51,210318,,*3C
$GPRMC,024914,A,4821.4639,N,429.7956,W,10.00,254.51,210318,,*3F
$GPRMC,024914,A,4821.4634,N,429.7985,W,10.00,254.51,210318,,*3C
$GPRMC,024914,A,4821.4628,N,429.8014,W,10.00,254.51,210318,,*3F
$GPRMC,024914,A,4821.4623,N,429.8042,W,10.00,254.51,210318,,*37
$GPRMC,024914,A,4821.4618,N,429.8071,W,10.00,254.51,210318,,*3F
$GPRMC,024914,A,4821.4613,N,429.8099,W,10.00,254.51,210318,,*32
$GPRMC,024914,A,4821.4607,N,429.8128,W,10.00,254.51,210318,,*3C
$GPRMC,024914,A,4821.4602,N,429.8157,W,10.00,254.51,210318,,*31
$GPRMC,024914,A,4821.4597,N,429.8185,W,10.00,254.51,210318,,*31
$GPRMC,024914,A,4821.4591,N,429.8214,W,10.00,254.51,210318,,*3C
$GPRMC,024914,A,4821.4586,N,429.8243,W,10.00,254.51,210318,,*38
$GPRMC,024914,A,4821.4581,N,429.8271,W,10.00,254.51,210318,,*3E
$GPRMC,024914,A,4821.4576,N,429.8300,W,10.00,254.51,210318,,*31
$GPRMC,024914,A,4821.4570,N,429.8328,W,10.00,254.51,210318,,*3D
$GPRMC,024914,A,4821.4565,N,429.8357,W,10.00,254.51,210318,,*31
$GPRMC,024914,A,4821.4560,N,429.8386,W,10.00,254.51,210318,,*38
$GPRMC,024914,A,4821.4554,N,429.8414,W,10.00,254.51,210318,,*33
$GPRMC,024914,A,4821.4549,N,429.8443,W,10.00,254.51,210318,,*3D
$GPRMC,024914,A,4821.4544,N,429.8472,W,10.00,254.51,210318,,*32
$GPRMC,024914,A,4821.4539,N,429.8500,W,10.00,254.51,210318,,*3C
$GPRMC,024914,A,4821.4533,N,429.8529,W,10.00,254.51,210318,,*3D
$GPRMC,024914,A,4821.4528,N,429.8557,W,10.00,254.51,210318,,*3E
$GPRMC,024914,A,4821.4523,N,429.8586,W,10.00,254.51,210318,,*39
$GPRMC,024914,A,4821.4517,N,429.8615,W,10.00,254.51,210318,,*37
$GPRMC,024914,A,4821.4512,N,429.8643,W,10.00,254.51,210318,,*31
$GPRMC,024914,A,4821.4507,N,429.8672,W,10.00,254.51,210318,,*37
$GPRMC,024914,A,4821.4502,N,429.8701,W,10.00,254.51,210318,,*37
$GPRMC,024914,A,4821.4496,N,429.8729,W,10.00,254.51,210318,,*31
$GPRMC,024914,A,4821.4491,N,429.8758,W,10.00,254.51,210318,,*30
$GPRMC,024914,A,4821.4486,N,429.8786,W,10.00,254.51,210318,,*35
$GPRMC,024914,A,4821.4480,N,429.8815,W,10.00,254.51,210318,,*36
$GPRMC,024914,A,4821.4475,N,429.8844,W,10.00,254.51,210318,,*38
$GPRMC,024914,A,4821.4470,N,429.8872,W,10.00,254.51,210318,,*38
$GPRMC,024914,A,4821.4465,N,429.8901,W,10.00,254.51,210318,,*39
$GPRMC,024914,A,4821.4459,N,429.8930,W,10.00,254.51,210318,,*34
$GPRMC,024914,A,4821.4454,N,429.8958,W,10.00,254.51,210318,,*37
$GPRMC,024914,A,4821.4449,N,429.8987,W,10.00,254.51,210318,,*39
$GPRMC,024914,A,4821.4443,N,429.9015,W,10.00,254.51,210318,,*30
$GPRMC,024914,A,4821.4438,N,429.9044,W,10.00,254.51,210318,,*38
$GPRMC,024914,A,4821.4433,N,429.9073,W,10.00,254.51,210318,,*37
$GPRMC,024914,A,4821.4428,N,429.9101,W,10.00,254.51,210318,,*39
$GPRMC,024914,A,4821.4422,N,429.9130,W,10.00,254.51,210318,,*31
$GPRMC,024914,A,4821.4417,N,429.9159,W,10.00,254.51,210318,,*38
$GPRMC,024914,A,4821.4412,N,429.9187,W,10.00,254.51,210318,,*3E
$GPRMC,024914,A,4821.4406,N,429.9216,W,10.00,254.51,210318,,*30
$GPRMC,024914,A,4821.4401,N,429.9244,W,10.00,254.51,210318,,*30
$GPRMC,024914,A,4821.4396,N,429.9273,W,10.00,254.51,210318,,*3D
$GPRMC,024914,A,4821.4391,N,429.9302,W,10.00,254.51,210318,,*3D
$GPRMC,024914,A,4821.4385,N,429.9330,W,10.00,254.51,210318,,*39
$GPRMC,024914,A,4821.4380,N,429.9359,W,10.00,254.51,210318,,*33
$GPRMC,024914,A,4821.4375,N,429.9388,W,10.00,254.51,210318,,*35
$GPRMC,024914,A,4821.4369,N,429.9416,W,10.00,254.51,210318,,*38
$GPRMC,024914,A,4821.4364,N,429.9445,W,10.00,254.51,210318,,*33
$GPRMC,024914,A,4821.4359,N,429.9473,W,10.00,254.51,210318,,*38
$GPRMC,024914,A,4821.4354,N,429.9502,W,10.00,254.51,210318,,*32
$GPRMC,024914,A,4821.4348,N,429.9531,W,10.00,254.51,210318,,*3F
$GPRMC,024914,A,4821.4343,N,429.9559,W,10.00,254.51,210318,,*3A
$GPRMC,024914,A,4821.4338,N,429.9588,W,10.00,254.51,210318,,*3A
$GPRMC,024914,A,4821.4332,N,429.9617,W,10.00,254.51,210318,,*35
$GPRMC,024914,A,4821.4327,N,429.9645,W,10.00,254.51,210318,,*36
$GPRMC,024914,A,4821.4322,N,429.9674,W,10.00,254.51,210318,,*31
$GPRMC,024914,A,4821.4317,N,429.9702,W,10.00,254.51,210318,,*37
$GPRMC,024914,A,4821.4311,N,429.9731,W,10.00,254.51,210318,,*31
$GPRMC,024914,A,4821.4306,N,429.9760,W,10.00,254.51,210318,,*33
$GPRMC,024914,A,4821.4301,N,429.9788,W,10.00,254.51,210318,,*32
$GPRMC,024914,A,4821.4295,N,429.9817,W,10.00,254.51,210318,,*37
$GPRMC,024914,A,4821.4290,N,429.9846,W,10.00,254.51,210318,,*36
$GPRMC,024914,A,4821.4285,N,429.9874,W,10.00,254.51,210318,,*33
$GPRMC,024914,A,4821.4280,N,429.9903,W,10.00,254.51,210318,,*37
$GPRMC,024914,A,4821.4274,N,429.9931,W,10.00,254.51,210318,,*3D
$GPRMC,024914,A,4821.4269,N,429.9960,W,10.00,254.51,210318,,*35
$GPRMC,024914,A,4821.4264,N,429.9989,W,10.00,254.51,210318,,*3F
$GPRMC,024914,A,4821.4258,N,430.0017,W,10.00,254.51,210318,,*3F
$GPRMC,024914,A,4821.4253,N,430.0046,W,10.00,254.51,210318,,*30
$GPRMC,024914,A,4821.4248,N,430.0075,W,10.00,254.51,210318,,*3A
$GPRMC,024914,A,4821.4243,N,430.0103,W,10.00,254.51,210318,,*31
$GPRMC,024914,A,4821.4237,N,430.0132,W,10.00,254.51,210318,,*30
$GPRMC,024914,A,4821.4232,N,430.0160,W,10.00,254.51,210318,,*32
$GPRMC,024914,A,4821.4227,N,430.0189,W,10.00,254.51,210318,,*31
$GPRMC,024914,A,4821.4221,N,430.0218,W,10.00,254.51,210318,,*3C
$GPRMC,024914,A,4821.4216,N,430.0246,W,10.00,254.51,210318,,*33
$GPRMC,024914,A,4821.4211,N,430.0275,W,10.00,254.51,210318,,*34
$GPRMC,024914,A,4821.4206,N,430.0303,W,10.00,254.51,210318,,*32
$GPRMC,024914,A,4821.4200,N,430.0332,W,10.00,254.51,210318,,*36
$GPRMC,024914,A,4821.4195,N,430.0361,W,10.00,254.51,210318,,*3F
$GPRMC,024914,A,4821.4190,N,430.0389,W,10.00,254.51,210318,,*3C
$GPRMC,024914,A,4821.4184,N,430.0418,W,10.00,254.51,210318,,*36
$GPRMC,024914,A,4821.4179,N,430.0447,W,10.00,254.51,210318,,*3E
$GPRMC,024914,A,4821.4174,N,430.0475,W,10.00,254.51,210318,,*32
$GPRMC,024914,A,4821.4169,N,430.0504,W,10.00,254.51,210318,,*39
$GPRMC,024914,A,4821.4163,N,430.0532,W,10.00,254.51,210318,,*36
$GPRMC,024914,A,4821.4158,N,430.0561,W,10.00,254.51,210318,,*38
$GPRMC,024914,A,4821.4153,N,430.0590,W,10.00,254.51,210318,,*3D
$GPRMC,024914,A,4821.4147,N,430.0618,W,10.00,254.51,210318,,*3B
$GPRMC,024914,A,4821.4142,N,430.0647,W,10.00,254.51,210318,,*34
$GPRMC,024914,A,4821.4137,N,430.0676,W,10.00,254.51,210318,,*34
$GPRMC,024914,A,4821.4131,N,430.0704,W,10.00,254.51,210318,,*36
$GPRMC,024914,A,4821.4126,N,430.0733,W,10.00,254.51,210318,,*34
$GPRMC,024914,A,4821.4121,N,430.0761,W,10.00,254.51,210318,,*34
$GPRMC,024914,A,4821.4116,N,430.0790,W,10.00,254.51,210318,,*3E
$GPRMC,024914,A,4821.4110,N,430.0819,W,10.00,254.51,210318,,*36
$GPRMC,024914,A,4821.4105,N,430.0847,W,10.00,254.51,210318,,*39
$GPRMC,024914,A,4821.4100,N,430.0876,W,10.00,254.51,210318,,*3E
$GPRMC,024914,A,4821.4094,N,430.0905,W,10.00,254.51,210318,,*37
$GPRMC,024914,A,4821.4089,N,430.0933,W,10.00,254.51,210318,,*3E
$GPRMC,024914,A,4821.4084,N,430.0962,W,10.00,254.51,210318,,*37
$GPRMC,024914,A,4821.4079,N,430.0990,W,10.00,254.51,210318,,*38
$GPRMC,024914,A,4821.4073,N,430.1019,W,10.00,254.51,210318,,*3B
$GPRMC,024914,A,4821.4068,N,430.1048,W,10.00,254.51,210318,,*35
$GPRMC,024914,A,4821.4063,N,430.1076,W,10.00,254.51,210318,,*33
$GPRMC,024914,A,4821.4057,N,430.1105,W,10.00,254.51,210318,,*31
$GPRMC,024914,A,4821.4052,N,430.1134,W,10.00,254.51,210318,,*36
$GPRMC,024914,A,4821.4047,N,430.1162,W,10.00,254.51,210318,,*31
$GPRMC,024914,A,4821.4042,N,430.1191,W,10.00,254.51,210318,,*38
$GPRMC,024914,A,4821.4036,N,430.1219,W,10.00,254.51,210318,,*38
$GPRMC,024914,A,4821.4031,N,430.1248,W,10.00,254.51,210318,,*3B
$GPRMC,024914,A,4821.4026,N,430.1277,W,10.00,254.51,210318,,*31
$GPRMC,024914,A,4821.4020,N,430.1305,W,10.00,254.51,210318,,*33
$GPRMC,024914,A,4821.4015,N,430.1334,W,10.00,254.51,210318,,*37
$GPRMC,024914,A,4821.4010,N,430.1363,W,10.00,254.51,210318,,*30
$GPRMC,024914,A,4821.4005,N,430.1391,W,10.00,254.51,210318,,*39
$GPRMC,024914,A,4821.3999,N,430.1420,W,10.00,254.51,210318,,*3F
$GPRMC,024914,A,4821.3994,N,430.1448,W,10.00,254.51,210318,,*3C
$GPRMC,024914,A,4821.3989,N,430.1477,W,10.00,254.51,210318,,*3C
$GPRMC,024914,A,4821.3983,N,430.1506,W,10.00,254.51,210318,,*31
$GPRMC,024914,A,4821.3978,N,430.1534,W,10.00,254.51,210318,,*34
$GPRMC,024914,A,4821.3973,N,430.1563,W,10.00,254.51,210318,,*3D
$GPRMC,024914,A,4821.3968,N,430.1592,W,10.00,254.51,210318,,*39
$GPRMC,024914,A,4821.3962,N,430.1620,W,10.00,254.51,210318,,*39
$GPRMC,024914,A,4821.3957,N,430.1649,W,10.00,254.51,210318,,*30
$GPRMC,024914,A,4821.3952,N,430.1677,W,10.00,254.51,210318,,*38
$GPRMC,024914,A,4821.3946,N,430.1706,W,10.00,254.51,210318,,*3A
$GPRMC,024914,A,4821.3941,N,430.1735,W,10.00,254.51,210318,,*3D
$GPRMC,024914,A,4821.3936,N,430.1763,W,10.00,254.51,210318,,*3E
$GPRMC,024914,A,4821.3931,N,430.1792,W,10.00,254.51,210318,,*37
$GPRMC,024914,A,4821.3925,N,430.1820,W,10.00,254.51,210318,,*34
$GPRMC,024914,A,4821.3920,N,430.1849,W,10.00,254.51,210318,,*3E
$GPRMC,024914,A,4821.3915,N,430.1878,W,10.00,254.51,210318,,*3A
$GPRMC,024914,A,4821.3909,N,430.1906,W,10.00,254.51,210318,,*3F
$GPRMC,024914,A,4821.3904,N,430.1935,W,10.00,254.51,210318,,*32
$GPRMC,024914,A,4821.3899,N,430.1964,W,10.00,254.51,210318,,*33
$GPRMC,024914,A,4821.3894,N,430.1992,W,10.00,254.51,210318,,*37
$GPRMC,024914,A,4821.3888,N,430.2021,W,10.00,254.51,210318,,*38
$GPRMC,024914,A,4821.3883,N,430.2049,W,10.00,254.51,210318,,*3D
$GPRMC,024914,A,4821.3878,N,430.2078,W,10.00,254.51,210318,,*3B
$GPRMC,024914,A,4821.3872,N,430.2107,W,10.00,254.51,210318,,*38
$GPRMC,024914,A,4821.3867,N,430.2135,W,10.00,254.51,210318,,*3D
$GPRMC,024914,A,4821.3862,N,430.2164,W,10.00,254.51,210318,,*3C
$GPRMC,024914,A,4821.3857,N,430.2193,W,10.00,254.51,210318,,*32
$GPRMC,024914,A,4821.3851,N,430.2221,W,10.00,254.51,210318,,*3E
$GPRMC,024914,A,4821.3846,N,430.2250,W,10.00,254.51,210318,,*3E
$GPRMC,024914,A,4821.3841,N,430.2278,W,10.00,254.51,210318,,*33
$GPRMC,024914,A,4821.3835,N,430.2307,W,10.00,254.51,210318,,*39
$GPRMC,024914,A,4821.3830,N,430.2336,W,10.00,254.51,210318,,*3E
$GPRMC,024914,A,4821.3825,N,430.2364,W,10.00,254.51,210318,,*3D
$GPRMC,024914,A,4821.3820,N,430.2393,W,10.00,254.51,210318,,*30
$GPRMC,024914,A,4821.3814,N,430.2422,W,10.00,254.51,210318,,*3A
$GPRMC,024914,A,4821.3809,N,430.2450,W,10.00,254.51,210318,,*33
$GPRMC,024914,A,4821.3804,N,430.2479,W,10.00,254.51,210318,,*35
$GPRMC,024914,A,4821.3798,N,430.2507,W,10.00,254.51,210318,,*37
$GPRMC,024914,A,4821.3793,N,430.2536,W,10.00,254.51,210318,,*3E
$GPRMC,024914,A,4821.3788,N,430.2565,W,10.00,254.51,210318,,*32
$GPRMC,024914,A,4821.3782,N,430.2593,W,10.00,254.51,210318,,*31
$GPRMC,024914,A,4821.3777,N,430.2622,W,10.00,254.51,210318,,*32
$GPRMC,024914,A,4821.3772,N,430.2651,W,10.00,254.51,210318,,*33
$GPRMC,024914,A,4821.3767,N,430.2679,W,10.00,254.51,210318,,*3D
$GPRMC,024914,A,4821.3761,N,430.2708,W,10.00,254.51,210318,,*3C
$GPRMC,024914,A,4821.3756,N,430.2736,W,10.00,254.51,210318,,*35
$GPRMC,024914,A,4821.3751,N,430.2765,W,10.00,254.51,210318,,*34
$GPRMC,024914,A,4821.3745,N,430.2794,W,10.00,254.51,210318,,*3F
$GPRMC,024914,A,4821.3740,N,430.2822,W,10.00,254.51,210318,,*38
$GPRMC,024914,A,4821.3735,N,430.2851,W,10.00,254.51,210318,,*3E
$GPRMC,024914,A,4821.3730,N,430.2880,W,10.00,254.51,210318,,*37
$GPRMC,024914,A,4821.3724,N,430.2908,W,10.00,254.51,210318,,*33
$GPRMC,024914,A,4821.3719,N,430.2937,W,10.00,254.51,210318,,*31
$GPRMC,024914,A,4821.3714,N,430.2965,W,10.00,254.51,210318,,*3B
$GPRMC,024914,A,4821.3708,N,430.2994,W,10.00,254.51,210318,,*38
$GPRMC,024914,A,4821.3703,N,430.3023,W,10.00,254.51,210318,,*37
$GPRMC,024914,A,4821.3698,N,430.3051,W,10.00,254.51,210318,,*31
$GPRMC,024914,A,4821.3693,N,430.3080,W,10.00,254.51,210318,,*36
$GPRMC,024914,A,4821.3687,N,430.3108,W,10.00,254.51,210318,,*32
$GPRMC,024914,A,4821.3682,N,430.3137,W,10.00,254.51,210318,,*3B
$GPRMC,024914,A,4821.3677,N,430.3166,W,10.00,254.51,210318,,*35
$GPRMC,024914,A,4821.3671,N,430.3194,W,10.00,254.51,210318,,*3E
$GPRMC,024914,A,4821.3666,N,430.3223,W,10.00,254.51,210318,,*37
$GPRMC,024914,A,4821.3661,N,430.3252,W,10.00,254.51,210318,,*36
$GPRMC,024914,A,4821.3656,N,430.3280,W,10.00,254.51,210318,,*3D
$GPRMC,024914,A,4821.3650,N,430.3309,W,10.00,254.51,210318,,*3B
$GPRMC,024914,A,4821.3645,N,430.3337,W,10.00,254.51,210318,,*32
$GPRMC,024914,A,4821.3640,N,430.3366,W,10.00,254.51,210318,,*33
$GPRMC,024914,A,4821.3634,N,430.3395,W,10.00,254.51,210318,,*3C
$GPRMC,024914,A,4821.3629,N,430.3423,W,10.00,254.51,210318,,*3A
$GPRMC,024914,A,4821.3624,N,430.3452,W,10.00,254.51,210318,,*31
$GPRMC,024914,A,4821.3619,N,430.3481,W,10.00,254.51,210318,,*31
$GPRMC,024914,A,4821.3613,N,430.3509,W,10.00,254.51,210318,,*3A
$GPRMC,024914,A,4821.3608,N,430.3538,W,10.00,254.51,210318,,*32
$GPRMC,024914,A,4821.3603,N,430.3566,W,10.00,254.51,210318,,*32
$GPRMC,024914,A,4821.3597,N,430.3595,W,10.00,254.51,210318,,*30
$GPRMC,024914,A,4821.3592,N,430.3624,W,10.00,254.51,210318,,*3C
$GPRMC,024914,A,4821.3587,N,430.3652,W,10.00,254.51,210318,,*39
$GPRMC,024914,A,4821.3582,N,430.3681,W,10.00,254.51,210318,,*32
$GPRMC,024914,A,4821.3576,N,430.3710,W,10.00,254.51,210318,,*30
$GPRMC,024914,A,4821.3571,N,430.3738,W,10.00,254.51,210318,,*3D
$GPRMC,024914,A,4821.3566,N,430.3767,W,10.00,254.51,210318,,*31
$GPRMC,024914,A,4821.3560,N,430.3795,W,10.00,254.51,210318,,*3A
$GPRMC,024914,A,4821.3555,N,430.3824,W,10.00,254.51,210318,,*39
$GPRMC,024914,A,4821.3550,N,430.3853,W,10.00,254.51,210318,,*3C
$GPRMC,024914,A,4821.3544,N,430.3881,W,10.00,254.51,210318,,*36
$GPRMC,024914,A,4821.3539,N,430.3910,W,10.00,254.51,210318,,*35
$GPRMC,024914,A,4821.3534,N,430.3939,W,10.00,254.51,210318,,*33
$GPRMC,024914,A,4821.3529,N,430.3967,W,10.00,254.51,210318,,*34
$GPRMC,024914,A,4821.3523,N,430.3996,W,10.00,254.51,210318,,*30
$GPRMC,024914,A,4821.3518,N,430.4024,W,10.00,254.51,210318,,*3F
$GPRMC,024914,A,4821.3513,N,430.4053,W,10.00,254.51,210318,,*34
$GPRMC,024914,A,4821.3507,N,430.4082,W,10.00,254.51,210318,,*3D
$GPRMC,024914,A,4821.3502,N,430.4110,W,10.00,254.51,210318,,*32
$GPRMC,024914,A,4821.3497,N,430.4139,W,10.00,254.51,210318,,*34
$GPRMC,024914,A,4821.3492,N,430.4167,W,10.00,254.51,210318,,*3A
$GPRMC,024914,A,4821.3486,N,430.4196,W,10.00,254.51,210318,,*31
$GPRMC,024914,A,4821.3481,N,430.4225,W,10.00,254.51,210318,,*3D
$GPRMC,024914,A,4821.3476,N,430.4253,W,10.00,254.51,210318,,*34
$GPRMC,024914,A,4821.3470,N,430.4282,W,10.00,254.51,210318,,*3E
$GPRMC,024914,A,4821.3465,N,430.4311,W,10.00,254.51,210318,,*31
$GPRMC,024914,A,4821.3460,N,430.4339,W,10.00,254.51,210318,,*3E
$GPRMC,024914,A,4821.3455,N,430.4368,W,10.00,254.51,210318,,*3C
$GPRMC,024914,A,4821.3449,N,430.4396,W,10.00,254.51,210318,,*30
$GPRMC,024914,A,4821.3444,N,430.4425,W,10.00,254.51,210318,,*32
$GPRMC,024914,A,4821.3439,N,430.4454,W,10.00,254.51,210318,,*3E
$GPRMC,024914,A,4821.3433,N,430.4482,W,10.00,254.51,210318,,*3F
$GPRMC,024914,A,4821.3428,N,430.4511,W,10.00,254.51,210318,,*3E
$GPRMC,024914,A,4821.3423,N,430.4540,W,10.00,254.51,210318,,*31
$GPRMC,024914,A,4821.3418,N,430.4568,W,10.00,254.51,210318,,*33
$GPRMC,024914,A,4821.3412,N,430.4597,W,10.00,254.51,210318,,*39
$GPRMC,024914,A,4821.3407,N,430.4625,W,10.00,254.51,210318,,*37
$GPRMC,024914,A,4821.3402,N,430.4654,W,10.00,254.51,210318,,*34
$GPRMC,024914,A,4821.3396,N,430.4683,W,10.00,254.51,210318,,*34
$GPRMC,024914,A,4821.3391,N,430.4711,W,10.00,254.51,210318,,*39
$GPRMC,024914,A,4821.3386,N,430.4740,W,10.00,254.51,210318,,*3B
$GPRMC,024914,A,4821.3381,N,430.4769,W,10.00,254.51,210318,,*37
$GPRMC,024914,A,4821.3375,N,430.4797,W,10.00,254.51,210318,,*3D
$GPRMC,024914,A,4821.3370,N,430.4826,W,10.00,254.51,210318,,*3D
$GPRMC,024914,A,4821.3365,N,430.4854,W,10.00,254.51,210318,,*3C
$GPRMC,024914,A,4821.3359,N,430.4883,W,10.00,254.51,210318,,*39
$GPRMC,024914,A,4821.3354,N,430.4912,W,10.00,254.51,210318,,*3D
$GPRMC,024914,A,4821.3349,N,430.4940,W,10.00,254.51,210318,,*36
$GPRMC,024914,A,4821.3344,N,430.4969,W,10.00,254.51,210318,,*30
$GPRMC,024914,A,4821.3338,N,430.4998,W,10.00,254.51,210318,,*35
$GPRMC,024914,A,4821.3333,N,430.5026,W,10.00,254.51,210318,,*33
$GPRMC,024914,A,4821.3328,N,430.5055,W,10.00,254.51,210318,,*3D
$GPRMC,024914,A,4821.3322,N,430.5083,W,10.00,254.51,210318,,*3C
$GPRMC,024914,A,4821.3317,N,430.5112,W,10.00,254.51,210318,,*33
$GPRMC,024914,A,4821.3312,N,430.5141,W,10.00,254.51,210318,,*30
$GPRMC,024914,A,4821.3306,N,430.5169,W,10.00,254.51,210318,,*3F
$GPRMC,024914,A,4821.3301,N,430.5198,W,10.00,254.51,210318,,*36
$GPRMC,024914,A,4821.3296,N,430.5226,W,10.00,254.51,210318,,*3F
$GPRMC,024914,A,4821.3291,N,430.5255,W,10.00,254.51,210318,,*3C
$GPRMC,024914,A,4821.3285,N,430.5284,W,10.00,254.51,210318,,*35
$GPRMC,024914,A,4821.3280,N,430.5312,W,10.00,254.51,210318,,*3E
$GPRMC,024914,A,4821.3275,N,430.5341,W,10.00,254.51,210318,,*32
$GPRMC,024914,A,4821.3269,N,430.5370,W,10.00,254.51,210318,,*3D
$GPRMC,024914,A,4821.3264,N,430.5398,W,10.00,254.51,210318,,*36
$GPRMC,024914,A,4821.3259,N,430.5427,W,10.00,254.51,210318,,*3B
$GPRMC,024914,A,4821.3254,N,430.5455,W,10.00,254.51,210318,,*33
$GPRMC,024914,A,4821.3248,N,430.5484,W,10.00,254.51,210318,,*32
$GPRMC,024914,A,4821.3243,N,430.5513,W,10.00,254.51,210318,,*36
$GPRMC,024914,A,4821.3238,N,430.5541,W,10.00,254.51,210318,,*3D
$GPRMC,024914,A,4821.3232,N,430.5570,W,10.00,254.51,210318,,*35
$GPRMC,024914,A,4821.3227,N,430.5599,W,10.00,254.51,210318,,*36
$GPRMC,024914,A,4821.3222,N,430.5627,W,10.00,254.51,210318,,*35
$GPRMC,024914,A,4821.3217,N,430.5656,W,10.00,254.51,210318,,*35
$GPRMC,024914,A,4821.3211,N,430.5684,W,10.00,254.51,210318,,*3C
$GPRMC,024914,A,4821.3206,N,430.5713,W,10.00,254.51,210318,,*35
$GPRMC,024914,A,4821.3201,N,430.5742,W,10.00,254.51,210318,,*36
$GPRMC,024914,A,4821.3195,N,430.5770,W,10.00,254.51,210318,,*39
$GPRMC,024914,A,4821.3190,N,430.5799,W,10.00,254.51,210318,,*3B
$GPRMC,024914,A,4821.3185,N,430.5828,W,10.00,254.51,210318,,*3A
$GPRMC,024914,A,4821.3180,N,430.5856,W,10.00,254.51,210318,,*36
$GPRMC,024914,A,4821.3174,N,430.5885,W,10.00,254.51,210318,,*33
$GPRMC,024914,A,4821.3169,N,430.5913,W,10.00,254.51,210318,,*31
$GPRMC,024914,A,4821.3164,N,430.5942,W,10.00,254.51,210318,,*38
$GPRMC,024914,A,4821.3158,N,430.5971,W,10.00,254.51,210318,,*37
$GPRMC,024914,A,4821.3153,N,430.5999,W,10.00,254.51,210318,,*3A
$GPRMC,024914,A,4821.3148,N,430.6028,W,10.00,254.51,210318,,*30
$GPRMC,024914,A,4821.3143,N,430.6056,W,10.00,254.51,210318,,*32
$GPRMC,024914,A,4821.3137,N,430.6085,W,10.00,254.51,210318,,*3F
$GPRMC,024914,A,4821.3132,N,430.6114,W,10.00,254.51,210318,,*33
$GPRMC,024914,A,4821.3127,N,430.6142,W,10.00,254.51,210318,,*34
$GPRMC,024914,A,4821.3121,N,430.6171,W,10.00,254.51,210318,,*32
$GPRMC,024914,A,4821.3116,N,430.6200,W,10.00,254.51,210318,,*33
$GPRMC,024914,A,4821.3111,N,430.6228,W,10.00,254.51,210318,,*3E
$GPRMC,024914,A,4821.3105,N,430.6257,W,10.00,254.51,210318,,*33
$GPRMC,024914,A,4821.3100,N,430.6285,W,10.00,254.51,210318,,*39
$GPRMC,024914,A,4821.3095,N,430.6314,W,10.00,254.51,210318,,*3D
$GPRMC,024914,A,4821.3090,N,430.6343,W,10.00,254.51,210318,,*3A
$GPRMC,024914,A,4821.3084,N,430.6371,W,10.00,254.51,210318,,*3E
$GPRMC,024914,A,4821.3079,N,430.6400,W,10.00,254.51,210318,,*3D
$GPRMC,024914,A,4821.3074,N,430.6429,W,10.00,254.51,210318,,*3B
$GPRMC,024914,A,4821.3068,N,430.6457,W,10.00,254.51,210318,,*3F
$GPRMC,024914,A,4821.3063,N,430.6486,W,10.00,254.51,210318,,*38
$GPRMC,024914,A,4821.3058,N,430.6514,W,10.00,254.51,210318,,*3A
$GPRMC,024914,A,4821.3053,N,430.6543,W,10.00,254.51,210318,,*33
$GPRMC,024914,A,4821.3047,N,430.6572,W,10.00,254.51,210318,,*34
$GPRMC,024914,A,4821.3042,N,430.6600,W,10.00,254.51,210318,,*37
$GPRMC,024914,A,4821.3037,N,430.6629,W,10.00,254.51,210318,,*3E
$GPRMC,024914,A,4821.3031,N,430.6658,W,10.00,254.51,210318,,*3E
$GPRMC,024914,A,4821.3026,N,430.6686,W,10.00,254.51,210318,,*3B
$GPRMC,024914,A,4821.3021,N,430.6715,W,10.00,254.51,210318,,*37
$GPRMC,024914,A,4821.3016,N,430.6743,W,10.00,254.51,210318,,*30
$GPRMC,024914,A,4821.3010,N,430.6772,W,10.00,254.51,210318,,*34
$GPRMC,024914,A,4821.3005,N,430.6801,W,10.00,254.51,210318,,*3B
$GPRMC,024914,A,4821.3000,N,430.6829,W,10.00,254.51,210318,,*34
$GPRMC,024914,A,4821.2994,N,430.6858,W,10.00,254.51,210318,,*37
$GPRMC,024914,A,4821.2989,N,430.6886,W,10.00,254.51,210318,,*38
$GPRMC,024914,A,4821.2984,N,430.6915,W,10.00,254.51,210318,,*3E
$GPRMC,024914,A,4821.2979,N,430.6944,W,10.00,254.51,210318,,*38
$GPRMC,024914,A,4821.2973,N,430.6972,W,10.00,254.51,210318,,*37
$GPRMC,024914,A,4821.2968,N,430.7001,W,10.00,254.51,210318,,*31
$GPRMC,024914,A,4821.2963,N,430.7030,W,10.00,254.51,210318,,*38
$GPRMC,024914,A,4821.2957,N,430.7058,W,10.00,254.51,210318,,*31
$GPRMC,024914,A,4821.2952,N,430.7087,W,10.00,254.51,210318,,*36
$GPRMC,024914,A,4821.2947,N,430.7115,W,10.00,254.51,210318,,*38
$GPRMC,024914,A,4821.2941,N,430.7144,W,10.00,254.51,210318,,*3A
$GPRMC,024914,A,4821.2936,N,430.7173,W,10.00,254.51,210318,,*3E
$GPRMC,024914,A,4821.2931,N,430.7201,W,10.00,254.51,210318,,*3F
$GPRMC,024914,A,4821.2926,N,430.7230,W,10.00,254.51,210318,,*3B
$GPRMC,024914,A,4821.2920,N,430.7259,W,10.00,254.51,210318,,*32
$GPRMC,024914,A,4821.2915,N,430.7287,W,10.00,254.51,210318,,*37
$GPRMC,024914,A,4821.2910,N,430.7316,W,10.00,254.51,210318,,*3B
$GPRMC,024914,A,4821.2904,N,430.7344,W,10.00,254.51,210318,,*39
$GPRMC,024914,A,4821.2899,N,430.7373,W,10.00,254.51,210318,,*38
$GPRMC,024914,A,4821.2894,N,430.7402,W,10.00,254.51,210318,,*34
$GPRMC,024914,A,4821.2889,N,430.7430,W,10.00,254.51,210318,,*39
$GPRMC,024914,A,4821.2883,N,430.7459,W,10.00,254.51,210318,,*3C
$GPRMC,024914,A,4821.2878,N,430.7488,W,10.00,254.51,210318,,*34
$GPRMC,024914,A,4821.2873,N,430.7516,W,10.00,254.51,210318,,*39
$GPRMC,024914,A,4821.2867,N,430.7545,W,10.00,254.51,210318,,*3A
$GPRMC,024914,A,4821.2862,N,430.7573,W,10.00,254.51,210318,,*3A
$GPRMC,024914,A,4821.2857,N,430.7602,W,10.00,254.51,210318,,*39
$GPRMC,024914,A,4821.2852,N,430.7631,W,10.00,254.51,210318,,*3C
$GPRMC,024914,A,4821.2846,N,430.7659,W,10.00,254.51,210318,,*37
$GPRMC,024914,A,4821.2841,N,430.7688,W,10.00,254.51,210318,,*3C
$GPRMC,024914,A,4821.2836,N,430.7716,W,10.00,254.51,210318,,*3A
$GPRMC,024914,A,4821.2830,N,430.7745,W,10.00,254.51,210318,,*3A
$GPRMC,024914,A,4821.2825,N,430.7774,W,10.00,254.51,210318,,*3C
$GPRMC,024914,A,4821.2820,N,430.7802,W,10.00,254.51,210318,,*37
$GPRMC,024914,A,4821.2815,N,430.7831,W,10.00,254.51,210318,,*31
$GPRMC,024914,A,4821.2809,N,430.7860,W,10.00,254.51,210318,,*38
$GPRMC,024914,A,4821.2804,N,430.7888,W,10.00,254.51,210318,,*33
$GPRMC,024914,A,4821.2799,N,430.7917,W,10.00,254.51,210318,,*3F
$GPRMC,024914,A,4821.2793,N,430.7945,W,10.00,254.51,210318,,*32
$GPRMC,024914,A,4821.2788,N,430.7974,W,10.00,254.51,210318,,*3A
$GPRMC,024914,A,4821.2783,N,430.8003,W,10.00,254.51,210318,,*37
$GPRMC,024914,A,4821.2777,N,430.8031,W,10.00,254.51,210318,,*3D
$GPRMC,024914,A,4821.2772,N,430.8060,W,10.00,254.51,210318,,*3C
$GPRMC,024914,A,4821.2767,N,430.8089,W,10.00,254.51,210318,,*3F
$GPRMC,024914,A,4821.2762,N,430.8117,W,10.00,254.51,210318,,*3C
$GPRMC,024914,A,4821.2756,N,430.8146,W,10.00,254.51,210318,,*3F
$GPRMC,024914,A,4821.2751,N,430.8174,W,10.00,254.51,210318,,*39
$GPRMC,024914,A,4821.2746,N,430.8203,W,10.00,254.51,210318,,*3C
$GPRMC,024914,A,4821.2740,N,430.8232,W,10.00,254.51,210318,,*38
$GPRMC,024914,A,4821.2735,N,430.8260,W,10.00,254.51,210318,,*3D
$GPRMC,024914,A,4821.2730,N,430.8289,W,10.00,254.51,210318,,*3F
$GPRMC,024914,A,4821.2725,N,430.8318,W,10.00,254.51,210318,,*32
$GPRMC,024914,A,4821.2719,N,430.8346,W,10.00,254.51,210318,,*36
$GPRMC,024914,A,4821.2714,N,430.8375,W,10.00,254.51,210318,,*3B
$GPRMC,024914,A,4821.2709,N,430.8403,W,10.00,254.51,210318,,*31
$GPRMC,024914,A,4821.2703,N,430.8432,W,10.00,254.51,210318,,*39
$GPRMC,024914,A,4821.2698,N,430.8461,W,10.00,254.51,210318,,*3C
$GPRMC,024914,A,4821.2693,N,430.8489,W,10.00,254.51,210318,,*31
$GPRMC,024914,A,4821.2688,N,430.8518,W,10.00,254.51,210318,,*32
$GPRMC,024914,A,4821.2682,N,430.8546,W,10.00,254.51,210318,,*33
$GPRMC,024914,A,4821.2677,N,430.8575,W,10.00,254.51,210318,,*39
$GPRMC,024914,A,4821.2672,N,430.8604,W,10.00,254.51,210318,,*39
$GPRMC,024914,A,4821.2666,N,430.8632,W,10.00,254.51,210318,,*39
$GPRMC,024914,A,4821.2661,N,430.8661,W,10.00,254.51,210318,,*38
$GPRMC,024914,A,4821.2656,N,430.8690,W,10.00,254.51,210318,,*32
$GPRMC,024914,A,4821.2650,N,430.8718,W,10.00,254.51,210318,,*35
$GPRMC,024914,A,4821.2645,N,430.8747,W,10.00,254.51,210318,,*3B
$GPRMC,024914,A,4821.2640,N,430.8775,W,10.00,254.51,210318,,*3F
$GPRMC,024914,A,4821.2635,N,430.8804,W,10.00,254.51,210318,,*34
$GPRMC,024914,A,4821.2629,N,430.8833,W,10.00,254.51,210318,,*3D
$GPRMC,024914,A,4821.2624,N,430.8861,W,10.00,254.51,210318,,*37
$GPRMC,024914,A,4821.2619,N,430.8890,W,10.00,254.51,210318,,*37
$GPRMC,024914,A,4821.2613,N,430.8919,W,10.00,254.51,210318,,*3D
$GPRMC,024914,A,4821.2608,N,430.8947,W,10.00,254.51,210318,,*3C
$GPRMC,024914,A,4821.2603,N,430.8976,W,10.00,254.51,210318,,*35
$GPRMC,024914,A,4821.2598,N,430.9004,W,10.00,254.51,210318,,*39
$GPRMC,024914,A,4821.2592,N,430.9033,W,10.00,254.51,210318,,*37
$GPRMC,024914,A,4821.2587,N,430.9062,W,10.00,254.51,210318,,*37
$GPRMC,024914,A,4821.2582,N,430.9090,W,10.00,254.51,210318,,*3F
$GPRMC,024914,A,4821.2576,N,430.9119,W,10.00,254.51,210318,,*34
$GPRMC,024914,A,4821.2571,N,430.9147,W,10.00,254.51,210318,,*38
$GPRMC,024914,A,4821.2566,N,430.9176,W,10.00,254.51,210318,,*3C
$GPRMC,024914,A,4821.2561,N,430.9205,W,10.00,254.51,210318,,*3C
$GPRMC,024914,A,4821.2555,N,430.9233,W,10.00,254.51,210318,,*3E
$GPRMC,024914,A,4821.2550,N,430.9262,W,10.00,254.51,210318,,*3F
$GPRMC,024914,A,4821.2545,N,430.9291,W,10.00,254.51,210318,,*37
$GPRMC,024914,A,4821.2539,N,430.9319,W,10.00,254.51,210318,,*3D
$GPRMC,024914,A,4821.2534,N,430.9348,W,10.00,254.51,210318,,*34
$GPRMC,024914,A,4821.2529,N,430.9376,W,10.00,254.51,210318,,*35
$GPRMC,024914,A,4821.2524,N,430.9405,W,10.00,254.51,210318,,*3B
$GPRMC,024914,A,4821.2518,N,430.9434,W,10.00,254.51,210318,,*36
$GPRMC,024914,A,4821.2513,N,430.9462,W,10.00,254.51,210318,,*3E
$GPRMC,024914,A,4821.2508,N,430.9491,W,10.00,254.51,210318,,*38
$GPRMC,024914,A,4821.2502,N,430.9520,W,10.00,254.51,210318,,*39
$GPRMC,024914,A,4821.2497,N,430.9548,W,10.00,254.51,210318,,*3A
$GPRMC,024914,A,4821.2492,N,430.9577,W,10.00,254.51,210318,,*33
$GPRMC,024914,A,4821.2486,N,430.9605,W,10.00,254.51,210318,,*30
$GPRMC,024914,A,4821.2481,N,430.9634,W,10.00,254.51,210318,,*35
$GPRMC,024914,A,4821.2476,N,430.9663,W,10.00,254.51,210318,,*3F
$GPRMC,024914,A,4821.2471,N,430.9691,W,10.00,254.51,210318,,*35
$GPRMC,024914,A,4821.2465,N,430.9720,W,10.00,254.51,210318,,*3B
$GPRMC,024914,A,4821.2460,N,430.9749,W,10.00,254.51,210318,,*31
$GPRMC,024914,A,4821.2455,N,430.9777,W,10.00,254.51,210318,,*3A
$GPRMC,024914,A,4821.2449,N,430.9806,W,10.00,254.51,210318,,*3E
$GPRMC,024914,A,4821.2444,N,430.9834,W,10.00,254.51,210318,,*32
$GPRMC,024914,A,4821.2439,N,430.9863,W,10.00,254.51,210318,,*3A
$GPRMC,024914,A,4821.2434,N,430.9892,W,10.00,254.51,210318,,*39
$GPRMC,024914,A,4821.2428,N,430.9920,W,10.00,254.51,210318,,*3C
$GPRMC,024914,A,4821.2423,N,430.9949,W,10.00,254.51,210318,,*38
$GPRMC,024914,A,4821.2418,N,430.9977,W,10.00,254.51,210318,,*3D
$GPRMC,024914,A,4821.2412,N,431.0006,W,10.00,254.51,210318,,*30
$GPRMC,024914,A,4821.2407,N,431.0035,W,10.00,254.51,210318,,*34
$GPRMC,024914,A,4821.2402,N,431.0063,W,10.00,254.51,210318,,*32
$GPRMC,024914,A,4821.2397,N,431.0092,W,10.00,254.51,210318,,*37
$GPRMC,024914,A,4821.2391,N,431.0121,W,10.00,254.51,210318,,*38
$GPRMC,024914,A,4821.2386,N,431.0149,W,10.00,254.51,210318,,*30
$GPRMC,024914,A,4821.2381,N,431.0178,W,10.00,254.51,210318,,*35
$GPRMC,024914,A,4821.2375,N,431.0206,W,10.00,254.51,210318,,*34
$GPRMC,024914,A,4821.2370,N,431.0235,W,10.00,254.51,210318,,*31
$GPRMC,024914,A,4821.2365,N,431.0264,W,10.00,254.51,210318,,*31
$GPRMC,024914,A,4821.2359,N,431.0292,W,10.00,254.51,210318,,*37
$GPRMC,024914,A,4821.2354,N,431.0321,W,10.00,254.51,210318,,*33
$GPRMC,024914,A,4821.2349,N,431.0350,W,10.00,254.51,210318,,*39
$GPRMC,024914,A,4821.2344,N,431.0378,W,10.00,254.51,210318,,*3E
$GPRMC,024914,A,4821.2338,N,431.0407,W,10.00,254.51,210318,,*3A
$GPRMC,024914,A,4821.2333,N,431.0435,W,10.00,254.51,210318,,*30
$GPRMC,024914,A,4821.2328,N,431.0464,W,10.00,254.51,210318,,*3E
$GPRMC,024914,A,4821.2322,N,431.0493,W,10.00,254.51,210318,,*3C
$GPRMC,024914,A,4821.2317,N,431.0521,W,10.00,254.51,210318,,*32
$GPRMC,024914,A,4821.2312,N,431.0550,W,10.00,254.51,210318,,*31
$GPRMC,024914,A,4821.2307,N,431.0578,W,10.00,254.51,210318,,*3F
$GPRMC,024914,A,4821.2301,N,431.0607,W,10.00,254.51,210318,,*32
$GPRMC,024914,A,4821.2296,N,431.0636,W,10.00,254.51,210318,,*3F
$GPRMC,024914,A,4821.2291,N,431.0664,W,10.00,254.51,210318,,*3F
$GPRMC,024914,A,4821.2285,N,431.0693,W,10.00,254.51,210318,,*32
$GPRMC,024914,A,4821.2280,N,431.0722,W,10.00,254.51,210318,,*3C
$GPRMC,024914,A,4821.2275,N,431.0750,W,10.00,254.51,210318,,*33
$GPRMC,024914,A,4821.2270,N,431.0779,W,10.00,254.51,210318,,*3D
$GPRMC,024914,A,4821.2264,N,431.0807,W,10.00,254.51,210318,,*3E
$GPRMC,024914,A,4821.2259,N,431.0836,W,10.00,254.51,210318,,*32
$GPRMC,024914,A,4821.2254,N,431.0865,W,10.00,254.51,210318,,*39
$GPRMC,024914,A,4821.2248,N,431.0893,W,10.00,254.51,210318,,*3D
$GPRMC,024914,A,4821.2243,N,431.0922,W,10.00,254.51,210318,,*3D
$GPRMC,024914,A,4821.2238,N,431.0951,W,10.00,254.51,210318,,*35
$GPRMC,024914,A,4821.2232,N,431.0979,W,10.00,254.51,210318,,*35
$GPRMC,024914,A,4821.2227,N,431.1008,W,10.00,254.51,210318,,*3F
$GPRMC,024914,A,4821.2222,N,431.1036,W,10.00,254.51,210318,,*37
$GPRMC,024914,A,4821.2217,N,431.1065,W,10.00,254.51,210318,,*37
$GPRMC,024914,A,4821.2211,N,431.1094,W,10.00,254.51,210318,,*3F
$GPRMC,024914,A,4821.2206,N,431.1122,W,10.00,254.51,210318,,*35
$GPRMC,024914,A,4821.2201,N,431.1151,W,10.00,254.51,210318,,*36
$GPRMC,024914,A,4821.2195,N,431.1179,W,10.00,254.51,210318,,*32
$GPRMC,024914,A,4821.2190,N,431.1208,W,10.00,254.51,210318,,*32
$GPRMC,024914,A,4821.2185,N,431.1237,W,10.00,254.51,210318,,*3A
$GPRMC,024914,A,4821.2180,N,431.1265,W,10.00,254.51,210318,,*38
$GPRMC,024914,A,4821.2174,N,431.1294,W,10.00,254.51,210318,,*3D
$GPRMC,024914,A,4821.2169,N,431.1323,W,10.00,254.51,210318,,*3C
$GPRMC,024914,A,4821.2164,N,431.1351,W,10.00,254.51,210318,,*34
$GPRMC,024914,A,4821.2158,N,431.1380,W,10.00,254.51,210318,,*37
$GPRMC,024914,A,4821.2153,N,431.1408,W,10.00,254.51,210318,,*3B
$GPRMC,024914,A,4821.2148,N,431.1437,W,10.00,254.51,210318,,*3D
$GPRMC,024914,A,4821.2143,N,431.1466,W,10.00,254.51,210318,,*32
$GPRMC,024914,A,4821.2137,N,431.1494,W,10.00,254.51,210318,,*3C
$GPRMC,024914,A,4821.2132,N,431.1523,W,10.00,254.51,210318,,*34
$GPRMC,024914,A,4821.2127,N,431.1552,W,10.00,254.51,210318,,*36
$GPRMC,024914,A,4821.2121,N,431.1580,W,10.00,254.51,210318,,*3F
$GPRMC,024914,A,4821.2116,N,431.1609,W,10.00,254.51,210318,,*39
$GPRMC,024914,A,4821.2111,N,431.1637,W,10.00,254.51,210318,,*33
$GPRMC,024914,A,4821.2105,N,431.1666,W,10.00,254.51,210318,,*32
$GPRMC,024914,A,4821.2100,N,431.1695,W,10.00,254.51,210318,,*3B
$GPRMC,024914,A,4821.2095,N,431.1723,W,10.00,254.51,210318,,*3A
$GPRMC,024914,A,4821.2090,N,431.1752,W,10.00,254.51,210318,,*39
$GPRMC,024914,A,4821.2084,N,431.1780,W,10.00,254.51,210318,,*33
$GPRMC,024914,A,4821.2079,N,431.1809,W,10.00,254.51,210318,,*3F
$GPRMC,024914,A,4821.2074,N,431.1838,W,10.00,254.51,210318,,*30
$GPRMC,024914,A,4821.2068,N,431.1866,W,10.00,254.51,210318,,*36
$GPRMC,024914,A,4821.2063,N,431.1895,W,10.00,254.51,210318,,*31
$GPRMC,024914,A,4821.2058,N,431.1924,W,10.00,254.51,210318,,*32
$GPRMC,024914,A,4821.2053,N,431.1952,W,10.00,254.51,210318,,*38
$GPRMC,024914,A,4821.2047,N,431.1981,W,10.00,254.51,210318,,*33
$GPRMC,024914,A,4821.2042,N,431.2009,W,10.00,254.51,210318,,*3C
$GPRMC,024914,A,4821.2037,N,431.2038,W,10.00,254.51,210318,,*3C
$GPRMC,024914,A,4821.2031,N,431.2067,W,10.00,254.51,210318,,*30
$GPRMC,024914,A,4821.2026,N,431.2095,W,10.00,254.51,210318,,*3B
$GPRMC,024914,A,4821.2021,N,431.2124,W,10.00,254.51,210318,,*37
$GPRMC,024914,A,4821.2015,N,431.2153,W,10.00,254.51,210318,,*30
$GPRMC,024914,A,4821.2010,N,431.2181,W,10.00,254.51,210318,,*3A
$GPRMC,024914,A,4821.2005,N,431.2210,W,10.00,254.51,210318,,*35
$GPRMC,024914,A,4821.2000,N,431.2238,W,10.00,254.51,210318,,*3A
$GPRMC,024914,A,4821.1994,N,431.2267,W,10.00,254.51,210318,,*37
$GPRMC,024914,A,4821.1989,N,431.2296,W,10.00,254.51,210318,,*35
$GPRMC,024914,A,4821.1984,N,431.2324,W,10.00,254.51,210318,,*30
$GPRMC,024914,A,4821.1978,N,431.2353,W,10.00,254.51,210318,,*33
$GPRMC,024914,A,4821.1973,N,431.2381,W,10.00,254.51,210318,,*37
$GPRMC,024914,A,4821.1968,N,431.2410,W,10.00,254.51,210318,,*32
$GPRMC,024914,A,4821.1963,N,431.2439,W,10.00,254.51,210318,,*32
$GPRMC,024914,A,4821.1957,N,431.2467,W,10.00,254.51,210318,,*3E
$GPRMC,024914,A,4821.1952,N,431.2496,W,10.00,254.51,210318,,*35
$GPRMC,024914,A,4821.1947,N,431.2525,W,10.00,254.51,210318,,*38
$GPRMC,024914,A,4821.1941,N,431.2553,W,10.00,254.51,210318,,*3F
$GPRMC,024914,A,4821.1936,N,431.2582,W,10.00,254.51,210318,,*33
$GPRMC,024914,A,4821.1931,N,431.2610,W,10.00,254.51,210318,,*3C
$GPRMC,024914,A,4821.1926,N,431.2639,W,10.00,254.51,210318,,*31
$GPRMC,024914,A,4821.1920,N,431.2668,W,10.00,254.51,210318,,*33
$GPRMC,024914,A,4821.1915,N,431.2696,W,10.00,254.51,210318,,*34
$GPRMC,024914,A,4821.1910,N,431.2725,W,10.00,254.51,210318,,*38
$GPRMC,024914,A,4821.1904,N,431.2754,W,10.00,254.51,210318,,*3B
$GPRMC,024914,A,4821.1899,N,431.2782,W,10.00,254.51,210318,,*35
$GPRMC,024914,A,4821.1894,N,431.2811,W,10.00,254.51,210318,,*3D
$GPRMC,024914,A,4821.1888,N,431.2839,W,10.00,254.51,210318,,*3A
$GPRMC,024914,A,4821.1883,N,431.2868,W,10.00,254.51,210318,,*35
$GPRMC,024914,A,4821.1878,N,431.2897,W,10.00,254.51,210318,,*31
$GPRMC,024914,A,4821.1873,N,431.2925,W,10.00,254.51,210318,,*32
$GPRMC,024914,A,4821.1867,N,431.2954,W,10.00,254.51,210318,,*31
$GPRMC,024914,A,4821.1862,N,431.2982,W,10.00,254.51,210318,,*3F
$GPRMC,024914,A,4821.1857,N,431.3011,W,10.00,254.51,210318,,*3B
$GPRMC,024914,A,4821.1851,N,431.3040,W,10.00,254.51,210318,,*39
$GPRMC,024914,A,4821.1846,N,431.3068,W,10.00,254.51,210318,,*35
$GPRMC,024914,A,4821.1841,N,431.3097,W,10.00,254.51,210318,,*32
$GPRMC,024914,A,4821.1836,N,431.3126,W,10.00,254.51,210318,,*39
$GPRMC,024914,A,4821.1830,N,431.3154,W,10.00,254.51,210318,,*3A
$GPRMC,024914,A,4821.1825,N,431.3183,W,10.00,254.51,210318,,*34
$GPRMC,024914,A,4821.1820,N,431.3211,W,10.00,254.51,210318,,*39
$GPRMC,024914,A,4821.1814,N,431.3240,W,10.00,254.51,210318,,*3A
$GPRMC,024914,A,4821.1809,N,431.3269,W,10.00,254.51,210318,,*3D
$GPRMC,024914,A,4821.1804,N,431.3297,W,10.00,254.51,210318,,*31
$GPRMC,024914,A,4821.1798,N,431.3326,W,10.00,254.51,210318,,*30
$GPRMC,024914,A,4821.1793,N,431.3354,W,10.00,254.51,210318,,*3E
$GPRMC,024914,A,4821.1788,N,431.3383,W,10.00,254.51,210318,,*3E
$GPRMC,024914,A,4821.1783,N,431.3412,W,10.00,254.51,210318,,*3A
$GPRMC,024914,A,4821.1777,N,431.3440,W,10.00,254.51,210318,,*36
$GPRMC,024914,A,4821.1772,N,431.3469,W,10.00,254.51,210318,,*38
$GPRMC,024914,A,4821.1767,N,431.3498,W,10.00,254.51,210318,,*32
$GPRMC,024914,A,4821.1761,N,431.3526,W,10.00,254.51,210318,,*30
$GPRMC,024914,A,4821.1756,N,431.3555,W,10.00,254.51,210318,,*30
$GPRMC,024914,A,4821.1751,N,431.3583,W,10.00,254.51,210318,,*3C
$GPRMC,024914,A,4821.1746,N,431.3612,W,10.00,254.51,210318,,*31
$GPRMC,024914,A,4821.1740,N,431.3641,W,10.00,254.51,210318,,*31
$GPRMC,024914,A,4821.1735,N,431.3669,W,10.00,254.51,210318,,*39
$GPRMC,024914,A,4821.1730,N,431.3698,W,10.00,254.51,210318,,*32
$GPRMC,024914,A,4821.1724,N,431.3727,W,10.00,254.51,210318,,*32
$GPRMC,024914,A,4821.1719,N,431.3755,W,10.00,254.51,210318,,*39
$GPRMC,024914,A,4821.1714,N,431.3784,W,10.00,254.51,210318,,*38
$GPRMC,024914,A,4821.1709,N,431.3812,W,10.00,254.51,210318,,*34
$GPRMC,024914,A,4821.1703,N,431.3841,W,10.00,254.51,210318,,*38
$GPRMC,024914,A,4821.1698,N,431.3870,W,10.00,254.51,210318,,*39
$GPRMC,024914,A,4821.1693,N,431.3898,W,10.00,254.51,210318,,*34
$GPRMC,024914,A,4821.1687,N,431.3927,W,10.00,254.51,210318,,*34
$GPRMC,024914,A,4821.1682,N,431.3955,W,10.00,254.51,210318,,*34
$GPRMC,024914,A,4821.1677,N,431.3984,W,10.00,254.51,210318,,*32
$GPRMC,024914,A,4821.1671,N,431.4013,W,10.00,254.51,210318,,*34
$GPRMC,024914,A,4821.1666,N,431.4041,W,10.00,254.51,210318,,*35
$GPRMC,024914,A,4821.1661,N,431.4070,W,10.00,254.51,210318,,*30
$GPRMC,024914,A,4821.1656,N,431.4099,W,10.00,254.51,210318,,*33
$GPRMC,024914,A,4821.1650,N,431.4127,W,10.00,254.51,210318,,*31
$GPRMC,024914,A,4821.1645,N,431.4156,W,10.00,254.51,210318,,*33
$GPRMC,024914,A,4821.1640,N,431.4184,W,10.00,254.51,210318,,*39
$GPRMC,024914,A,4821.1634,N,431.4213,W,10.00,254.51,210318,,*37
$GPRMC,024914,A,4821.1629,N,431.4242,W,10.00,254.51,210318,,*3F
$GPRMC,024914,A,4821.1624,N,431.4270,W,10.00,254.51,210318,,*33
$GPRMC,024914,A,4821.1619,N,431.4299,W,10.00,254.51,210318,,*3A
$GPRMC,024914,A,4821.1613,N,431.4328,W,10.00,254.51,210318,,*3B
$GPRMC,024914,A,4821.1608,N,431.4356,W,10.00,254.51,210318,,*38
$GPRMC,024914,A,4821.1603,N,431.4385,W,10.00,254.51,210318,,*3D
$GPRMC,024914,A,4821.1597,N,431.4413,W,10.00,254.51,210318,,*3B
$GPRMC,024914,A,4821.1592,N,431.4442,W,10.00,254.51,210318,,*3A
$GPRMC,024914,A,4821.1587,N,431.4471,W,10.00,254.51,210318,,*3E
$GPRMC,024914,A,4821.1581,N,431.4499,W,10.00,254.51,210318,,*3E
$GPRMC,024914,A,4821.1576,N,431.4528,W,10.00,254.51,210318,,*3D
$GPRMC,024914,A,4821.1571,N,431.4556,W,10.00,254.51,210318,,*33
$GPRMC,024914,A,4821.1566,N,431.4585,W,10.00,254.51,210318,,*3B
$GPRMC,024914,A,4821.1560,N,431.4614,W,10.00,254.51,210318,,*36
$GPRMC,024914,A,4821.1555,N,431.4642,W,10.00,254.51,210318,,*33
$GPRMC,024914,A,4821.1550,N,431.4671,W,10.00,254.51,210318,,*36
$GPRMC,024914,A,4821.1544,N,431.4700,W,10.00,254.51,210318,,*34
$GPRMC,024914,A,4821.1539,N,431.4728,W,10.00,254.51,210318,,*34
$GPRMC,024914,A,4821.1534,N,431.4757,W,10.00,254.51,210318,,*31
$GPRMC,024914,A,4821.1529,N,431.4785,W,10.00,254.51,210318,,*32
$GPRMC,024914,A,4821.1523,N,431.4814,W,10.00,254.51,210318,,*3F
$GPRMC,024914,A,4821.1518,N,431.4843,W,10.00,254.51,210318,,*35
$GPRMC,024914,A,4821.1513,N,431.4871,W,10.00,254.51,210318,,*3F
$GPRMC,024914,A,4821.1507,N,431.4900,W,10.00,254.51,210318,,*3D
$GPRMC,024914,A,4821.1502,N,431.4928,W,10.00,254.51,210318,,*32
$GPRMC,024914,A,4821.1497,N,431.4957,W,10.00,254.51,210318,,*37
$GPRMC,024914,A,4821.1491,N,431.4986,W,10.00,254.51,210318,,*3D
$GPRMC,024914,A,4821.1486,N,431.5014,W,10.00,254.51,210318,,*38
$GPRMC,024914,A,4821.1481,N,431.5043,W,10.00,254.51,210318,,*3D
$GPRMC,024914,A,4821.1476,N,431.5072,W,10.00,254.51,210318,,*37
$GPRMC,024914,A,4821.1470,N,431.5100,W,10.00,254.51,210318,,*35
$GPRMC,024914,A,4821.1465,N,431.5129,W,10.00,254.51,210318,,*3A
$GPRMC,024914,A,4821.1460,N,431.5157,W,10.00,254.51,210318,,*36
$GPRMC,024914,A,4821.1454,N,431.5186,W,10.00,254.51,210318,,*3D
$GPRMC,024914,A,4821.1449,N,431.5215,W,10.00,254.51,210318,,*38
$GPRMC,024914,A,4821.1444,N,431.5243,W,10.00,254.51,210318,,*36
$GPRMC,024914,A,4821.1439,N,431.5272,W,10.00,254.51,210318,,*3E
$GPRMC,024914,A,4821.1433,N,431.5301,W,10.00,254.51,210318,,*31
$GPRMC,024914,A,4821.1428,N,431.5329,W,10.00,254.51,210318,,*31
$GPRMC,024914,A,4821.1423,N,431.5358,W,10.00,254.51,210318,,*3C
$GPRMC,024914,A,4821.1417,N,431.5386,W,10.00,254.51,210318,,*38
$GPRMC,024914,A,4821.1412,N,431.5415,W,10.00,254.51,210318,,*30
$GPRMC,024914,A,4821.1407,N,431.5444,W,10.00,254.51,210318,,*30
$GPRMC,024914,A,4821.1401,N,431.5472,W,10.00,254.51,210318,,*33
$GPRMC,024914,A,4821.1396,N,431.5501,W,10.00,254.51,210318,,*3F
$GPRMC,024914,A,4821.1391,N,431.5529,W,10.00,254.51,210318,,*32
$GPRMC,024914,A,4821.1386,N,431.5558,W,10.00,254.51,210318,,*32
$GPRMC,024914,A,4821.1380,N,431.5587,W,10.00,254.51,210318,,*36
$GPRMC,024914,A,4821.1375,N,431.5615,W,10.00,254.51,210318,,*34
$GPRMC,024914,A,4821.1370,N,431.5644,W,10.00,254.51,210318,,*35
$GPRMC,024914,A,4821.1364,N,431.5673,W,10.00,254.51,210318,,*34
$GPRMC,024914,A,4821.1359,N,431.5701,W,10.00,254.51,210318,,*3E
$GPRMC,024914,A,4821.1354,N,431.5730,W,10.00,254.51,210318,,*31
$GPRMC,024914,A,4821.1349,N,431.5758,W,10.00,254.51,210318,,*33
$GPRMC,024914,A,4821.1343,N,431.5787,W,10.00,254.51,210318,,*3B
$GPRMC,024914,A,4821.1338,N,431.5816,W,10.00,254.51,210318,,*30
$GPRMC,024914,A,4821.1333,N,431.5844,W,10.00,254.51,210318,,*3C
$GPRMC,024914,A,4821.1327,N,431.5873,W,10.00,254.51,210318,,*3D
$GPRMC,024914,A,4821.1322,N,431.5901,W,10.00,254.51,210318,,*3C
$GPRMC,024914,A,4821.1317,N,431.5930,W,10.00,254.51,210318,,*38
$GPRMC,024914,A,4821.1312,N,431.5959,W,10.00,254.51,210318,,*32
$GPRMC,024914,A,4821.1306,N,431.5987,W,10.00,254.51,210318,,*34
$GPRMC,024914,A,4821.1301,N,431.6016,W,10.00,254.51,210318,,*31
$GPRMC,024914,A,4821.1296,N,431.6045,W,10.00,254.51,210318,,*38
$GPRMC,024914,A,4821.1290,N,431.6073,W,10.00,254.51,210318,,*3B
$GPRMC,024914,A,4821.1285,N,431.6102,W,10.00,254.51,210318,,*38
$GPRMC,024914,A,4821.1280,N,431.6130,W,10.00,254.51,210318,,*3C
$GPRMC,024914,A,4821.1274,N,431.6159,W,10.00,254.51,210318,,*38
$GPRMC,024914,A,4821.1269,N,431.6188,W,10.00,254.51,210318,,*38
$GPRMC,024914,A,4821.1264,N,431.6216,W,10.00,254.51,210318,,*31
$GPRMC,024914,A,4821.1259,N,431.6245,W,10.00,254.51,210318,,*39
$GPRMC,024914,A,4821.1253,N,431.6274,W,10.00,254.51,210318,,*31
$GPRMC,024914,A,4821.1248,N,431.6302,W,10.00,254.51,210318,,*3B
$GPRMC,024914,A,4821.1243,N,431.6331,W,10.00,254.51,210318,,*30
$GPRMC,024914,A,4821.1237,N,431.6359,W,10.00,254.51,210318,,*3D
$GPRMC,024914,A,4821.1232,N,431.6388,W,10.00,254.51,210318,,*34
$GPRMC,024914,A,4821.1227,N,431.6417,W,10.00,254.51,210318,,*31
$GPRMC,024914,A,4821.1222,N,431.6445,W,10.00,254.51,210318,,*33
$GPRMC,024914,A,4821.1216,N,431.6474,W,10.00,254.51,210318,,*36
$GPRMC,024914,A,4821.1211,N,431.6502,W,10.00,254.51,210318,,*31
$GPRMC,024914,A,4821.1206,N,431.6531,W,10.00,254.51,210318,,*37
$GPRMC,024914,A,4821.1200,N,431.6560,W,10.00,254.51,210318,,*35
$GPRMC,024914,A,4821.1195,N,431.6588,W,10.00,254.51,210318,,*3C
$GPRMC,024914,A,4821.1190,N,431.6617,W,10.00,254.51,210318,,*3C
$GPRMC,024914,A,4821.1184,N,431.6646,W,10.00,254.51,210318,,*3D
$GPRMC,024914,A,4821.1179,N,431.6674,W,10.00,254.51,210318,,*3E
$GPRMC,024914,A,4821.1174,N,431.6703,W,10.00,254.51,210318,,*32
$GPRMC,024914,A,4821.1169,N,431.6731,W,10.00,254.51,210318,,*3F
$GPRMC,024914,A,4821.1163,N,431.6760,W,10.00,254.51,210318,,*31
$GPRMC,024914,A,4821.1158,N,431.6789,W,10.00,254.51,210318,,*3E
$GPRMC,024914,A,4821.1153,N,431.6817,W,10.00,254.51,210318,,*3D
$GPRMC,024914,A,4821.1147,N,431.6846,W,10.00,254.51,210318,,*3C
$GPRMC,024914,A,4821.1142,N,431.6874,W,10.00,254.51,210318,,*38
$GPRMC,024914,A,4821.1137,N,431.6903,W,10.00,254.51,210318,,*3B
$GPRMC,024914,A,4821.1131,N,431.6932,W,10.00,254.51,210318,,*3F
$GPRMC,024914,A,4821.1126,N,431.6960,W,10.00,254.51,210318,,*3E
$GPRMC,024914,A,4821.1121,N,431.6989,W,10.00,254.51,210318,,*3E
$GPRMC,024914,A,4821.1116,N,431.7018,W,10.00,254.51,210318,,*3A
$GPRMC,024914,A,4821.1110,N,431.7046,W,10.00,254.51,210318,,*37
$GPRMC,024914,A,4821.1105,N,431.7075,W,10.00,254.51,210318,,*33
$GPRMC,024914,A,4821.1100,N,431.7103,W,10.00,254.51,210318,,*36
$GPRMC,024914,A,4821.1094,N,431.7132,W,10.00,254.51,210318,,*38
$GPRMC,024914,A,4821.1089,N,431.7161,W,10.00,254.51,210318,,*32
$GPRMC,024914,A,4821.1084,N,431.7189,W,10.00,254.51,210318,,*39
$GPRMC,024914,A,4821.1079,N,431.7218,W,10.00,254.51,210318,,*30
$GPRMC,024914,A,4821.1073,N,431.7247,W,10.00,254.51,210318,,*30
$GPRMC,024914,A,4821.1068,N,431.7275,W,10.00,254.51,210318,,*3B
$GPRMC,024914,A,4821.1063,N,431.7304,W,10.00,254.51,210318,,*37
$GPRMC,024914,A,4821.1057,N,431.7332,W,10.00,254.51,210318,,*35
$GPRMC,024914,A,4821.1052,N,431.7361,W,10.00,254.51,210318,,*36
$GPRMC,024914,A,4821.1047,N,431.7390,W,10.00,254.51,210318,,*3C
$GPRMC,024914,A,4821.1041,N,431.7418,W,10.00,254.51,210318,,*3D
$GPRMC,024914,A,4821.1036,N,431.7447,W,10.00,254.51,210318,,*37
$GPRMC,024914,A,4821.1031,N,431.7475,W,10.00,254.51,210318,,*31
$GPRMC,024914,A,4821.1026,N,431.7504,W,10.00,254.51,210318,,*30
$GPRMC,024914,A,4821.1020,N,431.7533,W,10.00,254.51,210318,,*32
$GPRMC,024914,A,4821.1015,N,431.7561,W,10.00,254.51,210318,,*33
$GPRMC,024914,A,4821.1010,N,431.7590,W,10.00,254.51,210318,,*38
$GPRMC,024914,A,4821.1004,N,431.7619,W,10.00,254.51,210318,,*3F
$GPRMC,024914,A,4821.0999,N,431.7647,W,10.00,254.51,210318,,*38
$GPRMC,024914,A,4821.0994,N,431.7676,W,10.00,254.51,210318,,*37
$GPRMC,024914,A,4821.0989,N,431.7704,W,10.00,254.51,210318,,*3F
$GPRMC,024914,A,4821.0983,N,431.7733,W,10.00,254.51,210318,,*31
$GPRMC,024914,A,4821.0978,N,431.7762,W,10.00,254.51,210318,,*31
$GPRMC,024914,A,4821.0973,N,431.7790,W,10.00,254.51,210318,,*37
$GPRMC,024914,A,4821.0967,N,431.7819,W,10.00,254.51,210318,,*3C
$GPRMC,024914,A,4821.0962,N,431.7847,W,10.00,254.51,210318,,*32
$GPRMC,024914,A,4821.0957,N,431.7876,W,10.00,254.51,210318,,*36
$GPRMC,024914,A,4821.0951,N,431.7905,W,10.00,254.51,210318,,*35
$GPRMC,024914,A,4821.0946,N,431.7933,W,10.00,254.51,210318,,*36
$GPRMC,024914,A,4821.0941,N,431.7962,W,10.00,254.51,210318,,*35
$GPRMC,024914,A,4821.0936,N,431.7991,W,10.00,254.51,210318,,*39
$GPRMC,024914,A,4821.0930,N,431.8019,W,10.00,254.51,210318,,*39
$GPRMC,024914,A,4821.0925,N,431.8048,W,10.00,254.51,210318,,*39
$GPRMC,024914,A,4821.0920,N,431.8076,W,10.00,254.51,210318,,*31
$GPRMC,024914,A,4821.0914,N,431.8105,W,10.00,254.51,210318,,*33
$GPRMC,024914,A,4821.0909,N,431.8134,W,10.00,254.51,210318,,*3D
$GPRMC,024914,A,4821.0904,N,431.8162,W,10.00,254.51,210318,,*33
$GPRMC,024914,A,4821.0899,N,431.8191,W,10.00,254.51,210318,,*3A
$GPRMC,024914,A,4821.0893,N,431.8219,W,10.00,254.51,210318,,*33
$GPRMC,024914,A,4821.0888,N,431.8248,W,10.00,254.51,210318,,*3D
$GPRMC,024914,A,4821.0883,N,431.8277,W,10.00,254.51,210318,,*3A
$GPRMC,024914,A,4821.0877,N,431.8305,W,10.00,254.51,210318,,*35
$GPRMC,024914,A,4821.0872,N,431.8334,W,10.00,254.51,210318,,*32
$GPRMC,024914,A,4821.0867,N,431.8363,W,10.00,254.51,210318,,*34
$GPRMC,024914,A,4821.0861,N,431.8391,W,10.00,254.51,210318,,*3F
$GPRMC,024914,A,4821.0856,N,431.8420,W,10.00,254.51,210318,,*36
$GPRMC,024914,A,4821.0851,N,431.8448,W,10.00,254.51,210318,,*3F
$GPRMC,024914,A,4821.0846,N,431.8477,W,10.00,254.51,210318,,*35
$GPRMC,024914,A,4821.0840,N,431.8506,W,10.00,254.51,210318,,*34
$GPRMC,024914,A,4821.0835,N,431.8534,W,10.00,254.51,210318,,*37
$GPRMC,024914,A,4821.0830,N,431.8563,W,10.00,254.51,210318,,*30
$GPRMC,024914,A,4821.0824,N,431.8591,W,10.00,254.51,210318,,*38
$GPRMC,024914,A,4821.0819,N,431.8620,W,10.00,254.51,210318,,*3F
$GPRMC,024914,A,4821.0814,N,431.8649,W,10.00,254.51,210318,,*3D
$GPRMC,024914,A,4821.0809,N,431.8677,W,10.00,254.51,210318,,*3C
$GPRMC,024914,A,4821.0803,N,431.8706,W,10.00,254.51,210318,,*31
$GPRMC,024914,A,4821.0798,N,431.8735,W,10.00,254.51,210318,,*3C
$GPRMC,024914,A,4821.0793,N,431.8763,W,10.00,254.51,210318,,*34
$GPRMC,024914,A,4821.0787,N,431.8792,W,10.00,254.51,210318,,*3F
$GPRMC,024914,A,4821.0782,N,431.8820,W,10.00,254.51,210318,,*3C
$GPRMC,024914,A,4821.0777,N,431.8849,W,10.00,254.51,210318,,*39
$GPRMC,024914,A,4821.0771,N,431.8878,W,10.00,254.51,210318,,*3D
$GPRMC,024914,A,4821.0766,N,431.8906,W,10.00,254.51,210318,,*33
$GPRMC,024914,A,4821.0761,N,431.8935,W,10.00,254.51,210318,,*34
$GPRMC,024914,A,4821.0756,N,431.8964,W,10.00,254.51,210318,,*34
$GPRMC,024914,A,4821.0750,N,431.8992,W,10.00,254.51,210318,,*3B
$GPRMC,024914,A,4821.0745,N,431.9021,W,10.00,254.51,210318,,*3F
$GPRMC,024914,A,4821.0740,N,431.9049,W,10.00,254.51,210318,,*34
$GPRMC,024914,A,4821.0734,N,431.9078,W,10.00,254.51,210318,,*35
$GPRMC,024914,A,4821.0729,N,431.9107,W,10.00,254.51,210318,,*30
$GPRMC,024914,A,4821.0724,N,431.9135,W,10.00,254.51,210318,,*3C
$GPRMC,024914,A,4821.0719,N,431.9164,W,10.00,254.51,210318,,*36
$GPRMC,024914,A,4821.0713,N,431.9192,W,10.00,254.51,210318,,*35
$GPRMC,024914,A,4821.0708,N,431.9221,W,10.00,254.51,210318,,*34
$GPRMC,024914,A,4821.0703,N,431.9250,W,10.00,254.51,210318,,*39
$GPRMC,024914,A,4821.0697,N,431.9278,W,10.00,254.51,210318,,*3F
$GPRMC,024914,A,4821.0692,N,431.9307,W,10.00,254.51,210318,,*33
$GPRMC,024914,A,4821.0687,N,431.9336,W,10.00,254.51,210318,,*35
$GPRMC,024914,A,4821.0681,N,431.9364,W,10.00,254.51,210318,,*34
$GPRMC,024914,A,4821.0676,N,431.9393,W,10.00,254.51,210318,,*34
$GPRMC,024914,A,4821.0671,N,431.9421,W,10.00,254.51,210318,,*3D
$GPRMC,024914,A,4821.0666,N,431.9450,W,10.00,254.51,210318,,*3D
$GPRMC,024914,A,4821.0660,N,431.9479,W,10.00,254.51,210318,,*30
$GPRMC,024914,A,4821.0655,N,431.9507,W,10.00,254.51,210318,,*3E
$GPRMC,024914,A,4821.0650,N,431.9536,W,10.00,254.51,210318,,*39
$GPRMC,024914,A,4821.0644,N,431.9564,W,10.00,254.51,210318,,*3B
$GPRMC,024914,A,4821.0639,N,431.9593,W,10.00,254.51,210318,,*39
$GPRMC,024914,A,4821.0634,N,431.9622,W,10.00,254.51,210318,,*3D
$GPRMC,024914,A,4821.0628,N,431.9650,W,10.00,254.51,210318,,*35
$GPRMC,024914,A,4821.0623,N,431.9679,W,10.00,254.51,210318,,*35
$GPRMC,024914,A,4821.0618,N,431.9708,W,10.00,254.51,210318,,*3A
$GPRMC,024914,A,4821.0613,N,431.9736,W,10.00,254.51,210318,,*3C
$GPRMC,024914,A,4821.0607,N,431.9765,W,10.00,254.51,210318,,*3F
$GPRMC,024914,A,4821.0602,N,431.9793,W,10.00,254.51,210318,,*33
$GPRMC,024914,A,4821.0597,N,431.9822,W,10.00,254.51,210318,,*39
$GPRMC,024914,A,4821.0591,N,431.9851,W,10.00,254.51,210318,,*3B
$GPRMC,024914,A,4821.0586,N,431.9879,W,10.00,254.51,210318,,*37
$GPRMC,024914,A,4821.0581,N,431.9908,W,10.00,254.51,210318,,*37
$GPRMC,024914,A,4821.0576,N,431.9936,W,10.00,254.51,210318,,*32
$GPRMC,024914,A,4821.0570,N,431.9965,W,10.00,254.51,210318,,*32
$GPRMC,024914,A,4821.0565,N,431.9994,W,10.00,254.51,210318,,*38
$GPRMC,024914,A,4821.0560,N,432.0022,W,10.00,254.51,210318,,*33
$GPRMC,024914,A,4821.0554,N,432.0051,W,10.00,254.51,210318,,*30
$GPRMC,024914,A,4821.0549,N,432.0080,W,10.00,254.51,210318,,*30
$GPRMC,024914,A,4821.0544,N,432.0108,W,10.00,254.51,210318,,*3C
$GPRMC,024914,A,4821.0538,N,432.0137,W,10.00,254.51,210318,,*3B
$GPRMC,024914,A,4821.0533,N,432.0165,W,10.00,254.51,210318,,*37
$GPRMC,024914,A,4821.0528,N,432.0194,W,10.00,254.51,210318,,*33
$GPRMC,024914,A,4821.0523,N,432.0223,W,10.00,254.51,210318,,*37
$GPRMC,024914,A,4821.0517,N,432.0251,W,10.00,254.51,210318,,*35
$GPRMC,024914,A,4821.0512,N,432.0280,W,10.00,254.51,210318,,*3C
$GPRMC,024914,A,4821.0507,N,432.0308,W,10.00,254.51,210318,,*39
$GPRMC,024914,A,4821.0501,N,432.0337,W,10.00,254.51,210318,,*33
$GPRMC,024914,A,4821.0496,N,432.0366,W,10.00,254.51,210318,,*38
$GPRMC,024914,A,4821.0491,N,432.0394,W,10.00,254.51,210318,,*32
$GPRMC,024914,A,4821.0485,N,432.0423,W,10.00,254.51,210318,,*3C
$GPRMC,024914,A,4821.0480,N,432.0452,W,10.00,254.51,210318,,*3F
$GPRMC,024914,A,4821.0475,N,432.0480,W,10.00,254.51,210318,,*3A
$GPRMC,024914,A,4821.0470,N,432.0509,W,10.00,254.51,210318,,*3F
$GPRMC,024914,A,4821.0464,N,432.0537,W,10.00,254.51,210318,,*37
$GPRMC,024914,A,4821.0459,N,432.0566,W,10.00,254.51,210318,,*3D
$GPRMC,024914,A,4821.0454,N,432.0595,W,10.00,254.51,210318,,*3C
$GPRMC,024914,A,4821.0448,N,432.0623,W,10.00,254.51,210318,,*3F
$GPRMC,024914,A,4821.0443,N,432.0652,W,10.00,254.51,210318,,*32
$GPRMC,024914,A,4821.0438,N,432.0680,W,10.00,254.51,210318,,*31
$GPRMC,024914,A,4821.0433,N,432.0709,W,10.00,254.51,210318,,*3A
$GPRMC,024914,A,4821.0427,N,432.0738,W,10.00,254.51,210318,,*3D
$GPRMC,024914,A,4821.0422,N,432.0766,W,10.00,254.51,210318,,*33
$GPRMC,024914,A,4821.0417,N,432.0795,W,10.00,254.51,210318,,*39
$GPRMC,024914,A,4821.0411,N,432.0824,W,10.00,254.51,210318,,*3A
$GPRMC,024914,A,4821.0406,N,432.0852,W,10.00,254.51,210318,,*3D
$GPRMC,024914,A,4821.0401,N,432.0881,W,10.00,254.51,210318,,*34
$GPRMC,024914,A,4821.0395,N,432.0909,W,10.00,254.51,210318,,*3F
$GPRMC,024914,A,4821.0390,N,432.0938,W,10.00,254.51,210318,,*38
$GPRMC,024914,A,4821.0385,N,432.0967,W,10.00,254.51,210318,,*36
$GPRMC,024914,A,4821.0380,N,432.0995,W,10.00,254.51,210318,,*3E
$GPRMC,024914,A,4821.0374,N,432.1024,W,10.00,254.51,210318,,*37
$GPRMC,024914,A,4821.0369,N,432.1052,W,10.00,254.51,210318,,*3A
$GPRMC,024914,A,4821.0364,N,432.1081,W,10.00,254.51,210318,,*39
$GPRMC,024914,A,4821.0358,N,432.1110,W,10.00,254.51,210318,,*3F
$GPRMC,024914,A,4821.0353,N,432.1138,W,10.00,254.51,210318,,*3E
$GPRMC,024914,A,4821.0348,N,432.1167,W,10.00,254.51,210318,,*3E
$GPRMC,024914,A,4821.0343,N,432.1196,W,10.00,254.51,210318,,*3B
$GPRMC,024914,A,4821.0337,N,432.1224,W,10.00,254.51,210318,,*32
$GPRMC,024914,A,4821.0332,N,432.1253,W,10.00,254.51,210318,,*37
$GPRMC,024914,A,4821.0327,N,432.1281,W,10.00,254.51,210318,,*3C
$GPRMC,024914,A,4821.0321,N,432.1310,W,10.00,254.51,210318,,*33
$GPRMC,024914,A,4821.0316,N,432.1339,W,10.00,254.51,210318,,*3C
$GPRMC,024914,A,4821.0311,N,432.1367,W,10.00,254.51,210318,,*30
$GPRMC,024914,A,4821.0305,N,432.1396,W,10.00,254.51,210318,,*3B
$GPRMC,024914,A,4821.0300,N,432.1424,W,10.00,254.51,210318,,*30
$GPRMC,024914,A,4821.0295,N,432.1453,W,10.00,254.51,210318,,*3D
$GPRMC,024914,A,4821.0290,N,432.1482,W,10.00,254.51,210318,,*34
$GPRMC,024914,A,4821.0284,N,432.1510,W,10.00,254.51,210318,,*3B
$GPRMC,024914,A,4821.0279,N,432.1539,W,10.00,254.51,210318,,*32
$GPRMC,024914,A,4821.0274,N,432.1568,W,10.00,254.51,210318,,*3B
$GPRMC,024914,A,4821.0268,N,432.1596,W,10.00,254.51,210318,,*37
$GPRMC,024914,A,4821.0263,N,432.1625,W,10.00,254.51,210318,,*37
$GPRMC,024914,A,4821.0258,N,432.1653,W,10.00,254.51,210318,,*3E
$GPRMC,024914,A,4821.0252,N,432.1682,W,10.00,254.51,210318,,*38
$GPRMC,024914,A,4821.0247,N,432.1711,W,10.00,254.51,210318,,*37
$GPRMC,024914,A,4821.0242,N,432.1739,W,10.00,254.51,210318,,*38
$GPRMC,024914,A,4821.0237,N,432.1768,W,10.00,254.51,210318,,*3E
$GPRMC,024914,A,4821.0231,N,432.1796,W,10.00,254.51,210318,,*39
$GPRMC,024914,A,4821.0226,N,432.1825,W,10.00,254.51,210318,,*38
$GPRMC,024914,A,4821.0221,N,432.1854,W,10.00,254.51,210318,,*39
$GPRMC,024914,A,4821.0215,N,432.1882,W,10.00,254.51,210318,,*35
$GPRMC,024914,A,4821.0210,N,432.1911,W,10.00,254.51,210318,,*3B
$GPRMC,024914,A,4821.0205,N,432.1940,W,10.00,254.51,210318,,*3B
$GPRMC,024914,A,4821.0200,N,432.1968,W,10.00,254.51,210318,,*34
$GPRMC,024914,A,4821.0194,N,432.1997,W,10.00,254.51,210318,,*3A
$GPRMC,024914,A,4821.0189,N,432.2025,W,10.00,254.51,210318,,*35
$GPRMC,024914,A,4821.0184,N,432.2054,W,10.00,254.51,210318,,*3E
$GPRMC,024914,A,4821.0178,N,432.2083,W,10.00,254.51,210318,,*37
$GPRMC,024914,A,4821.0173,N,432.2111,W,10.00,254.51,210318,,*36
$GPRMC,024914,A,4821.0168,N,432.2140,W,10.00,254.51,210318,,*38
$GPRMC,024914,A,4821.0162,N,432.2168,W,10.00,254.51,210318,,*38
$GPRMC,024914,A,4821.0157,N,432.2197,W,10.00,254.51,210318,,*3E
$GPRMC,024914,A,4821.0152,N,432.2226,W,10.00,254.51,210318,,*32
$GPRMC,024914,A,4821.0147,N,432.2254,W,10.00,254.51,210318,,*33
$GPRMC,024914,A,4821.0141,N,432.2283,W,10.00,254.51,210318,,*3F
$GPRMC,024914,A,4821.0136,N,432.2312,W,10.00,254.51,210318,,*36
$GPRMC,024914,A,4821.0131,N,432.2340,W,10.00,254.51,210318,,*36
$GPRMC,024914,A,4821.0125,N,432.2369,W,10.00,254.51,210318,,*38
$GPRMC,024914,A,4821.0120,N,432.2397,W,10.00,254.51,210318,,*3C
$GPRMC,024914,A,4821.0115,N,432.2426,W,10.00,254.51,210318,,*37
$GPRMC,024914,A,4821.0109,N,432.2455,W,10.00,254.51,210318,,*3E
$GPRMC,024914,A,4821.0104,N,432.2483,W,10.00,254.51,210318,,*38
$GPRMC,024914,A,4821.0099,N,432.2512,W,10.00,254.51,210318,,*34
$GPRMC,024914,A,4821.0094,N,432.2540,W,10.00,254.51,210318,,*3E
$GPRMC,024914,A,4821.0088,N,432.2569,W,10.00,254.51,210318,,*38
$GPRMC,024914,A,4821.0083,N,432.2598,W,10.00,254.51,210318,,*3D
$GPRMC,024914,A,4821.0078,N,432.2626,W,10.00,254.51,210318,,*3F
$GPRMC,024914,A,4821.0072,N,432.2655,W,10.00,254.51,210318,,*31
$GPRMC,024914,A,4821.0067,N,432.2684,W,10.00,254.51,210318,,*39
$GPRMC,024914,A,4821.0062,N,432.2712,W,10.00,254.51,210318,,*32
$GPRMC,024914,A,4821.0056,N,432.2741,W,10.00,254.51,210318,,*33
$GPRMC,024914,A,4821.0051,N,432.2769,W,10.00,254.51,210318,,*3E
$GPRMC,024914,A,4821.0046,N,432.2798,W,10.00,254.51,210318,,*36
$GPRMC,024914,A,4821.0041,N,432.2827,W,10.00,254.51,210318,,*3A
$GPRMC,024914,A,4821.0035,N,432.2855,W,10.00,254.51,210318,,*3C
$GPRMC,024914,A,4821.0030,N,432.2884,W,10.00,254.51,210318,,*35
$GPRMC,024914,A,4821.0025,N,432.2912,W,10.00,254.51,210318,,*3F
$GPRMC,024914,A,4821.0019,N,432.2941,W,10.00,254.51,210318,,*36
$GPRMC,024914,A,4821.0014,N,432.2970,W,10.00,254.51,210318,,*39
$GPRMC,024914,A,4821.0009,N,432.2998,W,10.00,254.51,210318,,*33
$GPRMC,024914,A,4821.0004,N,432.3027,W,10.00,254.51,210318,,*32
$GPRMC,024914,A,4820.9998,N,432.3056,W,10.00,254.51,210318,,*30
$GPRMC,024914,A,4820.9993,N,432.3084,W,10.00,254.51,210318,,*34
$GPRMC,024914,A,4820.9988,N,432.3113,W,10.00,254.51,210318,,*31
$GPRMC,024914,A,4820.9982,N,432.3141,W,10.00,254.51,210318,,*3C
$GPRMC,024914,A,4820.9977,N,432.3170,W,10.00,254.51,210318,,*34
$GPRMC,024914,A,4820.9972,N,432.3199,W,10.00,254.51,210318,,*36
$GPRMC,024914,A,4820.9966,N,432.3227,W,10.00,254.51,210318,,*35
$GPRMC,024914,A,4820.9961,N,432.3256,W,10.00,254.51,210318,,*34
$GPRMC,024914,A,4820.9956,N,432.3284,W,10.00,254.51,210318,,*3F
$GPRMC,024914,A,4820.9951,N,432.3313,W,10.00,254.51,210318,,*37
$GPRMC,024914,A,4820.9945,N,432.3342,W,10.00,254.51,210318,,*36
$GPRMC,024914,A,4820.9940,N,432.3370,W,10.00,254.51,210318,,*32
$GPRMC,024914,A,4820.9935,N,432.3399,W,10.00,254.51,210318,,*37
$GPRMC,024914,A,4820.9929,N,432.3428,W,10.00,254.51,210318,,*37
$GPRMC,024914,A,4820.9924,N,432.3456,W,10.00,254.51,210318,,*33
$GPRMC,024914,A,4820.9919,N,432.3485,W,10.00,254.51,210318,,*33
$GPRMC,024914,A,4820.9913,N,432.3513,W,10.00,254.51,210318,,*37
$GPRMC,024914,A,4820.9908,N,432.3542,W,10.00,254.51,210318,,*39
$GPRMC,024914,A,4820.9903,N,432.3571,W,10.00,254.51,210318,,*32
$GPRMC,024914,A,4820.9898,N,432.3599,W,10.00,254.51,210318,,*37
$GPRMC,024914,A,4820.9892,N,432.3628,W,10.00,254.51,210318,,*34
$GPRMC,024914,A,4820.9887,N,432.3656,W,10.00,254.51,210318,,*39
$GPRMC,024914,A,4820.9882,N,432.3685,W,10.00,254.51,210318,,*32
$GPRMC,024914,A,4820.9876,N,432.3714,W,10.00,254.51,210318,,*30
$GPRMC,024914,A,4820.9871,N,432.3742,W,10.00,254.51,210318,,*34
$GPRMC,024914,A,4820.9866,N,432.3771,W,10.00,254.51,210318,,*32
