$GPRMC,021018,A,4821.9033,N,429.0075,W,10.00,164.91,180117,,*3A
$GPRMC,021018,A,4821.8716,N,428.9947,W,10.00,164.91,180117,,*3B
$GPRMC,021018,A,4821.8398,N,428.9818,W,10.00,164.91,180117,,*32
$GPRMC,021018,A,4821.8080,N,428.9690,W,10.00,164.91,180117,,*36
$GPRMC,021018,A,4821.7763,N,428.9561,W,10.00,164.91,180117,,*3E
$GPRMC,021018,A,4821.7445,N,428.9433,W,10.00,164.91,180117,,*3F
$GPRMC,021018,A,4821.7127,N,428.9304,W,10.00,164.91,180117,,*3D
$GPRMC,021018,A,4821.6897,N,428.9211,W,10.00,252.98,180117,,*34
$GPRMC,021018,A,4821.6880,N,428.9292,W,10.00,252.98,180117,,*39
$GPRMC,021018,A,4821.6864,N,428.9374,W,10.00,252.98,180117,,*3A
$GPRMC,021018,A,4821.6847,N,428.9456,W,10.00,252.98,180117,,*3C
$GPRMC,021018,A,4821.6831,N,428.9537,W,10.00,252.98,180117,,*3B
$GPRMC,021018,A,4821.6814,N,428.9619,W,10.00,252.98,180117,,*33
$GPRMC,021018,A,4821.6797,N,428.9700,W,10.00,252.98,180117,,*3E
$GPRMC,021018,A,4821.6781,N,428.9782,W,10.00,252.98,180117,,*33
$GPRMC,021018,A,4821.6764,N,428.9864,W,10.00,252.98,180117,,*3F
$GPRMC,021018,A,4821.6747,N,428.9945,W,10.00,252.98,180117,,*3C
$GPRMC,021018,A,4821.6731,N,429.0027,W,10.00,252.98,180117,,*38
$GPRMC,021018,A,4821.6714,N,429.0108,W,10.00,252.98,180117,,*33
$GPRMC,021018,A,4821.6697,N,429.0190,W,10.00,252.98,180117,,*38
$GPRMC,021018,A,4821.6681,N,429.0272,W,10.00,252.98,180117,,*30
$GPRMC,021018,A,4821.6664,N,429.0353,W,10.00,252.98,180117,,*39
$GPRMC,021018,A,4821.6647,N,429.0435,W,10.00,252.98,180117,,*3F
$GPRMC,021018,A,4821.6631,N,429.0516,W,10.00,252.98,180117,,*3E
$GPRMC,021018,A,4821.6614,N,429.0598,W,10.00,252.98,180117,,*3F
$GPRMC,021018,A,4821.6598,N,429.0680,W,10.00,252.98,180117,,*32
$GPRMC,021018,A,4821.6581,N,429.0761,W,10.00,252.98,180117,,*34
$GPRMC,021018,A,4821.6564,N,429.0843,W,10.00,252.98,180117,,*30
$GPRMC,021018,A,4821.6548,N,429.0924,W,10.00,252.98,180117,,*3E
$GPRMC,021018,A,4821.6531,N,429.1006,W,10.00,252.98,180117,,*38
$GPRMC,021018,A,4821.6514,N,429.1088,W,10.00,252.98,180117,,*39
$GPRMC,021018,A,4821.6498,N,429.1169,W,10.00,252.98,180117,,*32
$GPRMC,021018,A,4821.6481,N,429.1251,W,10.00,252.98,180117,,*32
$GPRMC,021018,A,4821.6464,N,429.1332,W,10.00,252.98,180117,,*3D
$GPRMC,021018,A,4821.6448,N,429.1414,W,10.00,252.98,180117,,*30
$GPRMC,021018,A,4821.6431,N,429.1496,W,10.00,252.98,180117,,*34
$GPRMC,021018,A,4821.6414,N,429.1577,W,10.00,252.98,180117,,*3D
$GPRMC,021018,A,4821.6398,N,429.1659,W,10.00,252.98,180117,,*31
$GPRMC,021018,A,4821.6381,N,429.1740,W,10.00,252.98,180117,,*30
$GPRMC,021018,A,4821.6365,N,429.1822,W,10.00,252.98,180117,,*31
$GPRMC,021018,A,4821.6348,N,429.1904,W,10.00,252.98,180117,,*3B
$GPRMC,021018,A,4821.6331,N,429.1985,W,10.00,252.98,180117,,*3C
$GPRMC,021018,A,4821.6315,N,429.2067,W,10.00,252.98,180117,,*3C
$GPRMC,021018,A,4821.6298,N,429.2148,W,10.00,252.98,180117,,*34
$GPRMC,021018,A,4821.6281,N,429.2230,W,10.00,252.98,180117,,*30
$GPRMC,021018,A,4821.6265,N,429.2312,W,10.00,252.98,180117,,*3B
$GPRMC,021018,A,4821.6248,N,429.2393,W,10.00,252.98,180117,,*3D
$GPRMC,021018,A,4821.6231,N,429.2475,W,10.00,252.98,180117,,*3C
$GPRMC,021018,A,4821.6215,N,429.2556,W,10.00,252.98,180117,,*3A
$GPRMC,021018,A,4821.6198,N,429.2638,W,10.00,252.98,180117,,*37
$GPRMC,021018,A,4821.6181,N,429.2719,W,10.00,252.98,180117,,*3D
$GPRMC,021018,A,4821.6165,N,429.2801,W,10.00,252.98,180117,,*31
$GPRMC,021018,A,4821.6148,N,429.2883,W,10.00,252.98,180117,,*34
$GPRMC,021018,A,4821.6131,N,429.2964,W,10.00,252.98,180117,,*32
$GPRMC,021018,A,4821.6115,N,429.3046,W,10.00,252.98,180117,,*3C
$GPRMC,021018,A,4821.6098,N,429.3127,W,10.00,252.98,180117,,*3E
$GPRMC,021018,A,4821.6082,N,429.3209,W,10.00,252.98,180117,,*3A
$GPRMC,021018,A,4821.6065,N,429.3291,W,10.00,252.98,180117,,*32
$GPRMC,021018,A,4821.6048,N,429.3372,W,10.00,252.98,180117,,*31
$GPRMC,021018,A,4821.6032,N,429.3454,W,10.00,252.98,180117,,*3F
$GPRMC,021018,A,4821.6015,N,429.3535,W,10.00,252.98,180117,,*3C
$GPRMC,021018,A,4821.5998,N,429.3617,W,10.00,252.98,180117,,*30
$GPRMC,021018,A,4821.5982,N,429.3699,W,10.00,252.98,180117,,*3D
$GPRMC,021018,A,4821.5965,N,429.3780,W,10.00,252.98,180117,,*3D
$GPRMC,021018,A,4821.5948,N,429.3862,W,10.00,252.98,180117,,*31
$GPRMC,021018,A,4821.5932,N,429.3943,W,10.00,252.98,180117,,*3E
$GPRMC,021018,A,4821.5915,N,429.4025,W,10.00,252.98,180117,,*35
$GPRMC,021018,A,4821.5898,N,429.4107,W,10.00,252.98,180117,,*30
$GPRMC,021018,A,4821.5882,N,429.4188,W,10.00,252.98,180117,,*3C
$GPRMC,021018,A,4821.5865,N,429.4270,W,10.00,252.98,180117,,*31
$GPRMC,021018,A,4821.5848,N,429.4351,W,10.00,252.98,180117,,*3C
$GPRMC,021018,A,4821.5832,N,429.4433,W,10.00,252.98,180117,,*32
$GPRMC,021018,A,4821.5815,N,429.4515,W,10.00,252.98,180117,,*32
$GPRMC,021018,A,4821.5799,N,429.4596,W,10.00,252.98,180117,,*32
$GPRMC,021018,A,4821.5782,N,429.4678,W,10.00,252.98,180117,,*3B
$GPRMC,021018,A,4821.5765,N,429.4759,W,10.00,252.98,180117,,*30
$GPRMC,021018,A,4821.5749,N,429.4841,W,10.00,252.98,180117,,*38
$GPRMC,021018,A,4821.5732,N,429.4922,W,10.00,252.98,180117,,*30
$GPRMC,021018,A,4821.5715,N,429.5004,W,10.00,252.98,180117,,*39
$GPRMC,021018,A,4821.5699,N,429.5086,W,10.00,252.98,180117,,*36
$GPRMC,021018,A,4821.5682,N,429.5167,W,10.00,252.98,180117,,*32
$GPRMC,021018,A,4821.5665,N,429.5249,W,10.00,252.98,180117,,*34
$GPRMC,021018,A,4821.5649,N,429.5330,W,10.00,252.98,180117,,*35
$GPRMC,021018,A,4821.5632,N,429.5412,W,10.00,252.98,180117,,*3E
$GPRMC,021018,A,4821.5615,N,429.5494,W,10.00,252.98,180117,,*35
$GPRMC,021018,A,4821.5599,N,429.5575,W,10.00,252.98,180117,,*3C
$GPRMC,021018,A,4821.5582,N,429.5657,W,10.00,252.98,180117,,*35
$GPRMC,021018,A,4821.5565,N,429.5738,W,10.00,252.98,180117,,*34
$GPRMC,021018,A,4821.5549,N,429.5820,W,10.00,252.98,180117,,*3C
$GPRMC,021018,A,4821.5532,N,429.5902,W,10.00,252.98,180117,,*31
$GPRMC,021018,A,4821.5515,N,429.5983,W,10.00,252.98,180117,,*3D
$GPRMC,021018,A,4821.5499,N,429.6065,W,10.00,252.98,180117,,*3A
$GPRMC,021018,A,4821.5482,N,429.6146,W,10.00,252.98,180117,,*30
$GPRMC,021018,A,4821.5466,N,429.6228,W,10.00,252.98,180117,,*31
$GPRMC,021018,A,4821.5449,N,429.6310,W,10.00,252.98,180117,,*36
$GPRMC,021018,A,4821.5432,N,429.6391,W,10.00,252.98,180117,,*33
$GPRMC,021018,A,4821.5416,N,429.6473,W,10.00,252.98,180117,,*3E
$GPRMC,021018,A,4821.5399,N,429.6554,W,10.00,252.98,180117,,*3A
$GPRMC,021018,A,4821.5382,N,429.6636,W,10.00,252.98,180117,,*37
$GPRMC,021018,A,4821.5366,N,429.6717,W,10.00,252.98,180117,,*3F
$GPRMC,021018,A,4821.5349,N,429.6799,W,10.00,252.98,180117,,*34
$GPRMC,021018,A,4821.5332,N,429.6881,W,10.00,252.98,180117,,*3E
$GPRMC,021018,A,4821.5316,N,429.6962,W,10.00,252.98,180117,,*34
$GPRMC,021018,A,4821.5299,N,429.7044,W,10.00,252.98,180117,,*3E
$GPRMC,021018,A,4821.5282,N,429.7125,W,10.00,252.98,180117,,*32
$GPRMC,021018,A,4821.5266,N,429.7207,W,10.00,252.98,180117,,*3B
$GPRMC,021018,A,4821.5249,N,429.7289,W,10.00,252.98,180117,,*30
$GPRMC,021018,A,4821.5232,N,429.7370,W,10.00,252.98,180117,,*3B
$GPRMC,021018,A,4821.5216,N,429.7452,W,10.00,252.98,180117,,*3A
$GPRMC,021018,A,4821.5199,N,429.7533,W,10.00,252.98,180117,,*38
$GPRMC,021018,A,4821.5182,N,429.7615,W,10.00,252.98,180117,,*35
$GPRMC,021018,A,4821.5166,N,429.7697,W,10.00,252.98,180117,,*35
$GPRMC,021018,A,4821.5149,N,429.7778,W,10.00,252.98,180117,,*38
$GPRMC,021018,A,4821.5132,N,429.7860,W,10.00,252.98,180117,,*32
$GPRMC,021018,A,4821.5116,N,429.7941,W,10.00,252.98,180117,,*36
$GPRMC,021018,A,4821.5099,N,429.8023,W,10.00,252.98,180117,,*32
$GPRMC,021018,A,4821.5083,N,429.8104,W,10.00,252.98,180117,,*3D
$GPRMC,021018,A,4821.5066,N,429.8186,W,10.00,252.98,180117,,*3C
$GPRMC,021018,A,4821.5049,N,429.8268,W,10.00,252.98,180117,,*32
$GPRMC,021018,A,4821.5033,N,429.8349,W,10.00,252.98,180117,,*3D
$GPRMC,021018,A,4821.5016,N,429.8431,W,10.00,252.98,180117,,*32
$GPRMC,021018,A,4821.4999,N,429.8512,W,10.00,252.98,180117,,*3D
$GPRMC,021018,A,4821.4983,N,429.8594,W,10.00,252.98,180117,,*38
$GPRMC,021018,A,4821.4966,N,429.8676,W,10.00,252.98,180117,,*3C
$GPRMC,021018,A,4821.4949,N,429.8757,W,10.00,252.98,180117,,*33
$GPRMC,021018,A,4821.4933,N,429.8839,W,10.00,252.98,180117,,*39
$GPRMC,021018,A,4821.4916,N,429.8920,W,10.00,252.98,180117,,*37
$GPRMC,021018,A,4821.4899,N,429.9002,W,10.00,252.98,180117,,*39
$GPRMC,021018,A,4821.4883,N,429.9084,W,10.00,252.98,180117,,*3C
$GPRMC,021018,A,4821.4866,N,429.9165,W,10.00,252.98,180117,,*39
$GPRMC,021018,A,4821.4849,N,429.9247,W,10.00,252.98,180117,,*37
$GPRMC,021018,A,4821.4833,N,429.9328,W,10.00,252.98,180117,,*32
$GPRMC,021018,A,4821.4816,N,429.9410,W,10.00,252.98,180117,,*39
$GPRMC,021018,A,4821.4799,N,429.9491,W,10.00,252.98,180117,,*38
$GPRMC,021018,A,4821.4783,N,429.9573,W,10.00,252.98,180117,,*3E
$GPRMC,021018,A,4821.4766,N,429.9655,W,10.00,252.98,180117,,*32
$GPRMC,021018,A,4821.4749,N,429.9736,W,10.00,252.98,180117,,*3B
$GPRMC,021018,A,4821.4733,N,429.9818,W,10.00,252.98,180117,,*35
$GPRMC,021018,A,4821.4716,N,429.9899,W,10.00,252.98,180117,,*3B
$GPRMC,021018,A,4821.4700,N,429.9981,W,10.00,252.98,180117,,*34
$GPRMC,021018,A,4821.4683,N,430.0063,W,10.00,252.98,180117,,*3A
$GPRMC,021018,A,4821.4666,N,430.0144,W,10.00,252.98,180117,,*35
$GPRMC,021018,A,4821.4650,N,430.0226,W,10.00,252.98,180117,,*37
$GPRMC,021018,A,4821.4633,N,430.0307,W,10.00,252.98,180117,,*30
$GPRMC,021018,A,4821.4616,N,430.0389,W,10.00,252.98,180117,,*31
$GPRMC,021018,A,4821.4600,N,430.0471,W,10.00,252.98,180117,,*36
$GPRMC,021018,A,4821.4583,N,430.0552,W,10.00,252.98,180117,,*3E
$GPRMC,021018,A,4821.4566,N,430.0634,W,10.00,252.98,180117,,*36
$GPRMC,021018,A,4821.4550,N,430.0715,W,10.00,252.98,180117,,*31
$GPRMC,021018,A,4821.4533,N,430.0797,W,10.00,252.98,180117,,*3E
$GPRMC,021018,A,4821.4516,N,430.0878,W,10.00,252.98,180117,,*37
$GPRMC,021018,A,4821.4500,N,430.0960,W,10.00,252.98,180117,,*38
$GPRMC,021018,A,4821.4483,N,430.1042,W,10.00,252.98,180117,,*3A
$GPRMC,021018,A,4821.4466,N,430.1123,W,10.00,252.98,180117,,*37
$GPRMC,021018,A,4821.4450,N,430.1205,W,10.00,252.98,180117,,*35
$GPRMC,021018,A,4821.4433,N,430.1286,W,10.00,252.98,180117,,*3B
$GPRMC,021018,A,4821.4416,N,430.1368,W,10.00,252.98,180117,,*3D
$GPRMC,021018,A,4821.4400,N,430.1450,W,10.00,252.98,180117,,*36
$GPRMC,021018,A,4821.4383,N,430.1531,W,10.00,252.98,180117,,*3C
$GPRMC,021018,A,4821.4366,N,430.1613,W,10.00,252.98,180117,,*34
$GPRMC,021018,A,4821.4350,N,430.1694,W,10.00,252.98,180117,,*3E
$GPRMC,021018,A,4821.4333,N,430.1776,W,10.00,252.98,180117,,*36
$GPRMC,021018,A,4821.4316,N,430.1857,W,10.00,252.98,180117,,*3D
$GPRMC,021018,A,4821.4300,N,430.1939,W,10.00,252.98,180117,,*33
$GPRMC,021018,A,4821.4283,N,430.2021,W,10.00,252.98,180117,,*3A
$GPRMC,021018,A,4821.4266,N,430.2102,W,10.00,252.98,180117,,*31
$GPRMC,021018,A,4821.4250,N,430.2184,W,10.00,252.98,180117,,*3A
$GPRMC,021018,A,4821.4233,N,430.2265,W,10.00,252.98,180117,,*33
$GPRMC,021018,A,4821.4216,N,430.2347,W,10.00,252.98,180117,,*35
$GPRMC,021018,A,4821.4200,N,430.2429,W,10.00,252.98,180117,,*3D
$GPRMC,021018,A,4821.4183,N,430.2510,W,10.00,252.98,180117,,*3E
$GPRMC,021018,A,4821.4166,N,430.2592,W,10.00,252.98,180117,,*3F
$GPRMC,021018,A,4821.4150,N,430.2673,W,10.00,252.98,180117,,*36
$GPRMC,021018,A,4821.4133,N,430.2755,W,10.00,252.98,180117,,*36
$GPRMC,021018,A,4821.4117,N,430.2836,W,10.00,252.98,180117,,*3A
$GPRMC,021018,A,4821.4100,N,430.2918,W,10.00,252.98,180117,,*31
$GPRMC,021018,A,4821.4083,N,430.3000,W,10.00,252.98,180117,,*3A
$GPRMC,021018,A,4821.4067,N,430.3081,W,10.00,252.98,180117,,*39
$GPRMC,021018,A,4821.4050,N,430.3163,W,10.00,252.98,180117,,*30
$GPRMC,021018,A,4821.4033,N,430.3244,W,10.00,252.98,180117,,*33
$GPRMC,021018,A,4821.4017,N,430.3326,W,10.00,252.98,180117,,*30
$GPRMC,021018,A,4821.4000,N,430.3408,W,10.00,252.98,180117,,*3D
$GPRMC,021018,A,4821.3983,N,430.3489,W,10.00,252.98,180117,,*31
$GPRMC,021018,A,4821.3967,N,430.3571,W,10.00,252.98,180117,,*3D
$GPRMC,021018,A,4821.3950,N,430.3652,W,10.00,252.98,180117,,*3B
$GPRMC,021018,A,4821.3933,N,430.3734,W,10.00,252.98,180117,,*3F
$GPRMC,021018,A,4821.3917,N,430.3815,W,10.00,252.98,180117,,*35
$GPRMC,021018,A,4821.3900,N,430.3897,W,10.00,252.98,180117,,*39
$GPRMC,021018,A,4821.3883,N,430.3979,W,10.00,252.98,180117,,*32
$GPRMC,021018,A,4821.3867,N,430.4060,W,10.00,252.98,180117,,*3E
$GPRMC,021018,A,4821.3850,N,430.4142,W,10.00,252.98,180117,,*3B
$GPRMC,021018,A,4821.3833,N,430.4223,W,10.00,252.98,180117,,*3A
$GPRMC,021018,A,4821.3817,N,430.4305,W,10.00,252.98,180117,,*39
$GPRMC,021018,A,4821.3800,N,430.4387,W,10.00,252.98,180117,,*35
$GPRMC,021018,A,4821.3783,N,430.4468,W,10.00,252.98,180117,,*37
$GPRMC,021018,A,4821.3767,N,430.4550,W,10.00,252.98,180117,,*37
$GPRMC,021018,A,4821.3750,N,430.4631,W,10.00,252.98,180117,,*37
$GPRMC,021018,A,4821.3733,N,430.4713,W,10.00,252.98,180117,,*33
$GPRMC,021018,A,4821.3717,N,430.4794,W,10.00,252.98,180117,,*3A
$GPRMC,021018,A,4821.3700,N,430.4876,W,10.00,252.98,180117,,*3F
$GPRMC,021018,A,4821.3683,N,430.4958,W,10.00,252.98,180117,,*38
$GPRMC,021018,A,4821.3667,N,430.5039,W,10.00,252.98,180117,,*3D
$GPRMC,021018,A,4821.3650,N,430.5121,W,10.00,252.98,180117,,*31
$GPRMC,021018,A,4821.3633,N,430.5202,W,10.00,252.98,180117,,*36
$GPRMC,021018,A,4821.3617,N,430.5284,W,10.00,252.98,180117,,*3E
$GPRMC,021018,A,4821.3600,N,430.5365,W,10.00,252.98,180117,,*36
$GPRMC,021018,A,4821.3583,N,430.5447,W,10.00,252.98,180117,,*39
$GPRMC,021018,A,4821.3567,N,430.5529,W,10.00,252.98,180117,,*3A
$GPRMC,021018,A,4821.3550,N,430.5610,W,10.00,252.98,180117,,*37
$GPRMC,021018,A,4821.3533,N,430.5692,W,10.00,252.98,180117,,*38
$GPRMC,021018,A,4821.3517,N,430.5773,W,10.00,252.98,180117,,*30
$GPRMC,021018,A,4821.3500,N,430.5855,W,10.00,252.98,180117,,*3D
$GPRMC,021018,A,4821.3483,N,430.5937,W,10.00,252.98,180117,,*32
$GPRMC,021018,A,4821.3467,N,430.6018,W,10.00,252.98,180117,,*3F
$GPRMC,021018,A,4821.3450,N,430.6100,W,10.00,252.98,180117,,*33
$GPRMC,021018,A,4821.3433,N,430.6181,W,10.00,252.98,180117,,*3F
$GPRMC,021018,A,4821.3417,N,430.6263,W,10.00,252.98,180117,,*36
$GPRMC,021018,A,4821.3400,N,430.6344,W,10.00,252.98,180117,,*34
$GPRMC,021018,A,4821.3383,N,430.6426,W,10.00,252.98,180117,,*3B
$GPRMC,021018,A,4821.3367,N,430.6508,W,10.00,252.98,180117,,*3C
$GPRMC,021018,A,4821.3350,N,430.6589,W,10.00,252.98,180117,,*31
$GPRMC,021018,A,4821.3333,N,430.6671,W,10.00,252.98,180117,,*30
$GPRMC,021018,A,4821.3317,N,430.6752,W,10.00,252.98,180117,,*36
$GPRMC,021018,A,4821.3300,N,430.6834,W,10.00,252.98,180117,,*3F
$GPRMC,021018,A,4821.3283,N,430.6915,W,10.00,252.98,180117,,*37
$GPRMC,021018,A,4821.3267,N,430.6997,W,10.00,252.98,180117,,*37
$GPRMC,021018,A,4821.3250,N,430.7079,W,10.00,252.98,180117,,*3B
$GPRMC,021018,A,4821.3233,N,430.7160,W,10.00,252.98,180117,,*37
$GPRMC,021018,A,4821.3217,N,430.7242,W,10.00,252.98,180117,,*32
$GPRMC,021018,A,4821.3200,N,430.7323,W,10.00,252.98,180117,,*32
$GPRMC,021018,A,4821.3183,N,430.7405,W,10.00,252.98,180117,,*39
$GPRMC,021018,A,4821.3167,N,430.7487,W,10.00,252.98,180117,,*39
$GPRMC,021018,A,4821.3150,N,430.7568,W,10.00,252.98,180117,,*3D
$GPRMC,021018,A,4821.3149,N,430.7575,W,10.00,252.75,180117,,*3A
$GPRMC,021018,A,4821.3141,N,430.7612,W,10.00,252.75,180117,,*30
$GPRMC,021018,A,4821.3133,N,430.7650,W,10.00,252.75,180117,,*33
$GPRMC,021018,A,4821.3125,N,430.7688,W,10.00,252.75,180117,,*31
$GPRMC,021018,A,4821.3118,N,430.7726,W,10.00,252.75,180117,,*3A
$GPRMC,021018,A,4821.3110,N,430.7763,W,10.00,252.75,180117,,*33
$GPRMC,021018,A,4821.3102,N,430.7801,W,10.00,252.75,180117,,*3B
$GPRMC,021018,A,4821.3094,N,430.7839,W,10.00,252.75,180117,,*3E
$GPRMC,021018,A,4821.3086,N,430.7877,W,10.00,252.75,180117,,*37
$GPRMC,021018,A,4821.3079,N,430.7914,W,10.00,252.75,180117,,*33
$GPRMC,021018,A,4821.3071,N,430.7952,W,10.00,252.75,180117,,*39
$GPRMC,021018,A,4821.3063,N,430.7990,W,10.00,252.75,180117,,*34
$GPRMC,021018,A,4821.3055,N,430.8028,W,10.00,252.75,180117,,*34
$GPRMC,021018,A,4821.3047,N,430.8065,W,10.00,252.75,180117,,*3E
$GPRMC,021018,A,4821.3039,N,430.8103,W,10.00,252.75,180117,,*36
$GPRMC,021018,A,4821.3032,N,430.8141,W,10.00,252.75,180117,,*3B
$GPRMC,021018,A,4821.3024,N,430.8179,W,10.00,252.75,180117,,*37
$GPRMC,021018,A,4821.3016,N,430.8216,W,10.00,252.75,180117,,*3C
$GPRMC,021018,A,4821.3008,N,430.8254,W,10.00,252.75,180117,,*35
$GPRMC,021018,A,4821.3000,N,430.8292,W,10.00,252.75,180117,,*37
$GPRMC,021018,A,4821.2993,N,430.8330,W,10.00,252.75,180117,,*3C
$GPRMC,021018,A,4821.2985,N,430.8367,W,10.00,252.75,180117,,*39
$GPRMC,021018,A,4821.2977,N,430.8405,W,10.00,252.75,180117,,*37
$GPRMC,021018,A,4821.2969,N,430.8443,W,10.00,252.75,180117,,*3A
$GPRMC,021018,A,4821.2961,N,430.8481,W,10.00,252.75,180117,,*3C
$GPRMC,021018,A,4821.2953,N,430.8518,W,10.00,252.75,180117,,*3C
$GPRMC,021018,A,4821.2946,N,430.8556,W,10.00,252.75,180117,,*32
$GPRMC,021018,A,4821.2938,N,430.8594,W,10.00,252.75,180117,,*35
$GPRMC,021018,A,4821.2930,N,430.8632,W,10.00,252.75,180117,,*32
$GPRMC,021018,A,4821.2922,N,430.8669,W,10.00,252.75,180117,,*3F
$GPRMC,021018,A,4821.2914,N,430.8707,W,10.00,252.75,180117,,*33
$GPRMC,021018,A,4821.2907,N,430.8745,W,10.00,252.75,180117,,*37
$GPRMC,021018,A,4821.2899,N,430.8783,W,10.00,252.75,180117,,*3B
$GPRMC,021018,A,4821.2891,N,430.8820,W,10.00,252.75,180117,,*35
$GPRMC,021018,A,4821.2883,N,430.8858,W,10.00,252.75,180117,,*39
$GPRMC,021018,A,4821.2875,N,430.8896,W,10.00,252.75,180117,,*32
$GPRMC,021018,A,4821.2867,N,430.8934,W,10.00,252.75,180117,,*38
$GPRMC,021018,A,4821.2860,N,430.8971,W,10.00,252.75,180117,,*3E
$GPRMC,021018,A,4821.2852,N,430.9009,W,10.00,252.75,180117,,*38
$GPRMC,021018,A,4821.2844,N,430.9047,W,10.00,252.75,180117,,*35
$GPRMC,021018,A,4821.2836,N,430.9085,W,10.00,252.75,180117,,*3E
$GPRMC,021018,A,4821.2828,N,430.9122,W,10.00,252.75,180117,,*3D
$GPRMC,021018,A,4821.2821,N,430.9160,W,10.00,252.75,180117,,*32
$GPRMC,021018,A,4821.2813,N,430.9198,W,10.00,252.75,180117,,*34
$GPRMC,021018,A,4821.2805,N,430.9236,W,10.00,252.75,180117,,*34
$GPRMC,021018,A,4821.2797,N,430.9274,W,10.00,252.75,180117,,*36
$GPRMC,021018,A,4821.2789,N,430.9311,W,10.00,252.75,180117,,*3B
$GPRMC,021018,A,4821.2781,N,430.9349,W,10.00,252.75,180117,,*3E
$GPRMC,021018,A,4821.2774,N,430.9387,W,10.00,252.75,180117,,*36
$GPRMC,021018,A,4821.2766,N,430.9425,W,10.00,252.75,180117,,*3A
$GPRMC,021018,A,4821.2758,N,430.9462,W,10.00,252.75,180117,,*34
$GPRMC,021018,A,4821.2750,N,430.9500,W,10.00,252.75,180117,,*39
$GPRMC,021018,A,4821.2742,N,430.9538,W,10.00,252.75,180117,,*31
$GPRMC,021018,A,4821.2735,N,430.9576,W,10.00,252.75,180117,,*3B
$GPRMC,021018,A,4821.2727,N,430.9613,W,10.00,252.75,180117,,*38
$GPRMC,021018,A,4821.2719,N,430.9651,W,10.00,252.75,180117,,*33
$GPRMC,021018,A,4821.2711,N,430.9689,W,10.00,252.75,180117,,*3E
$GPRMC,021018,A,4821.2703,N,430.9727,W,10.00,252.75,180117,,*38
$GPRMC,021018,A,4821.2696,N,430.9764,W,10.00,252.75,180117,,*32
$GPRMC,021018,A,4821.2688,N,430.9802,W,10.00,252.75,180117,,*32
$GPRMC,021018,A,4821.2680,N,430.9840,W,10.00,252.75,180117,,*3C
$GPRMC,021018,A,4821.2672,N,430.9878,W,10.00,252.75,180117,,*3A
$GPRMC,021018,A,4821.2664,N,430.9915,W,10.00,252.75,180117,,*37
$GPRMC,021018,A,4821.2656,N,430.9953,W,10.00,252.75,180117,,*34
$GPRMC,021018,A,4821.2649,N,430.9991,W,10.00,252.75,180117,,*34
$GPRMC,021018,A,4821.2641,N,431.0029,W,10.00,252.75,180117,,*3E
$GPRMC,021018,A,4821.2633,N,431.0066,W,10.00,252.75,180117,,*30
$GPRMC,021018,A,4821.2625,N,431.0104,W,10.00,252.75,180117,,*32
$GPRMC,021018,A,4821.2617,N,431.0142,W,10.00,252.75,180117,,*31
$GPRMC,021018,A,4821.2610,N,431.0180,W,10.00,252.75,180117,,*38
$GPRMC,021018,A,4821.2602,N,431.0217,W,10.00,252.75,180117,,*36
$GPRMC,021018,A,4821.2594,N,431.0255,W,10.00,252.75,180117,,*3C
$GPRMC,021018,A,4821.2586,N,431.0293,W,10.00,252.75,180117,,*35
$GPRMC,021018,A,4821.2578,N,431.0331,W,10.00,252.75,180117,,*3D
$GPRMC,021018,A,4821.2570,N,431.0368,W,10.00,252.75,180117,,*39
$GPRMC,021018,A,4821.2563,N,431.0406,W,10.00,252.75,180117,,*34
$GPRMC,021018,A,4821.2555,N,431.0444,W,10.00,252.75,180117,,*37
$GPRMC,021018,A,4821.2547,N,431.0482,W,10.00,252.75,180117,,*3E
$GPRMC,021018,A,4821.2539,N,431.0519,W,10.00,252.75,180117,,*34
$GPRMC,021018,A,4821.2531,N,431.0557,W,10.00,252.75,180117,,*36
$GPRMC,021018,A,4821.2524,N,431.0595,W,10.00,252.75,180117,,*3C
$GPRMC,021018,A,4821.2516,N,431.0633,W,10.00,252.75,180117,,*32
$GPRMC,021018,A,4821.2508,N,431.0670,W,10.00,252.75,180117,,*3A
$GPRMC,021018,A,4821.2500,N,431.0708,W,10.00,252.75,180117,,*3C
$GPRMC,021018,A,4821.2492,N,431.0746,W,10.00,252.75,180117,,*3C
$GPRMC,021018,A,4821.2484,N,431.0784,W,10.00,252.75,180117,,*35
$GPRMC,021018,A,4821.2477,N,431.0821,W,10.00,252.75,180117,,*39
$GPRMC,021018,A,4821.2469,N,431.0859,W,10.00,252.75,180117,,*39
$GPRMC,021018,A,4821.2461,N,431.0897,W,10.00,252.75,180117,,*33
$GPRMC,021018,A,4821.2453,N,431.0935,W,10.00,252.75,180117,,*3B
$GPRMC,021018,A,4821.2445,N,431.0972,W,10.00,252.75,180117,,*3F
$GPRMC,021018,A,4821.2438,N,431.1010,W,10.00,252.75,180117,,*39
$GPRMC,021018,A,4821.2430,N,431.1048,W,10.00,252.75,180117,,*3C
$GPRMC,021018,A,4821.2422,N,431.1086,W,10.00,252.75,180117,,*3D
$GPRMC,021018,A,4821.2414,N,431.1123,W,10.00,252.75,180117,,*36
$GPRMC,021018,A,4821.2406,N,431.1161,W,10.00,252.75,180117,,*33
$GPRMC,021018,A,4821.2398,N,431.1199,W,10.00,252.75,180117,,*34
$GPRMC,021018,A,4821.2391,N,431.1237,W,10.00,252.75,180117,,*3A
$GPRMC,021018,A,4821.2383,N,431.1274,W,10.00,252.75,180117,,*3E
$GPRMC,021018,A,4821.2375,N,431.1312,W,10.00,252.75,180117,,*36
$GPRMC,021018,A,4821.2367,N,431.1350,W,10.00,252.75,180117,,*33
$GPRMC,021018,A,4821.2359,N,431.1388,W,10.00,252.75,180117,,*3B
$GPRMC,021018,A,4821.2352,N,431.1425,W,10.00,252.75,180117,,*30
$GPRMC,021018,A,4821.2344,N,431.1463,W,10.00,252.75,180117,,*35
$GPRMC,021018,A,4821.2336,N,431.1501,W,10.00,252.75,180117,,*35
$GPRMC,021018,A,4821.2328,N,431.1539,W,10.00,252.75,180117,,*31
$GPRMC,021018,A,4821.2320,N,431.1577,W,10.00,252.75,180117,,*33
$GPRMC,021018,A,4821.2312,N,431.1614,W,10.00,252.75,180117,,*34
$GPRMC,021018,A,4821.2305,N,431.1652,W,10.00,252.75,180117,,*30
$GPRMC,021018,A,4821.2297,N,431.1690,W,10.00,252.75,180117,,*34
$GPRMC,021018,A,4821.2289,N,431.1728,W,10.00,252.75,180117,,*39
$GPRMC,021018,A,4821.2281,N,431.1765,W,10.00,252.75,180117,,*38
$GPRMC,021018,A,4821.2273,N,431.1803,W,10.00,252.75,180117,,*3A
$GPRMC,021018,A,4821.2266,N,431.1841,W,10.00,252.75,180117,,*38
$GPRMC,021018,A,4821.2258,N,431.1879,W,10.00,252.75,180117,,*3E
$GPRMC,021018,A,4821.2250,N,431.1916,W,10.00,252.75,180117,,*3E
$GPRMC,021018,A,4821.2242,N,431.1954,W,10.00,252.75,180117,,*3B
$GPRMC,021018,A,4821.2234,N,431.1992,W,10.00,252.75,180117,,*30
$GPRMC,021018,A,4821.2226,N,431.2030,W,10.00,252.75,180117,,*31
$GPRMC,021018,A,4821.2219,N,431.2067,W,10.00,252.75,180117,,*3F
$GPRMC,021018,A,4821.2211,N,431.2105,W,10.00,252.75,180117,,*32
$GPRMC,021018,A,4821.2203,N,431.2143,W,10.00,252.75,180117,,*33
$GPRMC,021018,A,4821.2195,N,431.2181,W,10.00,252.75,180117,,*31
$GPRMC,021018,A,4821.2187,N,431.2218,W,10.00,252.75,180117,,*31
$GPRMC,021018,A,4821.2180,N,431.2256,W,10.00,252.75,180117,,*3C
$GPRMC,021018,A,4821.2172,N,431.2294,W,10.00,252.75,180117,,*3F
$GPRMC,021018,A,4821.2164,N,431.2332,W,10.00,252.75,180117,,*35
$GPRMC,021018,A,4821.2156,N,431.2369,W,10.00,252.75,180117,,*3A
$GPRMC,021018,A,4821.2148,N,431.2407,W,10.00,252.75,180117,,*3A
$GPRMC,021018,A,4821.2140,N,431.2445,W,10.00,252.75,180117,,*34
$GPRMC,021018,A,4821.2133,N,431.2483,W,10.00,252.75,180117,,*3A
$GPRMC,021018,A,4821.2125,N,431.2520,W,10.00,252.75,180117,,*35
$GPRMC,021018,A,4821.2117,N,431.2558,W,10.00,252.75,180117,,*3B
$GPRMC,021018,A,4821.2109,N,431.2596,W,10.00,252.75,180117,,*36
$GPRMC,021018,A,4821.2101,N,431.2634,W,10.00,252.75,180117,,*35
$GPRMC,021018,A,4821.2094,N,431.2671,W,10.00,252.75,180117,,*39
$GPRMC,021018,A,4821.2086,N,431.2709,W,10.00,252.75,180117,,*34
$GPRMC,021018,A,4821.2078,N,431.2747,W,10.00,252.75,180117,,*3F
$GPRMC,021018,A,4821.2070,N,431.2785,W,10.00,252.75,180117,,*39
$GPRMC,021018,A,4821.2062,N,431.2822,W,10.00,252.75,180117,,*38
$GPRMC,021018,A,4821.2054,N,431.2860,W,10.00,252.75,180117,,*3B
$GPRMC,021018,A,4821.2047,N,431.2898,W,10.00,252.75,180117,,*3E
$GPRMC,021018,A,4821.2039,N,431.2936,W,10.00,252.75,180117,,*32
$GPRMC,021018,A,4821.2031,N,431.2973,W,10.00,252.75,180117,,*3B
$GPRMC,021018,A,4821.2023,N,431.3011,W,10.00,252.75,180117,,*34
$GPRMC,021018,A,4821.2015,N,431.3049,W,10.00,252.75,180117,,*3C
$GPRMC,021018,A,4821.2008,N,431.3087,W,10.00,252.75,180117,,*32
$GPRMC,021018,A,4821.2000,N,431.3124,W,10.00,252.75,180117,,*32
$GPRMC,021018,A,4821.1992,N,431.3162,W,10.00,252.75,180117,,*31
$GPRMC,021018,A,4821.1984,N,431.3200,W,10.00,252.75,180117,,*31
$GPRMC,021018,A,4821.1976,N,431.3238,W,10.00,252.75,180117,,*37
$GPRMC,021018,A,4821.1968,N,431.3275,W,10.00,252.75,180117,,*31
$GPRMC,021018,A,4821.1961,N,431.3313,W,10.00,252.75,180117,,*39
$GPRMC,021018,A,4821.1953,N,431.3351,W,10.00,252.75,180117,,*3E
$GPRMC,021018,A,4821.1945,N,431.3389,W,10.00,252.75,180117,,*3C
$GPRMC,021018,A,4821.1937,N,431.3426,W,10.00,252.75,180117,,*3B
$GPRMC,021018,A,4821.1929,N,431.3464,W,10.00,252.75,180117,,*32
$GPRMC,021018,A,4821.1922,N,431.3502,W,10.00,252.75,180117,,*38
$GPRMC,021018,A,4821.1914,N,431.3540,W,10.00,252.75,180117,,*3B
$GPRMC,021018,A,4821.1906,N,431.3577,W,10.00,252.75,180117,,*3C
$GPRMC,021018,A,4821.1898,N,431.3615,W,10.00,252.75,180117,,*3D
$GPRMC,021018,A,4821.1890,N,431.3653,W,10.00,252.75,180117,,*37
$GPRMC,021018,A,4821.1882,N,431.3691,W,10.00,252.75,180117,,*3A
$GPRMC,021018,A,4821.1875,N,431.3728,W,10.00,252.75,180117,,*31
$GPRMC,021018,A,4821.1867,N,431.3766,W,10.00,252.75,180117,,*38
$GPRMC,021018,A,4821.1859,N,431.3804,W,10.00,252.75,180117,,*3E
$GPRMC,021018,A,4821.1851,N,431.3842,W,10.00,252.75,180117,,*34
$GPRMC,021018,A,4821.1843,N,431.3879,W,10.00,252.75,180117,,*3F
$GPRMC,021018,A,4821.1836,N,431.3917,W,10.00,252.75,180117,,*34
$GPRMC,021018,A,4821.1828,N,431.3955,W,10.00,252.75,180117,,*3D
$GPRMC,021018,A,4821.1820,N,431.3993,W,10.00,252.75,180117,,*3F
$GPRMC,021018,A,4821.1812,N,431.4030,W,10.00,252.75,180117,,*39
$GPRMC,021018,A,4821.1804,N,431.4068,W,10.00,252.75,180117,,*33
$GPRMC,021018,A,4821.1796,N,431.4106,W,10.00,252.75,180117,,*3E
$GPRMC,021018,A,4821.1789,N,431.4144,W,10.00,252.75,180117,,*36
$GPRMC,021018,A,4821.1781,N,431.4181,W,10.00,252.75,180117,,*37
$GPRMC,021018,A,4821.1773,N,431.4219,W,10.00,252.75,180117,,*38
$GPRMC,021018,A,4821.1765,N,431.4257,W,10.00,252.75,180117,,*35
$GPRMC,021018,A,4821.1757,N,431.4295,W,10.00,252.75,180117,,*3A
$GPRMC,021018,A,4821.1750,N,431.4332,W,10.00,252.75,180117,,*31
$GPRMC,021018,A,4821.1742,N,431.4370,W,10.00,252.75,180117,,*34
$GPRMC,021018,A,4821.1734,N,431.4408,W,10.00,252.75,180117,,*3D
$GPRMC,021018,A,4821.1726,N,431.4446,W,10.00,252.75,180117,,*34
$GPRMC,021018,A,4821.1718,N,431.4483,W,10.00,252.75,180117,,*30
$GPRMC,021018,A,4821.1710,N,431.4521,W,10.00,252.75,180117,,*31
$GPRMC,021018,A,4821.1703,N,431.4559,W,10.00,252.75,180117,,*3C
$GPRMC,021018,A,4821.1695,N,431.4597,W,10.00,252.75,180117,,*30
$GPRMC,021018,A,4821.1687,N,431.4634,W,10.00,252.75,180117,,*39
$GPRMC,021018,A,4821.1679,N,431.4672,W,10.00,252.75,180117,,*3A
$GPRMC,021018,A,4821.1671,N,431.4710,W,10.00,252.75,180117,,*37
$GPRMC,021018,A,4821.1664,N,431.4748,W,10.00,252.75,180117,,*3E
$GPRMC,021018,A,4821.1656,N,431.4785,W,10.00,252.75,180117,,*3E
$GPRMC,021018,A,4821.1648,N,431.4823,W,10.00,252.75,180117,,*32
$GPRMC,021018,A,4821.1640,N,431.4861,W,10.00,252.75,180117,,*3C
$GPRMC,021018,A,4821.1632,N,431.4899,W,10.00,252.75,180117,,*3E
$GPRMC,021018,A,4821.1624,N,431.4936,W,10.00,252.75,180117,,*3D
$GPRMC,021018,A,4821.1617,N,431.4974,W,10.00,252.75,180117,,*3B
$GPRMC,021018,A,4821.1609,N,431.5012,W,10.00,252.75,180117,,*3C
$GPRMC,021018,A,4821.1601,N,431.5050,W,10.00,252.75,180117,,*32
$GPRMC,021018,A,4821.1593,N,431.5087,W,10.00,252.75,180117,,*30
$GPRMC,021018,A,4821.1585,N,431.5125,W,10.00,252.75,180117,,*3E
$GPRMC,021018,A,4821.1578,N,431.5163,W,10.00,252.75,180117,,*3E
$GPRMC,021018,A,4821.1570,N,431.5201,W,10.00,252.75,180117,,*31
$GPRMC,021018,A,4821.1562,N,431.5238,W,10.00,252.75,180117,,*38
$GPRMC,021018,A,4821.1554,N,431.5276,W,10.00,252.75,180117,,*37
$GPRMC,021018,A,4821.1546,N,431.5314,W,10.00,252.75,180117,,*31
$GPRMC,021018,A,4821.1538,N,431.5352,W,10.00,252.75,180117,,*3A
$GPRMC,021018,A,4821.1531,N,431.5389,W,10.00,252.75,180117,,*35
$GPRMC,021018,A,4821.1523,N,431.5427,W,10.00,252.75,180117,,*35
$GPRMC,021018,A,4821.1515,N,431.5465,W,10.00,252.75,180117,,*36
$GPRMC,021018,A,4821.1507,N,431.5503,W,10.00,252.75,180117,,*34
$GPRMC,021018,A,4821.1499,N,431.5541,W,10.00,252.75,180117,,*34
$GPRMC,021018,A,4821.1491,N,431.5578,W,10.00,252.75,180117,,*36
$GPRMC,021018,A,4821.1484,N,431.5616,W,10.00,252.75,180117,,*39
$GPRMC,021018,A,4821.1476,N,431.5654,W,10.00,252.75,180117,,*32
$GPRMC,021018,A,4821.1468,N,431.5692,W,10.00,252.75,180117,,*37
$GPRMC,021018,A,4821.1460,N,431.5729,W,10.00,252.75,180117,,*3E
$GPRMC,021018,A,4821.1452,N,431.5767,W,10.00,252.75,180117,,*35
$GPRMC,021018,A,4821.1445,N,431.5805,W,10.00,252.75,180117,,*38
$GPRMC,021018,A,4821.1437,N,431.5843,W,10.00,252.75,180117,,*3F
$GPRMC,021018,A,4821.1429,N,431.5880,W,10.00,252.75,180117,,*3F
$GPRMC,021018,A,4821.1421,N,431.5918,W,10.00,252.75,180117,,*37
$GPRMC,021018,A,4821.1413,N,431.5956,W,10.00,252.75,180117,,*3C
$GPRMC,021018,A,4821.1405,N,431.5994,W,10.00,252.75,180117,,*35
$GPRMC,021018,A,4821.1398,N,431.6031,W,10.00,252.75,180117,,*33
$GPRMC,021018,A,4821.1390,N,431.6069,W,10.00,252.75,180117,,*36
$GPRMC,021018,A,4821.1382,N,431.6107,W,10.00,252.75,180117,,*3C
$GPRMC,021018,A,4821.1374,N,431.6145,W,10.00,252.75,180117,,*33
$GPRMC,021018,A,4821.1366,N,431.6182,W,10.00,252.75,180117,,*3B
$GPRMC,021018,A,4821.1359,N,431.6220,W,10.00,252.75,180117,,*3C
$GPRMC,021018,A,4821.1351,N,431.6258,W,10.00,252.75,180117,,*3B
$GPRMC,021018,A,4821.1343,N,431.6296,W,10.00,252.75,180117,,*3A
$GPRMC,021018,A,4821.1335,N,431.6333,W,10.00,252.75,180117,,*35
$GPRMC,021018,A,4821.1327,N,431.6371,W,10.00,252.75,180117,,*30
$GPRMC,021018,A,4821.1319,N,431.6409,W,10.00,252.75,180117,,*35
$GPRMC,021018,A,4821.1312,N,431.6447,W,10.00,252.75,180117,,*34
$GPRMC,021018,A,4821.1304,N,431.6484,W,10.00,252.75,180117,,*3C
$GPRMC,021018,A,4821.1296,N,431.6522,W,10.00,252.75,180117,,*3B
$GPRMC,021018,A,4821.1288,N,431.6560,W,10.00,252.75,180117,,*32
$GPRMC,021018,A,4821.1280,N,431.6598,W,10.00,252.75,180117,,*3D
$GPRMC,021018,A,4821.1273,N,431.6635,W,10.00,252.75,180117,,*35
$GPRMC,021018,A,4821.1265,N,431.6673,W,10.00,252.75,180117,,*30
$GPRMC,021018,A,4821.1257,N,431.6711,W,10.00,252.75,180117,,*34
$GPRMC,021018,A,4821.1249,N,431.6749,W,10.00,252.75,180117,,*36
$GPRMC,021018,A,4821.1241,N,431.6786,W,10.00,252.75,180117,,*3D
$GPRMC,021018,A,4821.1233,N,431.6824,W,10.00,252.75,180117,,*3F
$GPRMC,021018,A,4821.1226,N,431.6862,W,10.00,252.75,180117,,*39
$GPRMC,021018,A,4821.1218,N,431.6900,W,10.00,252.75,180117,,*31
$GPRMC,021018,A,4821.1210,N,431.6937,W,10.00,252.75,180117,,*3D
$GPRMC,021018,A,4821.1202,N,431.6975,W,10.00,252.75,180117,,*38
$GPRMC,021018,A,4821.1194,N,431.7013,W,10.00,252.75,180117,,*3C
$GPRMC,021018,A,4821.1187,N,431.7051,W,10.00,252.75,180117,,*38
$GPRMC,021018,A,4821.1179,N,431.7088,W,10.00,252.75,180117,,*3D
$GPRMC,021018,A,4821.1171,N,431.7126,W,10.00,252.75,180117,,*30
$GPRMC,021018,A,4821.1163,N,431.7164,W,10.00,252.75,180117,,*35
$GPRMC,021018,A,4821.1155,N,431.7202,W,10.00,252.75,180117,,*33
$GPRMC,021018,A,4821.1147,N,431.7239,W,10.00,252.75,180117,,*38
$GPRMC,021018,A,4821.1140,N,431.7277,W,10.00,252.75,180117,,*35
$GPRMC,021018,A,4821.1132,N,431.7315,W,10.00,252.75,180117,,*35
$GPRMC,021018,A,4821.1124,N,431.7353,W,10.00,252.75,180117,,*30
$GPRMC,021018,A,4821.1116,N,431.7390,W,10.00,252.75,180117,,*3E
$GPRMC,021018,A,4821.1108,N,431.7428,W,10.00,252.75,180117,,*35
$GPRMC,021018,A,4821.1100,N,431.7466,W,10.00,252.75,180117,,*37
$GPRMC,021018,A,4821.1093,N,431.7504,W,10.00,252.75,180117,,*39
$GPRMC,021018,A,4821.1085,N,431.7541,W,10.00,252.75,180117,,*3F
$GPRMC,021018,A,4821.1077,N,431.7579,W,10.00,252.75,180117,,*39
$GPRMC,021018,A,4821.1069,N,431.7617,W,10.00,252.75,180117,,*3D
$GPRMC,021018,A,4821.1061,N,431.7655,W,10.00,252.75,180117,,*33
$GPRMC,021018,A,4821.1054,N,431.7692,W,10.00,252.75,180117,,*3E
$GPRMC,021018,A,4821.1046,N,431.7730,W,10.00,252.75,180117,,*34
$GPRMC,021018,A,4821.1038,N,431.7768,W,10.00,252.75,180117,,*30
$GPRMC,021018,A,4821.1030,N,431.7806,W,10.00,252.75,180117,,*3F
$GPRMC,021018,A,4821.1022,N,431.7843,W,10.00,252.75,180117,,*3D
$GPRMC,021018,A,4821.1014,N,431.7881,W,10.00,252.75,180117,,*36
$GPRMC,021018,A,4821.1007,N,431.7919,W,10.00,252.75,180117,,*34
$GPRMC,021018,A,4821.0999,N,431.7957,W,10.00,252.75,180117,,*31
$GPRMC,021018,A,4821.0991,N,431.7994,W,10.00,252.75,180117,,*36
$GPRMC,021018,A,4821.0983,N,431.8032,W,10.00,252.75,180117,,*3F
$GPRMC,021018,A,4821.0975,N,431.8070,W,10.00,252.75,180117,,*30
$GPRMC,021018,A,4821.0968,N,431.8108,W,10.00,252.75,180117,,*32
$GPRMC,021018,A,4821.0960,N,431.8145,W,10.00,252.75,180117,,*33
$GPRMC,021018,A,4821.0952,N,431.8183,W,10.00,252.75,180117,,*38
$GPRMC,021018,A,4821.0944,N,431.8221,W,10.00,252.75,180117,,*34
$GPRMC,021018,A,4821.0936,N,431.8259,W,10.00,252.75,180117,,*3E
$GPRMC,021018,A,4821.0928,N,431.8296,W,10.00,252.75,180117,,*32
$GPRMC,021018,A,4821.0921,N,431.8334,W,10.00,252.75,180117,,*32
$GPRMC,021018,A,4821.0913,N,431.8372,W,10.00,252.75,180117,,*31
$GPRMC,021018,A,4821.0905,N,431.8410,W,10.00,252.75,180117,,*35
$GPRMC,021018,A,4821.0897,N,431.8447,W,10.00,252.75,180117,,*3D
$GPRMC,021018,A,4821.0889,N,431.8485,W,10.00,252.75,180117,,*3C
$GPRMC,021018,A,4821.0881,N,431.8523,W,10.00,252.75,180117,,*39
$GPRMC,021018,A,4821.0874,N,431.8561,W,10.00,252.75,180117,,*35
$GPRMC,021018,A,4821.0866,N,431.8598,W,10.00,252.75,180117,,*30
$GPRMC,021018,A,4821.0858,N,431.8636,W,10.00,252.75,180117,,*3A
$GPRMC,021018,A,4821.0850,N,431.8674,W,10.00,252.75,180117,,*34
$GPRMC,021018,A,4821.0842,N,431.8712,W,10.00,252.75,180117,,*36
$GPRMC,021018,A,4821.0835,N,431.8749,W,10.00,252.75,180117,,*38
$GPRMC,021018,A,4821.0827,N,431.8787,W,10.00,252.75,180117,,*39
$GPRMC,021018,A,4821.0819,N,431.8825,W,10.00,252.75,180117,,*33
$GPRMC,021018,A,4821.0811,N,431.8863,W,10.00,252.75,180117,,*39
$GPRMC,021018,A,4821.0803,N,431.8900,W,10.00,252.75,180117,,*3E
$GPRMC,021018,A,4821.0795,N,431.8938,W,10.00,252.75,180117,,*35
$GPRMC,021018,A,4821.0788,N,431.8976,W,10.00,252.75,180117,,*33
$GPRMC,021018,A,4821.0780,N,431.9014,W,10.00,252.75,180117,,*37
$GPRMC,021018,A,4821.0772,N,431.9051,W,10.00,252.75,180117,,*3B
$GPRMC,021018,A,4821.0764,N,431.9089,W,10.00,252.75,180117,,*39
$GPRMC,021018,A,4821.0756,N,431.9127,W,10.00,252.75,180117,,*3D
$GPRMC,021018,A,4821.0749,N,431.9165,W,10.00,252.75,180117,,*35
$GPRMC,021018,A,4821.0741,N,431.9202,W,10.00,252.75,180117,,*3F
$GPRMC,021018,A,4821.0733,N,431.9240,W,10.00,252.75,180117,,*3C
$GPRMC,021018,A,4821.0725,N,431.9278,W,10.00,252.75,180117,,*30
$GPRMC,021018,A,4821.0717,N,431.9316,W,10.00,252.75,180117,,*38
$GPRMC,021018,A,4821.0709,N,431.9353,W,10.00,252.75,180117,,*36
$GPRMC,021018,A,4821.0702,N,431.9391,W,10.00,252.75,180117,,*33
$GPRMC,021018,A,4821.0694,N,431.9429,W,10.00,252.75,180117,,*39
$GPRMC,021018,A,4821.0686,N,431.9467,W,10.00,252.75,180117,,*30
$GPRMC,021018,A,4821.0678,N,431.9504,W,10.00,252.75,180117,,*35
$GPRMC,021018,A,4821.0670,N,431.9542,W,10.00,252.75,180117,,*3F
$GPRMC,021018,A,4821.0662,N,431.9580,W,10.00,252.75,180117,,*32
$GPRMC,021018,A,4821.0655,N,431.9618,W,10.00,252.75,180117,,*34
$GPRMC,021018,A,4821.0647,N,431.9655,W,10.00,252.75,180117,,*3E
$GPRMC,021018,A,4821.0639,N,431.9693,W,10.00,252.75,180117,,*3D
$GPRMC,021018,A,4821.0631,N,431.9731,W,10.00,252.75,180117,,*3C
$GPRMC,021018,A,4821.0623,N,431.9769,W,10.00,252.75,180117,,*32
$GPRMC,021018,A,4821.0616,N,431.9806,W,10.00,252.75,180117,,*32
$GPRMC,021018,A,4821.0608,N,431.9844,W,10.00,252.75,180117,,*3B
$GPRMC,021018,A,4821.0600,N,431.9882,W,10.00,252.75,180117,,*39
$GPRMC,021018,A,4821.0592,N,431.9920,W,10.00,252.75,180117,,*38
$GPRMC,021018,A,4821.0584,N,431.9957,W,10.00,252.75,180117,,*3F
$GPRMC,021018,A,4821.0576,N,431.9995,W,10.00,252.75,180117,,*3C
$GPRMC,021018,A,4821.0569,N,432.0033,W,10.00,252.75,180117,,*3D
$GPRMC,021018,A,4821.0561,N,432.0071,W,10.00,252.75,180117,,*33
$GPRMC,021018,A,4821.0553,N,432.0108,W,10.00,252.75,180117,,*3D
$GPRMC,021018,A,4821.0545,N,432.0146,W,10.00,252.75,180117,,*30
$GPRMC,021018,A,4821.0537,N,432.0184,W,10.00,252.75,180117,,*3B
$GPRMC,021018,A,4821.0529,N,432.0222,W,10.00,252.75,180117,,*3B
$GPRMC,021018,A,4821.0522,N,432.0259,W,10.00,252.75,180117,,*3C
$GPRMC,021018,A,4821.0514,N,432.0297,W,10.00,252.75,180117,,*3B
$GPRMC,021018,A,4821.0506,N,432.0335,W,10.00,252.75,180117,,*31
$GPRMC,021018,A,4821.0498,N,432.0373,W,10.00,252.75,180117,,*35
$GPRMC,021018,A,4821.0490,N,432.0410,W,10.00,252.75,180117,,*3F
$GPRMC,021018,A,4821.0483,N,432.0448,W,10.00,252.75,180117,,*30
$GPRMC,021018,A,4821.0475,N,432.0486,W,10.00,252.75,180117,,*3B
$GPRMC,021018,A,4821.0467,N,432.0524,W,10.00,252.75,180117,,*31
$GPRMC,021018,A,4821.0459,N,432.0561,W,10.00,252.75,180117,,*3D
$GPRMC,021018,A,4821.0451,N,432.0599,W,10.00,252.75,180117,,*32
$GPRMC,021018,A,4821.0443,N,432.0637,W,10.00,252.75,180117,,*36
$GPRMC,021018,A,4821.0436,N,432.0675,W,10.00,252.75,180117,,*32
$GPRMC,021018,A,4821.0428,N,432.0712,W,10.00,252.75,180117,,*3D
$GPRMC,021018,A,4821.0420,N,432.0750,W,10.00,252.75,180117,,*33
$GPRMC,021018,A,4821.0412,N,432.0788,W,10.00,252.75,180117,,*37
$GPRMC,021018,A,4821.0404,N,432.0826,W,10.00,252.75,180117,,*3B
$GPRMC,021018,A,4821.0397,N,432.0863,W,10.00,252.75,180117,,*37
$GPRMC,021018,A,4821.0389,N,432.0901,W,10.00,252.75,180117,,*3D
$GPRMC,021018,A,4821.0381,N,432.0939,W,10.00,252.75,180117,,*3E
$GPRMC,021018,A,4821.0373,N,432.0976,W,10.00,252.75,180117,,*38
$GPRMC,021018,A,4821.0365,N,432.1014,W,10.00,252.75,180117,,*33
$GPRMC,021018,A,4821.0357,N,432.1052,W,10.00,252.75,180117,,*30
$GPRMC,021018,A,4821.0350,N,432.1090,W,10.00,252.75,180117,,*39
$GPRMC,021018,A,4821.0342,N,432.1127,W,10.00,252.75,180117,,*37
$GPRMC,021018,A,4821.0334,N,432.1165,W,10.00,252.75,180117,,*30
$GPRMC,021018,A,4821.0326,N,432.1203,W,10.00,252.75,180117,,*30
$GPRMC,021018,A,4821.0318,N,432.1241,W,10.00,252.75,180117,,*3B
$GPRMC,021018,A,4821.0310,N,432.1278,W,10.00,252.75,180117,,*39
$GPRMC,021018,A,4821.0303,N,432.1316,W,10.00,252.75,180117,,*32
$GPRMC,021018,A,4821.0295,N,432.1354,W,10.00,252.75,180117,,*3A
$GPRMC,021018,A,4821.0287,N,432.1392,W,10.00,252.75,180117,,*33
$GPRMC,021018,A,4821.0279,N,432.1429,W,10.00,252.75,180117,,*35
$GPRMC,021018,A,4821.0271,N,432.1467,W,10.00,252.75,180117,,*37
$GPRMC,021018,A,4821.0264,N,432.1505,W,10.00,252.75,180117,,*36
$GPRMC,021018,A,4821.0256,N,432.1543,W,10.00,252.75,180117,,*35
$GPRMC,021018,A,4821.0248,N,432.1580,W,10.00,252.75,180117,,*35
$GPRMC,021018,A,4821.0240,N,432.1618,W,10.00,252.75,180117,,*3F
$GPRMC,021018,A,4821.0232,N,432.1656,W,10.00,252.75,180117,,*30
$GPRMC,021018,A,4821.0224,N,432.1694,W,10.00,252.75,180117,,*39
$GPRMC,021018,A,4821.0217,N,432.1731,W,10.00,252.75,180117,,*37
$GPRMC,021018,A,4821.0209,N,432.1769,W,10.00,252.75,180117,,*35
$GPRMC,021018,A,4821.0201,N,432.1807,W,10.00,252.75,180117,,*3A
$GPRMC,021018,A,4821.0193,N,432.1845,W,10.00,252.75,180117,,*34
$GPRMC,021018,A,4821.0185,N,432.1882,W,10.00,252.75,180117,,*38
$GPRMC,021018,A,4821.0177,N,432.1920,W,10.00,252.75,180117,,*3C
$GPRMC,021018,A,4821.0170,N,432.1958,W,10.00,252.75,180117,,*34
$GPRMC,021018,A,4821.0162,N,432.1996,W,10.00,252.75,180117,,*35
$GPRMC,021018,A,4821.0154,N,432.2033,W,10.00,252.75,180117,,*35
$GPRMC,021018,A,4821.0146,N,432.2071,W,10.00,252.75,180117,,*30
$GPRMC,021018,A,4821.0138,N,432.2109,W,10.00,252.75,180117,,*37
$GPRMC,021018,A,4821.0131,N,432.2147,W,10.00,252.75,180117,,*34
$GPRMC,021018,A,4821.0123,N,432.2184,W,10.00,252.75,180117,,*38
$GPRMC,021018,A,4821.0115,N,432.2222,W,10.00,252.75,180117,,*32
$GPRMC,021018,A,4821.0107,N,432.2260,W,10.00,252.75,180117,,*37
$GPRMC,021018,A,4821.0099,N,432.2298,W,10.00,252.75,180117,,*36
$GPRMC,021018,A,4821.0091,N,432.2335,W,10.00,252.75,180117,,*38
$GPRMC,021018,A,4821.0084,N,432.2373,W,10.00,252.75,180117,,*3E
$GPRMC,021018,A,4821.0076,N,432.2411,W,10.00,252.75,180117,,*30
$GPRMC,021018,A,4821.0068,N,432.2449,W,10.00,252.75,180117,,*32
$GPRMC,021018,A,4821.0060,N,432.2486,W,10.00,252.75,180117,,*39
$GPRMC,021018,A,4821.0052,N,432.2524,W,10.00,252.75,180117,,*31
$GPRMC,021018,A,4821.0044,N,432.2562,W,10.00,252.75,180117,,*34
$GPRMC,021018,A,4821.0037,N,432.2600,W,10.00,252.75,180117,,*37
$GPRMC,021018,A,4821.0029,N,432.2637,W,10.00,252.75,180117,,*3C
$GPRMC,021018,A,4821.0021,N,432.2675,W,10.00,252.75,180117,,*32
$GPRMC,021018,A,4821.0013,N,432.2713,W,10.00,252.75,180117,,*32
$GPRMC,021018,A,4821.0005,N,432.2751,W,10.00,252.75,180117,,*33
$GPRMC,021018,A,4820.9998,N,432.2788,W,10.00,252.75,180117,,*32
$GPRMC,021018,A,4820.9990,N,432.2826,W,10.00,252.75,180117,,*31
$GPRMC,021018,A,4820.9982,N,432.2864,W,10.00,252.75,180117,,*34
$GPRMC,021018,A,4820.9974,N,432.2902,W,10.00,252.75,180117,,*3C
$GPRMC,021018,A,4820.9966,N,432.2939,W,10.00,252.75,180117,,*37
$GPRMC,021018,A,4820.9958,N,432.2977,W,10.00,252.75,180117,,*30
$GPRMC,021018,A,4820.9951,N,432.3015,W,10.00,252.75,180117,,*35
$GPRMC,021018,A,4820.9943,N,432.3053,W,10.00,252.75,180117,,*34
$GPRMC,021018,A,4820.9935,N,432.3090,W,10.00,252.75,180117,,*3A
$GPRMC,021018,A,4820.9927,N,432.3128,W,10.00,252.75,180117,,*3B
$GPRMC,021018,A,4820.9919,N,432.3166,W,10.00,252.75,180117,,*3C
$GPRMC,021018,A,4820.9911,N,432.3204,W,10.00,252.75,180117,,*33
$GPRMC,021018,A,4820.9904,N,432.3241,W,10.00,252.75,180117,,*36
$GPRMC,021018,A,4820.9896,N,432.3279,W,10.00,252.75,180117,,*37
$GPRMC,021018,A,4820.9888,N,432.3317,W,10.00,252.75,180117,,*31
$GPRMC,021018,A,4820.9880,N,432.3355,W,10.00,252.75,180117,,*3F
$GPRMC,021018,A,4820.9872,N,432.3392,W,10.00,252.75,180117,,*39
$GPRMC,021018,A,4820.9865,N,432.3430,W,10.00,252.75,180117,,*30
$GPRMC,021018,A,4820.9857,N,432.3468,W,10.00,252.75,180117,,*3C
$GPRMC,021018,A,4820.9849,N,432.3506,W,10.00,252.75,180117,,*3A
$GPRMC,021018,A,4820.9841,N,432.3543,W,10.00,252.75,180117,,*33
$GPRMC,021018,A,4820.9833,N,432.3581,W,10.00,252.75,180117,,*38
$GPRMC,021018,A,4820.9825,N,432.3619,W,10.00,252.75,180117,,*3D
$GPRMC,021018,A,4820.9818,N,432.3657,W,10.00,252.75,180117,,*39
$GPRMC,021018,A,4820.9810,N,432.3694,W,10.00,252.75,180117,,*3E
$GPRMC,021018,A,4820.9802,N,432.3732,W,10.00,252.75,180117,,*30
$GPRMC,021018,A,4820.9794,N,432.3770,W,10.00,252.75,180117,,*36
$GPRMC,021018,A,4820.9786,N,432.3808,W,10.00,252.75,180117,,*35
$GPRMC,021018,A,4820.9778,N,432.3845,W,10.00,252.75,180117,,*3D
$GPRMC,021018,A,4820.9771,N,432.3883,W,10.00,252.75,180117,,*3E
$GPRMC,021018,A,4820.9763,N,432.3921,W,10.00,252.75,180117,,*34
$GPRMC,021018,A,4820.9755,N,432.3959,W,10.00,252.75,180117,,*3E
$GPRMC,021018,A,4820.9747,N,432.3996,W,10.00,252.75,180117,,*3E
$GPRMC,021018,A,4820.9739,N,432.4034,W,10.00,252.75,180117,,*31
$GPRMC,021018,A,4820.9731,N,432.4072,W,10.00,252.75,180117,,*3B
$GPRMC,021018,A,4820.9724,N,432.4110,W,10.00,252.75,180117,,*3A
$GPRMC,021018,A,4820.9716,N,432.4147,W,10.00,252.75,180117,,*39
$GPRMC,021018,A,4820.9708,N,432.4185,W,10.00,252.75,180117,,*38
$GPRMC,021018,A,4820.9700,N,432.4223,W,10.00,252.75,180117,,*3F
$GPRMC,021018,A,4820.9692,N,432.4261,W,10.00,252.75,180117,,*33
$GPRMC,021018,A,4820.9685,N,432.4298,W,10.00,252.75,180117,,*33
$GPRMC,021018,A,4820.9677,N,432.4336,W,10.00,252.75,180117,,*3B
$GPRMC,021018,A,4820.9669,N,432.4374,W,10.00,252.75,180117,,*32
$GPRMC,021018,A,4820.9661,N,432.4412,W,10.00,252.75,180117,,*3D
$GPRMC,021018,A,4820.9653,N,432.4449,W,10.00,252.75,180117,,*32
$GPRMC,021018,A,4820.9645,N,432.4487,W,10.00,252.75,180117,,*37
$GPRMC,021018,A,4820.9638,N,432.4525,W,10.00,252.75,180117,,*34
$GPRMC,021018,A,4820.9630,N,432.4563,W,10.00,252.75,180117,,*3E
$GPRMC,021018,A,4820.9622,N,432.4600,W,10.00,252.75,180117,,*3B
$GPRMC,021018,A,4820.9614,N,432.4638,W,10.00,252.75,180117,,*35
$GPRMC,021018,A,4820.9606,N,432.4676,W,10.00,252.75,180117,,*3C
$GPRMC,021018,A,4820.9598,N,432.4714,W,10.00,252.75,180117,,*3D
$GPRMC,021018,A,4820.9591,N,432.4751,W,10.00,252.75,180117,,*35
$GPRMC,021018,A,4820.9583,N,432.4789,W,10.00,252.75,180117,,*33
$GPRMC,021018,A,4820.9575,N,432.4827,W,10.00,252.75,180117,,*31
$GPRMC,021018,A,4820.9567,N,432.4864,W,10.00,252.75,180117,,*35
$GPRMC,021018,A,4820.9559,N,432.4902,W,10.00,252.75,180117,,*39
$GPRMC,021018,A,4820.9552,N,432.4940,W,10.00,252.75,180117,,*34
$GPRMC,021018,A,4820.9544,N,432.4978,W,10.00,252.75,180117,,*38
$GPRMC,021018,A,4820.9536,N,432.5015,W,10.00,252.75,180117,,*3E
$GPRMC,021018,A,4820.9528,N,432.5053,W,10.00,252.75,180117,,*33
$GPRMC,021018,A,4820.9520,N,432.5091,W,10.00,252.75,180117,,*35
$GPRMC,021018,A,4820.9512,N,432.5129,W,10.00,252.75,180117,,*36
$GPRMC,021018,A,4820.9505,N,432.5166,W,10.00,252.75,180117,,*3B
$GPRMC,021018,A,4820.9497,N,432.5204,W,10.00,252.75,180117,,*36
$GPRMC,021018,A,4820.9489,N,432.5242,W,10.00,252.75,180117,,*3B
$GPRMC,021018,A,4820.9481,N,432.5280,W,10.00,252.75,180117,,*3D
$GPRMC,021018,A,4820.9473,N,432.5317,W,10.00,252.75,180117,,*3F
$GPRMC,021018,A,4820.9465,N,432.5355,W,10.00,252.75,180117,,*3E
$GPRMC,021018,A,4820.9458,N,432.5393,W,10.00,252.75,180117,,*3A
$GPRMC,021018,A,4820.9450,N,432.5431,W,10.00,252.75,180117,,*3D
$GPRMC,021018,A,4820.9442,N,432.5468,W,10.00,252.75,180117,,*32
$GPRMC,021018,A,4820.9434,N,432.5506,W,10.00,252.75,180117,,*3A
$GPRMC,021018,A,4820.9426,N,432.5544,W,10.00,252.75,180117,,*3F
$GPRMC,021018,A,4820.9418,N,432.5582,W,10.00,252.75,180117,,*38
$GPRMC,021018,A,4820.9411,N,432.5619,W,10.00,252.75,180117,,*30
$GPRMC,021018,A,4820.9403,N,432.5657,W,10.00,252.75,180117,,*39
$GPRMC,021018,A,4820.9395,N,432.5695,W,10.00,252.75,180117,,*3F
$GPRMC,021018,A,4820.9387,N,432.5733,W,10.00,252.75,180117,,*31
$GPRMC,021018,A,4820.9379,N,432.5770,W,10.00,252.75,180117,,*37
$GPRMC,021018,A,4820.9372,N,432.5808,W,10.00,252.75,180117,,*3C
$GPRMC,021018,A,4820.9364,N,432.5846,W,10.00,252.75,180117,,*31
$GPRMC,021018,A,4820.9356,N,432.5884,W,10.00,252.75,180117,,*3E
$GPRMC,021018,A,4820.9348,N,432.5921,W,10.00,252.75,180117,,*3F
$GPRMC,021018,A,4820.9340,N,432.5959,W,10.00,252.75,180117,,*38
$GPRMC,021018,A,4820.9332,N,432.5997,W,10.00,252.75,180117,,*3F
$GPRMC,021018,A,4820.9325,N,432.6035,W,10.00,252.75,180117,,*3B
$GPRMC,021018,A,4820.9317,N,432.6072,W,10.00,252.75,180117,,*39
$GPRMC,021018,A,4820.9309,N,432.6110,W,10.00,252.75,180117,,*33
$GPRMC,021018,A,4820.9301,N,432.6148,W,10.00,252.75,180117,,*36
$GPRMC,021018,A,4820.9293,N,432.6186,W,10.00,252.75,180117,,*3E
$GPRMC,021018,A,4820.9285,N,432.6223,W,10.00,252.75,180117,,*35
$GPRMC,021018,A,4820.9278,N,432.6261,W,10.00,252.75,180117,,*31
$GPRMC,021018,A,4820.9270,N,432.6299,W,10.00,252.75,180117,,*3E
$GPRMC,021018,A,4820.9262,N,432.6337,W,10.00,252.75,180117,,*38
$GPRMC,021018,A,4820.9254,N,432.6374,W,10.00,252.75,180117,,*3A
$GPRMC,021018,A,4820.9246,N,432.6412,W,10.00,252.75,180117,,*3E
$GPRMC,021018,A,4820.9239,N,432.6450,W,10.00,252.75,180117,,*30
$GPRMC,021018,A,4820.9231,N,432.6488,W,10.00,252.75,180117,,*3D
$GPRMC,021018,A,4820.9223,N,432.6525,W,10.00,252.75,180117,,*38
$GPRMC,021018,A,4820.9215,N,432.6563,W,10.00,252.75,180117,,*3F
$GPRMC,021018,A,4820.9207,N,432.6601,W,10.00,252.75,180117,,*3B
$GPRMC,021018,A,4820.9199,N,432.6639,W,10.00,252.75,180117,,*34
$GPRMC,021018,A,4820.9192,N,432.6676,W,10.00,252.75,180117,,*34
$GPRMC,021018,A,4820.9184,N,432.6714,W,10.00,252.75,180117,,*36
$GPRMC,021018,A,4820.9176,N,432.6752,W,10.00,252.75,180117,,*39
$GPRMC,021018,A,4820.9168,N,432.6790,W,10.00,252.75,180117,,*38
$GPRMC,021018,A,4820.9160,N,432.6827,W,10.00,252.75,180117,,*33
$GPRMC,021018,A,4820.9152,N,432.6865,W,10.00,252.75,180117,,*34
$GPRMC,021018,A,4820.9145,N,432.6903,W,10.00,252.75,180117,,*33
$GPRMC,021018,A,4820.9137,N,432.6941,W,10.00,252.75,180117,,*30
$GPRMC,021018,A,4820.9129,N,432.6978,W,10.00,252.75,180117,,*35
$GPRMC,021018,A,4820.9121,N,432.7016,W,10.00,252.75,180117,,*3D
$GPRMC,021018,A,4820.9113,N,432.7054,W,10.00,252.75,180117,,*3A
$GPRMC,021018,A,4820.9105,N,432.7092,W,10.00,252.75,180117,,*37
$GPRMC,021018,A,4820.9098,N,432.7129,W,10.00,252.75,180117,,*33
$GPRMC,021018,A,4820.9090,N,432.7167,W,10.00,252.75,180117,,*31
$GPRMC,021018,A,4820.9082,N,432.7205,W,10.00,252.75,180117,,*35
$GPRMC,021018,A,4820.9074,N,432.7242,W,10.00,252.75,180117,,*3F
$GPRMC,021018,A,4820.9066,N,432.7280,W,10.00,252.75,180117,,*32
$GPRMC,021018,A,4820.9059,N,432.7318,W,10.00,252.75,180117,,*3E
$GPRMC,021018,A,4820.9051,N,432.7356,W,10.00,252.75,180117,,*3C
$GPRMC,021018,A,4820.9043,N,432.7393,W,10.00,252.75,180117,,*36
$GPRMC,021018,A,4820.9035,N,432.7431,W,10.00,252.75,180117,,*38
$GPRMC,021018,A,4820.9027,N,432.7469,W,10.00,252.75,180117,,*36
$GPRMC,021018,A,4820.9019,N,432.7507,W,10.00,252.75,180117,,*32
$GPRMC,021018,A,4820.9012,N,432.7544,W,10.00,252.75,180117,,*3E
$GPRMC,021018,A,4820.9004,N,432.7582,W,10.00,252.75,180117,,*33
$GPRMC,021018,A,4820.8996,N,432.7620,W,10.00,252.75,180117,,*3B
$GPRMC,021018,A,4820.8988,N,432.7658,W,10.00,252.75,180117,,*3B
$GPRMC,021018,A,4820.8980,N,432.7695,W,10.00,252.75,180117,,*32
$GPRMC,021018,A,4820.8972,N,432.7733,W,10.00,252.75,180117,,*32
$GPRMC,021018,A,4820.8965,N,432.7771,W,10.00,252.75,180117,,*32
$GPRMC,021018,A,4820.8957,N,432.7809,W,10.00,252.75,180117,,*33
$GPRMC,021018,A,4820.8949,N,432.7846,W,10.00,252.75,180117,,*37
$GPRMC,021018,A,4820.8941,N,432.7884,W,10.00,252.75,180117,,*31
$GPRMC,021018,A,4820.8933,N,432.7922,W,10.00,252.75,180117,,*39
$GPRMC,021018,A,4820.8925,N,432.7960,W,10.00,252.75,180117,,*38
$GPRMC,021018,A,4820.8918,N,432.7997,W,10.00,252.75,180117,,*3E
$GPRMC,021018,A,4820.8910,N,432.8035,W,10.00,252.75,180117,,*38
$GPRMC,021018,A,4820.8902,N,432.8073,W,10.00,252.75,180117,,*39
$GPRMC,021018,A,4820.8894,N,432.8111,W,10.00,252.75,180117,,*32
$GPRMC,021018,A,4820.8886,N,432.8148,W,10.00,252.75,180117,,*3D
$GPRMC,021018,A,4820.8878,N,432.8186,W,10.00,252.75,180117,,*3E
$GPRMC,021018,A,4820.8871,N,432.8224,W,10.00,252.75,180117,,*3C
$GPRMC,021018,A,4820.8863,N,432.8262,W,10.00,252.75,180117,,*3D
$GPRMC,021018,A,4820.8855,N,432.8299,W,10.00,252.75,180117,,*3C
$GPRMC,021018,A,4820.8847,N,432.8337,W,10.00,252.75,180117,,*3A
$GPRMC,021018,A,4820.8839,N,432.8375,W,10.00,252.75,180117,,*35
$GPRMC,021018,A,4820.8832,N,432.8413,W,10.00,252.75,180117,,*39
$GPRMC,021018,A,4820.8824,N,432.8450,W,10.00,252.75,180117,,*39
$GPRMC,021018,A,4820.8816,N,432.8488,W,10.00,252.75,180117,,*3D
$GPRMC,021018,A,4820.8808,N,432.8526,W,10.00,252.75,180117,,*37
$GPRMC,021018,A,4820.8800,N,432.8564,W,10.00,252.75,180117,,*39
$GPRMC,021018,A,4820.8792,N,432.8601,W,10.00,252.75,180117,,*3D
$GPRMC,021018,A,4820.8785,N,432.8639,W,10.00,252.75,180117,,*30
$GPRMC,021018,A,4820.8777,N,432.8677,W,10.00,252.75,180117,,*37
$GPRMC,021018,A,4820.8769,N,432.8715,W,10.00,252.75,180117,,*3D
$GPRMC,021018,A,4820.8761,N,432.8752,W,10.00,252.75,180117,,*36
$GPRMC,021018,A,4820.8753,N,432.8790,W,10.00,252.75,180117,,*39
$GPRMC,021018,A,4820.8745,N,432.8828,W,10.00,252.75,180117,,*32
$GPRMC,021018,A,4820.8738,N,432.8866,W,10.00,252.75,180117,,*32
$GPRMC,021018,A,4820.8730,N,432.8903,W,10.00,252.75,180117,,*38
$GPRMC,021018,A,4820.8722,N,432.8941,W,10.00,252.75,180117,,*3D
$GPRMC,021018,A,4820.8714,N,432.8979,W,10.00,252.75,180117,,*33
$GPRMC,021018,A,4820.8706,N,432.9017,W,10.00,252.75,180117,,*30
$GPRMC,021018,A,4820.8698,N,432.9054,W,10.00,252.75,180117,,*31
$GPRMC,021018,A,4820.8691,N,432.9092,W,10.00,252.75,180117,,*32
$GPRMC,021018,A,4820.8683,N,432.9130,W,10.00,252.75,180117,,*38
$GPRMC,021018,A,4820.8675,N,432.9167,W,10.00,252.75,180117,,*33
$GPRMC,021018,A,4820.8667,N,432.9205,W,10.00,252.75,180117,,*37
$GPRMC,021018,A,4820.8659,N,432.9243,W,10.00,252.75,180117,,*38
$GPRMC,021018,A,4820.8652,N,432.9281,W,10.00,252.75,180117,,*3D
$GPRMC,021018,A,4820.8644,N,432.9318,W,10.00,252.75,180117,,*3B
$GPRMC,021018,A,4820.8636,N,432.9356,W,10.00,252.75,180117,,*34
$GPRMC,021018,A,4820.8628,N,432.9394,W,10.00,252.75,180117,,*35
$GPRMC,021018,A,4820.8620,N,432.9432,W,10.00,252.75,180117,,*36
$GPRMC,021018,A,4820.8612,N,432.9469,W,10.00,252.75,180117,,*39
$GPRMC,021018,A,4820.8605,N,432.9507,W,10.00,252.75,180117,,*36
$GPRMC,021018,A,4820.8597,N,432.9545,W,10.00,252.75,180117,,*38
$GPRMC,021018,A,4820.8589,N,432.9583,W,10.00,252.75,180117,,*3D
$GPRMC,021018,A,4820.8581,N,432.9620,W,10.00,252.75,180117,,*3F
$GPRMC,021018,A,4820.8573,N,432.9658,W,10.00,252.75,180117,,*3D
$GPRMC,021018,A,4820.8565,N,432.9696,W,10.00,252.75,180117,,*38
$GPRMC,021018,A,4820.8558,N,432.9734,W,10.00,252.75,180117,,*3F
$GPRMC,021018,A,4820.8550,N,432.9771,W,10.00,252.75,180117,,*36
$GPRMC,021018,A,4820.8542,N,432.9809,W,10.00,252.75,180117,,*35
$GPRMC,021018,A,4820.8534,N,432.9847,W,10.00,252.75,180117,,*3E
$GPRMC,021018,A,4820.8526,N,432.9885,W,10.00,252.75,180117,,*33
$GPRMC,021018,A,4820.8518,N,432.9922,W,10.00,252.75,180117,,*32
$GPRMC,021018,A,4820.8511,N,432.9960,W,10.00,252.75,180117,,*3D
$GPRMC,021018,A,4820.8503,N,432.9998,W,10.00,252.75,180117,,*39
$GPRMC,021018,A,4820.8495,N,433.0036,W,10.00,252.75,180117,,*32
$GPRMC,021018,A,4820.8487,N,433.0073,W,10.00,252.75,180117,,*30
$GPRMC,021018,A,4820.8479,N,433.0111,W,10.00,252.75,180117,,*34
$GPRMC,021018,A,4820.8471,N,433.0149,W,10.00,252.75,180117,,*31
$GPRMC,021018,A,4820.8464,N,433.0187,W,10.00,252.75,180117,,*37
$GPRMC,021018,A,4820.8456,N,433.0224,W,10.00,252.75,180117,,*3C
$GPRMC,021018,A,4820.8448,N,433.0262,W,10.00,252.75,180117,,*31
$GPRMC,021018,A,4820.8440,N,433.0300,W,10.00,252.75,180117,,*3C
$GPRMC,021018,A,4820.8432,N,433.0338,W,10.00,252.75,180117,,*32
$GPRMC,021018,A,4820.8425,N,433.0375,W,10.00,252.75,180117,,*3D
$GPRMC,021018,A,4820.8417,N,433.0413,W,10.00,252.75,180117,,*3B
$GPRMC,021018,A,4820.8409,N,433.0451,W,10.00,252.75,180117,,*32
$GPRMC,021018,A,4820.8401,N,433.0489,W,10.00,252.75,180117,,*3F
$GPRMC,021018,A,4820.8393,N,433.0526,W,10.00,252.75,180117,,*37
$GPRMC,021018,A,4820.8385,N,433.0564,W,10.00,252.75,180117,,*36
$GPRMC,021018,A,4820.8378,N,433.0602,W,10.00,252.75,180117,,*37
$GPRMC,021018,A,4820.8370,N,433.0639,W,10.00,252.75,180117,,*37
$GPRMC,021018,A,4820.8362,N,433.0677,W,10.00,252.75,180117,,*3E
$GPRMC,021018,A,4820.8354,N,433.0715,W,10.00,252.75,180117,,*3E
$GPRMC,021018,A,4820.8346,N,433.0753,W,10.00,252.75,180117,,*3F
$GPRMC,021018,A,4820.8338,N,433.0790,W,10.00,252.75,180117,,*39
$GPRMC,021018,A,4820.8331,N,433.0828,W,10.00,252.75,180117,,*3C
$GPRMC,021018,A,4820.8323,N,433.0866,W,10.00,252.75,180117,,*35
$GPRMC,021018,A,4820.8315,N,433.0904,W,10.00,252.75,180117,,*35
$GPRMC,021018,A,4820.8307,N,433.0941,W,10.00,252.75,180117,,*37
$GPRMC,021018,A,4820.8299,N,433.0979,W,10.00,252.75,180117,,*3A
$GPRMC,021018,A,4820.8291,N,433.1017,W,10.00,252.75,180117,,*32
$GPRMC,021018,A,4820.8284,N,433.1055,W,10.00,252.75,180117,,*30
$GPRMC,021018,A,4820.8276,N,433.1092,W,10.00,252.75,180117,,*36
$GPRMC,021018,A,4820.8268,N,433.1130,W,10.00,252.75,180117,,*30
$GPRMC,021018,A,4820.8260,N,433.1168,W,10.00,252.75,180117,,*35
$GPRMC,021018,A,4820.8252,N,433.1206,W,10.00,252.75,180117,,*3F
$GPRMC,021018,A,4820.8244,N,433.1243,W,10.00,252.75,180117,,*39
$GPRMC,021018,A,4820.8237,N,433.1281,W,10.00,252.75,180117,,*33
$GPRMC,021018,A,4820.8229,N,433.1319,W,10.00,252.75,180117,,*3C
$GPRMC,021018,A,4820.8221,N,433.1357,W,10.00,252.75,180117,,*3E
$GPRMC,021018,A,4820.8213,N,433.1394,W,10.00,252.75,180117,,*30
$GPRMC,021018,A,4820.8205,N,433.1432,W,10.00,252.75,180117,,*3C
$GPRMC,021018,A,4820.8197,N,433.1470,W,10.00,252.75,180117,,*32
$GPRMC,021018,A,4820.8190,N,433.1508,W,10.00,252.75,180117,,*3B
$GPRMC,021018,A,4820.8182,N,433.1545,W,10.00,252.75,180117,,*31
$GPRMC,021018,A,4820.8174,N,433.1583,W,10.00,252.75,180117,,*32
$GPRMC,021018,A,4820.8166,N,433.1621,W,10.00,252.75,180117,,*3A
$GPRMC,021018,A,4820.8158,N,433.1659,W,10.00,252.75,180117,,*38
$GPRMC,021018,A,4820.8151,N,433.1696,W,10.00,252.75,180117,,*32
$GPRMC,021018,A,4820.8143,N,433.1734,W,10.00,252.75,180117,,*38
$GPRMC,021018,A,4820.8135,N,433.1772,W,10.00,252.75,180117,,*3B
$GPRMC,021018,A,4820.8127,N,433.1810,W,10.00,252.75,180117,,*33
$GPRMC,021018,A,4820.8119,N,433.1847,W,10.00,252.75,180117,,*3C
$GPRMC,021018,A,4820.8111,N,433.1885,W,10.00,252.75,180117,,*3A
$GPRMC,021018,A,4820.8104,N,433.1923,W,10.00,252.75,180117,,*33
$GPRMC,021018,A,4820.8096,N,433.1961,W,10.00,252.75,180117,,*3F
$GPRMC,021018,A,4820.8088,N,433.1998,W,10.00,252.75,180117,,*36
$GPRMC,021018,A,4820.8080,N,433.2036,W,10.00,252.75,180117,,*30
$GPRMC,021018,A,4820.8072,N,433.2074,W,10.00,252.75,180117,,*3B
$GPRMC,021018,A,4820.8064,N,433.2111,W,10.00,252.75,180117,,*3E
$GPRMC,021018,A,4820.8057,N,433.2149,W,10.00,252.75,180117,,*33
$GPRMC,021018,A,4820.8049,N,433.2187,W,10.00,252.75,180117,,*3E
$GPRMC,021018,A,4820.8041,N,433.2225,W,10.00,252.75,180117,,*3D
$GPRMC,021018,A,4820.8033,N,433.2262,W,10.00,252.75,180117,,*3B
$GPRMC,021018,A,4820.8025,N,433.2300,W,10.00,252.75,180117,,*39
$GPRMC,021018,A,4820.8017,N,433.2338,W,10.00,252.75,180117,,*33
$GPRMC,021018,A,4820.8010,N,433.2376,W,10.00,252.75,180117,,*3E
$GPRMC,021018,A,4820.8002,N,433.2413,W,10.00,252.75,180117,,*39
$GPRMC,021018,A,4820.7994,N,433.2451,W,10.00,252.75,180117,,*36
$GPRMC,021018,A,4820.7986,N,433.2489,W,10.00,252.75,180117,,*30
$GPRMC,021018,A,4820.7978,N,433.2527,W,10.00,252.75,180117,,*34
$GPRMC,021018,A,4820.7970,N,433.2564,W,10.00,252.75,180117,,*3B
$GPRMC,021018,A,4820.7963,N,433.2602,W,10.00,252.75,180117,,*3A
$GPRMC,021018,A,4820.7955,N,433.2640,W,10.00,252.75,180117,,*39
$GPRMC,021018,A,4820.7947,N,433.2678,W,10.00,252.75,180117,,*31
$GPRMC,021018,A,4820.7939,N,433.2715,W,10.00,252.75,180117,,*32
$GPRMC,021018,A,4820.7931,N,433.2753,W,10.00,252.75,180117,,*38
$GPRMC,021018,A,4820.7923,N,433.2791,W,10.00,252.75,180117,,*35
$GPRMC,021018,A,4820.7916,N,433.2829,W,10.00,252.75,180117,,*3F
$GPRMC,021018,A,4820.7908,N,433.2866,W,10.00,252.75,180117,,*3B
$GPRMC,021018,A,4820.7900,N,433.2904,W,10.00,252.75,180117,,*36
$GPRMC,021018,A,4820.7892,N,433.2942,W,10.00,252.75,180117,,*3E
$GPRMC,021018,A,4820.7884,N,433.2980,W,10.00,252.75,180117,,*37
$GPRMC,021018,A,4820.7876,N,433.3017,W,10.00,252.75,180117,,*3C
$GPRMC,021018,A,4820.7869,N,433.3055,W,10.00,252.75,180117,,*34
$GPRMC,021018,A,4820.7861,N,433.3093,W,10.00,252.75,180117,,*36
$GPRMC,021018,A,4820.7853,N,433.3131,W,10.00,252.75,180117,,*3E
$GPRMC,021018,A,4820.7845,N,433.3168,W,10.00,252.75,180117,,*35
$GPRMC,021018,A,4820.7837,N,433.3206,W,10.00,252.75,180117,,*3B
$GPRMC,021018,A,4820.7830,N,433.3244,W,10.00,252.75,180117,,*3A
$GPRMC,021018,A,4820.7822,N,433.3282,W,10.00,252.75,180117,,*33
$GPRMC,021018,A,4820.7814,N,433.3319,W,10.00,252.75,180117,,*35
$GPRMC,021018,A,4820.7806,N,433.3357,W,10.00,252.75,180117,,*3C
$GPRMC,021018,A,4820.7798,N,433.3395,W,10.00,252.75,180117,,*3A
$GPRMC,021018,A,4820.7790,N,433.3432,W,10.00,252.75,180117,,*38
$GPRMC,021018,A,4820.7783,N,433.3470,W,10.00,252.75,180117,,*3C
$GPRMC,021018,A,4820.7775,N,433.3508,W,10.00,252.75,180117,,*3B
$GPRMC,021018,A,4820.7767,N,433.3546,W,10.00,252.75,180117,,*32
$GPRMC,021018,A,4820.7759,N,433.3583,W,10.00,252.75,180117,,*36
$GPRMC,021018,A,4820.7751,N,433.3621,W,10.00,252.75,180117,,*35
$GPRMC,021018,A,4820.7743,N,433.3659,W,10.00,252.75,180117,,*39
$GPRMC,021018,A,4820.7736,N,433.3697,W,10.00,252.75,180117,,*39
$GPRMC,021018,A,4820.7728,N,433.3734,W,10.00,252.75,180117,,*3E
$GPRMC,021018,A,4820.7720,N,433.3772,W,10.00,252.75,180117,,*34
$GPRMC,021018,A,4820.7712,N,433.3810,W,10.00,252.75,180117,,*3E
$GPRMC,021018,A,4820.7704,N,433.3848,W,10.00,252.75,180117,,*34
$GPRMC,021018,A,4820.7696,N,433.3885,W,10.00,252.75,180117,,*3F
$GPRMC,021018,A,4820.7689,N,433.3923,W,10.00,252.75,180117,,*3C
$GPRMC,021018,A,4820.7681,N,433.3961,W,10.00,252.75,180117,,*32
$GPRMC,021018,A,4820.7673,N,433.3999,W,10.00,252.75,180117,,*38
$GPRMC,021018,A,4820.7665,N,433.4036,W,10.00,252.75,180117,,*34
$GPRMC,021018,A,4820.7657,N,433.4074,W,10.00,252.75,180117,,*33
$GPRMC,021018,A,4820.7649,N,433.4112,W,10.00,252.75,180117,,*3D
