$GPRMC,050102,A,4822.0933,N,428.0724,W,10.00,225.01,211215,,*32
$GPRMC,050102,A,4822.0481,N,428.1402,W,10.00,225.01,211215,,*30
$GPRMC,050102,A,4822.0030,N,428.2079,W,10.00,225.01,211215,,*35
$GPRMC,050102,A,4821.9579,N,428.2756,W,10.00,225.01,211215,,*3D
$GPRMC,050102,A,4821.9128,N,428.3433,W,10.00,225.01,211215,,*3C
$GPRMC,050102,A,4821.8677,N,428.4110,W,10.00,225.01,211215,,*33
$GPRMC,050102,A,4821.8226,N,428.4787,W,10.00,225.01,211215,,*3B
$GPRMC,050102,A,4821.7775,N,428.5464,W,10.00,225.01,211215,,*38
$GPRMC,050102,A,4821.7324,N,428.6141,W,10.00,225.01,211215,,*39
$GPRMC,050102,A,4821.6873,N,428.6818,W,10.00,225.01,211215,,*34
$GPRMC,050102,A,4821.6422,N,428.7495,W,10.00,225.01,211215,,*34
$GPRMC,050102,A,4821.5971,N,428.8172,W,10.00,225.01,211215,,*3F
$GPRMC,050102,A,4821.5519,N,428.8849,W,10.00,225.01,211215,,*3C
$GPRMC,050102,A,4821.5068,N,428.9526,W,10.00,225.01,211215,,*3A
$GPRMC,050102,A,4821.4617,N,429.0203,W,10.00,225.01,211215,,*3D
$GPRMC,050102,A,4821.4166,N,429.0879,W,10.00,225.01,211215,,*3B
$GPRMC,050102,A,4821.3715,N,429.1556,W,10.00,225.01,211215,,*3F
$GPRMC,050102,A,4821.3264,N,429.2233,W,10.00,225.01,211215,,*3B
$GPRMC,050102,A,4821.2865,N,429.2831,W,10.00,270.00,211215,,*38
$GPRMC,050102,A,4821.2865,N,429.3706,W,10.00,270.00,211215,,*32
$GPRMC,050102,A,4821.2865,N,429.4582,W,10.00,270.00,211215,,*3B
$GPRMC,050102,A,4821.2865,N,429.5458,W,10.00,270.00,211215,,*3C
$GPRMC,050102,A,4821.2865,N,429.6334,W,10.00,270.00,211215,,*32
$GPRMC,050102,A,4821.2865,N,429.7210,W,10.00,270.00,211215,,*34
$GPRMC,050102,A,4821.2865,N,429.8086,W,10.00,270.00,211215,,*36
$GPRMC,050102,A,4821.2865,N,429.8962,W,10.00,270.00,211215,,*35
$GPRMC,050102,A,4821.2865,N,429.9838,W,10.00,270.00,211215,,*3A
$GPRMC,050102,A,4821.2865,N,430.0714,W,10.00,270.00,211215,,*3A
$GPRMC,050102,A,4821.2865,N,430.1590,W,10.00,270.00,211215,,*35
$GPRMC,050102,A,4821.2865,N,430.2466,W,10.00,270.00,211215,,*3E
$GPRMC,050102,A,4821.2865,N,430.3342,W,10.00,270.00,211215,,*3E
$GPRMC,050102,A,4821.2865,N,430.4218,W,10.00,270.00,211215,,*37
$GPRMC,050102,A,4821.2864,N,430.5094,W,10.00,270.00,211215,,*31
$GPRMC,050102,A,4821.2864,N,430.5970,W,10.00,270.00,211215,,*32
$GPRMC,050102,A,4821.2864,N,430.6846,W,10.00,270.00,211215,,*35
$GPRMC,050102,A,4821.2864,N,430.7722,W,10.00,270.00,211215,,*39
$GPRMC,050102,A,4821.2864,N,430.8598,W,10.00,270.00,211215,,*35
$GPRMC,050102,A,4821.2864,N,430.9474,W,10.00,270.00,211215,,*37
$GPRMC,050102,A,4821.2863,N,431.0350,W,10.00,270.00,211215,,*39
$GPRMC,050102,A,4821.2863,N,431.1226,W,10.00,270.00,211215,,*38
$GPRMC,050102,A,4821.2863,N,431.1536,W,10.00,261.46,211215,,*3C
$GPRMC,050102,A,4821.2790,N,431.2264,W,10.00,261.46,211215,,*3C
$GPRMC,050102,A,4821.2717,N,431.2993,W,10.00,261.46,211215,,*30
$GPRMC,050102,A,4821.2644,N,431.3721,W,10.00,261.46,211215,,*31
$GPRMC,050102,A,4821.2571,N,431.4449,W,10.00,261.46,211215,,*3E
$GPRMC,050102,A,4821.2498,N,431.5178,W,10.00,261.46,211215,,*3E
$GPRMC,050102,A,4821.2425,N,431.5906,W,10.00,261.46,211215,,*39
$GPRMC,050102,A,4821.2352,N,431.6635,W,10.00,261.46,211215,,*32
$GPRMC,050102,A,4821.2279,N,431.7363,W,10.00,261.46,211215,,*3D
$GPRMC,050102,A,4821.2206,N,431.8091,W,10.00,261.46,211215,,*34
$GPRMC,050102,A,4821.2133,N,431.8820,W,10.00,261.46,211215,,*33
$GPRMC,050102,A,4821.2060,N,431.9548,W,10.00,261.46,211215,,*36
$GPRMC,050102,A,4821.1987,N,432.0277,W,10.00,261.46,211215,,*34
$GPRMC,050102,A,4821.1914,N,432.1005,W,10.00,261.46,211215,,*38
$GPRMC,050102,A,4821.1841,N,432.1733,W,10.00,261.46,211215,,*3B
$GPRMC,050102,A,4821.1768,N,432.2462,W,10.00,261.46,211215,,*3B
$GPRMC,050102,A,4821.1695,N,432.3190,W,10.00,261.46,211215,,*31
$GPRMC,050102,A,4821.1622,N,432.3918,W,10.00,261.46,211215,,*35
$GPRMC,050102,A,4821.1549,N,432.4647,W,10.00,261.46,211215,,*39
$GPRMC,050102,A,4821.1476,N,432.5375,W,10.00,261.46,211215,,*31
$GPRMC,050102,A,4821.1403,N,432.6103,W,10.00,261.46,211215,,*33
$GPRMC,050102,A,4821.1330,N,432.6832,W,10.00,261.46,211215,,*3F
$GPRMC,050102,A,4821.1257,N,432.7560,W,10.00,261.46,211215,,*34
$GPRMC,050102,A,4821.1184,N,432.8288,W,10.00,261.46,211215,,*37
$GPRMC,050102,A,4821.1111,N,432.9017,W,10.00,261.46,211215,,*3E
$GPRMC,050102,A,4821.1038,N,432.9745,W,10.00,261.46,211215,,*34
$GPRMC,050102,A,4821.0964,N,433.0473,W,10.00,261.46,211215,,*3B
$GPRMC,050102,A,4821.0891,N,433.1202,W,10.00,261.46,211215,,*31
$GPRMC,050102,A,4821.0818,N,433.1930,W,10.00,261.46,211215,,*3A
$GPRMC,050102,A,4821.0745,N,433.2658,W,10.00,261.46,211215,,*3F
$GPRMC,050102,A,4821.0672,N,433.3387,W,10.00,261.46,211215,,*3C
$GPRMC,050102,A,4821.0657,N,433.3533,W,10.00,245.17,211215,,*30
$GPRMC,050102,A,4821.0512,N,433.4005,W,10.00,245.17,211215,,*35
$GPRMC,050102,A,4821.0366,N,433.4477,W,10.00,245.17,211215,,*31
$GPRMC,050102,A,4821.0221,N,433.4949,W,10.00,245.17,211215,,*33
$GPRMC,050102,A,4821.0075,N,433.5421,W,10.00,245.17,211215,,*32
$GPRMC,050102,A,4820.9929,N,433.5893,W,10.00,245.17,211215,,*3F
$GPRMC,050102,A,4820.9784,N,433.6365,W,10.00,245.17,211215,,*37
$GPRMC,050102,A,4820.9638,N,433.6837,W,10.00,245.17,211215,,*3D
$GPRMC,050102,A,4820.9493,N,433.7310,W,10.00,245.17,211215,,*31
$GPRMC,050102,A,4820.9347,N,433.7782,W,10.00,245.17,211215,,*30
$GPRMC,050102,A,4820.9201,N,433.8254,W,10.00,245.17,211215,,*32
$GPRMC,050102,A,4820.9056,N,433.8726,W,10.00,245.17,211215,,*32
$GPRMC,050102,A,4820.8910,N,433.9198,W,10.00,245.17,211215,,*3A
$GPRMC,050102,A,4820.8765,N,433.9670,W,10.00,245.17,211215,,*37
$GPRMC,050102,A,4820.8619,N,434.0142,W,10.00,245.17,211215,,*35
$GPRMC,050102,A,4820.8473,N,434.0614,W,10.00,245.17,211215,,*3F
$GPRMC,050102,A,4820.8328,N,434.1086,W,10.00,245.17,211215,,*3A
$GPRMC,050102,A,4820.8182,N,434.1558,W,10.00,245.17,211215,,*3E
$GPRMC,050102,A,4820.8036,N,434.2030,W,10.00,245.17,211215,,*38
$GPRMC,050102,A,4820.7891,N,434.2502,W,10.00,245.17,211215,,*36
$GPRMC,050102,A,4820.7745,N,434.2974,W,10.00,245.17,211215,,*3D
$GPRMC,050102,A,4820.7600,N,434.3446,W,10.00,245.17,211215,,*30
$GPRMC,050102,A,4820.7454,N,434.3918,W,10.00,245.17,211215,,*35
$GPRMC,050102,A,4820.7308,N,434.4390,W,10.00,245.17,211215,,*36
$GPRMC,050102,A,4820.7163,N,434.4862,W,10.00,245.17,211215,,*3F
$GPRMC,050102,A,4820.7017,N,434.5334,W,10.00,245.17,211215,,*34
$GPRMC,050102,A,4820.6871,N,434.5806,W,10.00,245.17,211215,,*37
$GPRMC,050102,A,4820.6726,N,434.6278,W,10.00,245.17,211215,,*3A
$GPRMC,050102,A,4820.6580,N,434.6750,W,10.00,245.17,211215,,*3B
$GPRMC,050102,A,4820.6434,N,434.7222,W,10.00,245.17,211215,,*34
$GPRMC,050102,A,4820.6289,N,434.7694,W,10.00,245.17,211215,,*3D
$GPRMC,050102,A,4820.6143,N,434.8166,W,10.00,245.17,211215,,*3D
$GPRMC,050102,A,4820.5997,N,434.8637,W,10.00,245.17,211215,,*3C
$GPRMC,050102,A,4820.5852,N,434.9109,W,10.00,245.17,211215,,*3F
$GPRMC,050102,A,4820.5706,N,434.9581,W,10.00,245.17,211215,,*35
$GPRMC,050102,A,4820.5560,N,435.0053,W,10.00,245.17,211215,,*35
$GPRMC,050102,A,4820.5415,N,435.0525,W,10.00,245.17,211215,,*32
$GPRMC,050102,A,4820.5269,N,435.0997,W,10.00,245.17,211215,,*3A
$GPRMC,050102,A,4820.5123,N,435.1469,W,10.00,245.17,211215,,*3A
$GPRMC,050102,A,4820.4978,N,435.1941,W,10.00,245.17,211215,,*3A
$GPRMC,050102,A,4820.4832,N,435.2413,W,10.00,245.17,211215,,*3C
$GPRMC,050102,A,4820.4686,N,435.2885,W,10.00,245.17,211215,,*3E
$GPRMC,050102,A,4820.4540,N,435.3357,W,10.00,245.17,211215,,*32
$GPRMC,050102,A,4820.4395,N,435.3829,W,10.00,245.17,211215,,*3E
$GPRMC,050102,A,4820.4249,N,435.4301,W,10.00,245.17,211215,,*38
$GPRMC,050102,A,4820.4103,N,435.4772,W,10.00,245.17,211215,,*35
$GPRMC,050102,A,4820.3958,N,435.5244,W,10.00,245.17,211215,,*35
$GPRMC,050102,A,4820.3812,N,435.5716,W,10.00,245.17,211215,,*38
$GPRMC,050102,A,4820.3666,N,435.6188,W,10.00,245.17,211215,,*37
$GPRMC,050102,A,4820.3520,N,435.6660,W,10.00,245.17,211215,,*37
$GPRMC,050102,A,4820.3375,N,435.7132,W,10.00,245.17,211215,,*30
$GPRMC,050102,A,4820.3229,N,435.7604,W,10.00,245.17,211215,,*3A
$GPRMC,050102,A,4820.3083,N,435.8076,W,10.00,245.17,211215,,*34
$GPRMC,050102,A,4820.2938,N,435.8547,W,10.00,245.17,211215,,*3B
$GPRMC,050102,A,4820.2792,N,435.9019,W,10.00,245.17,211215,,*3A
$GPRMC,050102,A,4820.2646,N,435.9491,W,10.00,245.17,211215,,*36
$GPRMC,050102,A,4820.2500,N,435.9963,W,10.00,245.17,211215,,*37
$GPRMC,050102,A,4820.2355,N,436.0435,W,10.00,245.17,211215,,*35
$GPRMC,050102,A,4820.2209,N,436.0907,W,10.00,245.17,211215,,*31
$GPRMC,050102,A,4820.2063,N,436.1378,W,10.00,245.17,211215,,*3C
$GPRMC,050102,A,4820.1917,N,436.1850,W,10.00,245.17,211215,,*34
$GPRMC,050102,A,4820.1837,N,436.2111,W,10.00,222.19,211215,,*37
$GPRMC,050102,A,4820.1590,N,436.2447,W,10.00,222.19,211215,,*31
$GPRMC,050102,A,4820.1343,N,436.2783,W,10.00,222.19,211215,,*32
$GPRMC,050102,A,4820.1096,N,436.3119,W,10.00,222.19,211215,,*3D
$GPRMC,050102,A,4820.0848,N,436.3454,W,10.00,222.19,211215,,*3B
$GPRMC,050102,A,4820.0601,N,436.3790,W,10.00,222.19,211215,,*33
$GPRMC,050102,A,4820.0354,N,436.4126,W,10.00,222.19,211215,,*3A
$GPRMC,050102,A,4820.0107,N,436.4462,W,10.00,222.19,211215,,*3B
$GPRMC,050102,A,4819.9860,N,436.4798,W,10.00,222.19,211215,,*36
$GPRMC,050102,A,4819.9613,N,436.5134,W,10.00,222.19,211215,,*3D
$GPRMC,050102,A,4819.9366,N,436.5470,W,10.00,222.19,211215,,*3F
$GPRMC,050102,A,4819.9119,N,436.5806,W,10.00,222.19,211215,,*38
$GPRMC,050102,A,4819.8872,N,436.6142,W,10.00,222.19,211215,,*37
$GPRMC,050102,A,4819.8625,N,436.6477,W,10.00,222.19,211215,,*38
$GPRMC,050102,A,4819.8378,N,436.6813,W,10.00,222.19,211215,,*3B
$GPRMC,050102,A,4819.8131,N,436.7149,W,10.00,222.19,211215,,*33
$GPRMC,050102,A,4819.7883,N,436.7485,W,10.00,222.19,211215,,*39
$GPRMC,050102,A,4819.7636,N,436.7821,W,10.00,222.19,211215,,*3B
$GPRMC,050102,A,4819.7389,N,436.8157,W,10.00,222.19,211215,,*3D
$GPRMC,050102,A,4819.7142,N,436.8493,W,10.00,222.19,211215,,*35
$GPRMC,050102,A,4819.6895,N,436.8828,W,10.00,222.19,211215,,*3B
$GPRMC,050102,A,4819.6648,N,436.9164,W,10.00,222.19,211215,,*35
$GPRMC,050102,A,4819.6401,N,436.9500,W,10.00,222.19,211215,,*3C
$GPRMC,050102,A,4819.6154,N,436.9836,W,10.00,222.19,211215,,*31
$GPRMC,050102,A,4819.5907,N,437.0172,W,10.00,222.19,211215,,*3D
$GPRMC,050102,A,4819.5660,N,437.0507,W,10.00,222.19,211215,,*35
$GPRMC,050102,A,4819.5412,N,437.0843,W,10.00,222.19,211215,,*3F
$GPRMC,050102,A,4819.5165,N,437.1179,W,10.00,222.19,211215,,*3B
$GPRMC,050102,A,4819.4918,N,437.1515,W,10.00,222.19,211215,,*36
$GPRMC,050102,A,4819.4671,N,437.1851,W,10.00,222.19,211215,,*3B
$GPRMC,050102,A,4819.4424,N,437.2186,W,10.00,222.19,211215,,*39
$GPRMC,050102,A,4819.4177,N,437.2522,W,10.00,222.19,211215,,*30
$GPRMC,050102,A,4819.3930,N,437.2858,W,10.00,222.19,211215,,*3C
$GPRMC,050102,A,4819.3683,N,437.3194,W,10.00,222.19,211215,,*33
$GPRMC,050102,A,4819.3435,N,437.3529,W,10.00,222.19,211215,,*3E
$GPRMC,050102,A,4819.3188,N,437.3865,W,10.00,222.19,211215,,*38
$GPRMC,050102,A,4819.2941,N,437.4201,W,10.00,222.19,211215,,*3B
$GPRMC,050102,A,4819.2694,N,437.4537,W,10.00,222.19,211215,,*3E
$GPRMC,050102,A,4819.2447,N,437.4872,W,10.00,222.19,211215,,*3E
$GPRMC,050102,A,4819.2200,N,437.5208,W,10.00,222.19,211215,,*3D
$GPRMC,050102,A,4819.1953,N,437.5544,W,10.00,222.19,211215,,*3C
$GPRMC,050102,A,4819.1705,N,437.5879,W,10.00,222.19,211215,,*32
$GPRMC,050102,A,4819.1458,N,437.6215,W,10.00,222.19,211215,,*3A
$GPRMC,050102,A,4819.1211,N,437.6551,W,10.00,222.19,211215,,*36
$GPRMC,050102,A,4819.0964,N,437.6887,W,10.00,222.19,211215,,*38
$GPRMC,050102,A,4819.0717,N,437.7222,W,10.00,222.19,211215,,*36
$GPRMC,050102,A,4819.0470,N,437.7558,W,10.00,222.19,211215,,*3E
$GPRMC,050102,A,4819.0223,N,437.7894,W,10.00,222.19,211215,,*33
$GPRMC,050102,A,4818.9975,N,437.8229,W,10.00,222.19,211215,,*30
$GPRMC,050102,A,4818.9728,N,437.8565,W,10.00,222.19,211215,,*39
$GPRMC,050102,A,4818.9481,N,437.8901,W,10.00,222.19,211215,,*37
$GPRMC,050102,A,4818.9234,N,437.9236,W,10.00,222.19,211215,,*31
$GPRMC,050102,A,4818.8987,N,437.9572,W,10.00,222.19,211215,,*34
$GPRMC,050102,A,4818.8740,N,437.9908,W,10.00,222.19,211215,,*30
$GPRMC,050102,A,4818.8493,N,438.0243,W,10.00,222.19,211215,,*3F
$GPRMC,050102,A,4818.8245,N,438.0579,W,10.00,222.19,211215,,*3C
$GPRMC,050102,A,4818.7998,N,438.0914,W,10.00,222.19,211215,,*3F
$GPRMC,050102,A,4818.7751,N,438.1250,W,10.00,222.19,211215,,*3E
$GPRMC,050102,A,4818.7504,N,438.1586,W,10.00,222.19,211215,,*30
$GPRMC,050102,A,4818.7257,N,438.1921,W,10.00,222.19,211215,,*30
$GPRMC,050102,A,4818.7010,N,438.2257,W,10.00,222.19,211215,,*38
$GPRMC,050102,A,4818.6762,N,438.2593,W,10.00,222.19,211215,,*34
$GPRMC,050102,A,4818.6515,N,438.2928,W,10.00,222.19,211215,,*3A
$GPRMC,050102,A,4818.6268,N,438.3264,W,10.00,222.19,211215,,*35
$GPRMC,050102,A,4818.6021,N,438.3599,W,10.00,222.19,211215,,*3F
$GPRMC,050102,A,4818.5774,N,438.3935,W,10.00,222.19,211215,,*31
$GPRMC,050102,A,4818.5662,N,438.4086,W,10.00,255.49,211215,,*34
$GPRMC,050102,A,4818.5601,N,438.4444,W,10.00,255.49,211215,,*3B
$GPRMC,050102,A,4818.5539,N,438.4801,W,10.00,255.49,211215,,*3E
$GPRMC,050102,A,4818.5477,N,438.5159,W,10.00,255.49,211215,,*30
$GPRMC,050102,A,4818.5415,N,438.5516,W,10.00,255.49,211215,,*3B
$GPRMC,050102,A,4818.5354,N,438.5874,W,10.00,255.49,211215,,*30
$GPRMC,050102,A,4818.5292,N,438.6231,W,10.00,255.49,211215,,*33
$GPRMC,050102,A,4818.5230,N,438.6589,W,10.00,255.49,211215,,*3F
$GPRMC,050102,A,4818.5169,N,438.6947,W,10.00,255.49,211215,,*3E
$GPRMC,050102,A,4818.5107,N,438.7304,W,10.00,255.49,211215,,*3A
$GPRMC,050102,A,4818.5045,N,438.7662,W,10.00,255.49,211215,,*38
$GPRMC,050102,A,4818.4983,N,438.8019,W,10.00,255.49,211215,,*3F
$GPRMC,050102,A,4818.4922,N,438.8377,W,10.00,255.49,211215,,*3F
$GPRMC,050102,A,4818.4860,N,438.8734,W,10.00,255.49,211215,,*3B
$GPRMC,050102,A,4818.4798,N,438.9092,W,10.00,255.49,211215,,*39
$GPRMC,050102,A,4818.4736,N,438.9449,W,10.00,255.49,211215,,*3F
$GPRMC,050102,A,4818.4675,N,438.9807,W,10.00,255.49,211215,,*3F
$GPRMC,050102,A,4818.4613,N,439.0164,W,10.00,255.49,211215,,*3B
$GPRMC,050102,A,4818.4551,N,439.0522,W,10.00,255.49,211215,,*38
$GPRMC,050102,A,4818.4489,N,439.0879,W,10.00,255.49,211215,,*3F
$GPRMC,050102,A,4818.4428,N,439.1237,W,10.00,255.49,211215,,*35
$GPRMC,050102,A,4818.4366,N,439.1595,W,10.00,255.49,211215,,*37
$GPRMC,050102,A,4818.4304,N,439.1952,W,10.00,255.49,211215,,*34
$GPRMC,050102,A,4818.4242,N,439.2310,W,10.00,255.49,211215,,*38
$GPRMC,050102,A,4818.4181,N,439.2667,W,10.00,255.49,211215,,*31
$GPRMC,050102,A,4818.4119,N,439.3025,W,10.00,255.49,211215,,*31
$GPRMC,050102,A,4818.4057,N,439.3382,W,10.00,255.49,211215,,*34
$GPRMC,050102,A,4818.3995,N,439.3740,W,10.00,255.49,211215,,*3E
$GPRMC,050102,A,4818.3934,N,439.4097,W,10.00,255.49,211215,,*3F
$GPRMC,050102,A,4818.3872,N,439.4455,W,10.00,255.49,211215,,*36
$GPRMC,050102,A,4818.3810,N,439.4812,W,10.00,255.49,211215,,*3D
$GPRMC,050102,A,4818.3748,N,439.5170,W,10.00,255.49,211215,,*33
$GPRMC,050102,A,4818.3687,N,439.5527,W,10.00,255.49,211215,,*37
$GPRMC,050102,A,4818.3625,N,439.5885,W,10.00,255.49,211215,,*3A
$GPRMC,050102,A,4818.3563,N,439.6242,W,10.00,255.49,211215,,*39
$GPRMC,050102,A,4818.3501,N,439.6600,W,10.00,255.49,211215,,*3F
$GPRMC,050102,A,4818.3439,N,439.6957,W,10.00,255.49,211215,,*38
$GPRMC,050102,A,4818.3378,N,439.7315,W,10.00,255.49,211215,,*37
$GPRMC,050102,A,4818.3316,N,439.7672,W,10.00,255.49,211215,,*3B
$GPRMC,050102,A,4818.3254,N,439.8030,W,10.00,255.49,211215,,*33
$GPRMC,050102,A,4818.3192,N,439.8387,W,10.00,255.49,211215,,*35
$GPRMC,050102,A,4818.3130,N,439.8745,W,10.00,255.49,211215,,*37
$GPRMC,050102,A,4818.3069,N,439.9102,W,10.00,255.49,211215,,*3E
$GPRMC,050102,A,4818.3007,N,439.9460,W,10.00,255.49,211215,,*37
$GPRMC,050102,A,4818.2945,N,439.9817,W,10.00,255.49,211215,,*35
$GPRMC,050102,A,4818.2883,N,440.0175,W,10.00,255.49,211215,,*34
$GPRMC,050102,A,4818.2821,N,440.0532,W,10.00,255.49,211215,,*3B
$GPRMC,050102,A,4818.2760,N,440.0890,W,10.00,255.49,211215,,*34
$GPRMC,050102,A,4818.2698,N,440.1247,W,10.00,255.49,211215,,*33
$GPRMC,050102,A,4818.2636,N,440.1605,W,10.00,255.49,211215,,*35
$GPRMC,050102,A,4818.2574,N,440.1962,W,10.00,255.49,211215,,*3E
$GPRMC,050102,A,4818.2512,N,440.2320,W,10.00,255.49,211215,,*31
$GPRMC,050102,A,4818.2451,N,440.2677,W,10.00,255.49,211215,,*30
$GPRMC,050102,A,4818.2389,N,440.3035,W,10.00,255.49,211215,,*33
$GPRMC,050102,A,4818.2327,N,440.3392,W,10.00,255.49,211215,,*39
$GPRMC,050102,A,4818.2265,N,440.3750,W,10.00,255.49,211215,,*34
$GPRMC,050102,A,4818.2203,N,440.4107,W,10.00,255.49,211215,,*37
$GPRMC,050102,A,4818.2142,N,440.4465,W,10.00,255.49,211215,,*30
$GPRMC,050102,A,4818.2080,N,440.4822,W,10.00,255.49,211215,,*30
$GPRMC,050102,A,4818.2018,N,440.5180,W,10.00,255.49,211215,,*31
$GPRMC,050102,A,4818.1956,N,440.5537,W,10.00,255.49,211215,,*39
$GPRMC,050102,A,4818.1894,N,440.5895,W,10.00,255.49,211215,,*33
$GPRMC,050102,A,4818.1832,N,440.6252,W,10.00,255.49,211215,,*3D
$GPRMC,050102,A,4818.1771,N,440.6610,W,10.00,255.49,211215,,*37
$GPRMC,050102,A,4818.1709,N,440.6967,W,10.00,255.49,211215,,*37
$GPRMC,050102,A,4818.1647,N,440.7324,W,10.00,255.49,211215,,*30
$GPRMC,050102,A,4818.1585,N,440.7682,W,10.00,255.49,211215,,*34
$GPRMC,050102,A,4818.1523,N,440.8039,W,10.00,255.49,211215,,*31
$GPRMC,050102,A,4818.1461,N,440.8397,W,10.00,255.49,211215,,*31
$GPRMC,050102,A,4818.1400,N,440.8754,W,10.00,255.49,211215,,*3D
$GPRMC,050102,A,4818.1338,N,440.9112,W,10.00,255.49,211215,,*34
$GPRMC,050102,A,4818.1276,N,440.9469,W,10.00,255.49,211215,,*36
$GPRMC,050102,A,4818.1214,N,440.9827,W,10.00,255.49,211215,,*34
$GPRMC,050102,A,4818.1152,N,441.0184,W,10.00,255.49,211215,,*3D
$GPRMC,050102,A,4818.1090,N,441.0542,W,10.00,255.49,211215,,*3C
$GPRMC,050102,A,4818.1029,N,441.0899,W,10.00,255.49,211215,,*35
$GPRMC,050102,A,4818.0967,N,441.1256,W,10.00,255.49,211215,,*3F
$GPRMC,050102,A,4818.0905,N,441.1614,W,10.00,255.49,211215,,*39
$GPRMC,050102,A,4818.0843,N,441.1971,W,10.00,255.49,211215,,*36
$GPRMC,050102,A,4818.0781,N,441.2329,W,10.00,255.49,211215,,*33
$GPRMC,050102,A,4818.0719,N,441.2686,W,10.00,255.49,211215,,*32
$GPRMC,050102,A,4818.0657,N,441.3044,W,10.00,255.49,211215,,*30
$GPRMC,050102,A,4818.0595,N,441.3401,W,10.00,255.49,211215,,*38
$GPRMC,050102,A,4818.0534,N,441.3759,W,10.00,255.49,211215,,*3D
$GPRMC,050102,A,4818.0472,N,441.4116,W,10.00,255.49,211215,,*34
$GPRMC,050102,A,4818.0410,N,441.4473,W,10.00,255.49,211215,,*36
$GPRMC,050102,A,4818.0348,N,441.4831,W,10.00,255.49,211215,,*36
$GPRMC,050102,A,4818.0286,N,441.5188,W,10.00,255.49,211215,,*3F
$GPRMC,050102,A,4818.0224,N,441.5546,W,10.00,255.49,211215,,*31
$GPRMC,050102,A,4818.0162,N,441.5903,W,10.00,255.49,211215,,*3D
$GPRMC,050102,A,4818.0100,N,441.6261,W,10.00,255.49,211215,,*35
$GPRMC,050102,A,4818.0039,N,441.6618,W,10.00,255.49,211215,,*34
$GPRMC,050102,A,4817.9977,N,441.6975,W,10.00,255.49,211215,,*35
$GPRMC,050102,A,4817.9915,N,441.7333,W,10.00,255.49,211215,,*38
$GPRMC,050102,A,4817.9853,N,441.7690,W,10.00,255.49,211215,,*37
$GPRMC,050102,A,4817.9791,N,441.8048,W,10.00,255.49,211215,,*3A
$GPRMC,050102,A,4817.9729,N,441.8405,W,10.00,255.49,211215,,*34
$GPRMC,050102,A,4817.9667,N,441.8763,W,10.00,255.49,211215,,*3C
$GPRMC,050102,A,4817.9605,N,441.9120,W,10.00,255.49,211215,,*38
$GPRMC,050102,A,4817.9543,N,441.9477,W,10.00,255.49,211215,,*3E
$GPRMC,050102,A,4817.9482,N,441.9835,W,10.00,255.49,211215,,*38
$GPRMC,050102,A,4817.9420,N,442.0192,W,10.00,255.49,211215,,*3E
$GPRMC,050102,A,4817.9358,N,442.0550,W,10.00,255.49,211215,,*3C
$GPRMC,050102,A,4817.9296,N,442.0907,W,10.00,255.49,211215,,*31
$GPRMC,050102,A,4817.9234,N,442.1265,W,10.00,255.49,211215,,*37
$GPRMC,050102,A,4817.9172,N,442.1622,W,10.00,255.49,211215,,*31
$GPRMC,050102,A,4817.9110,N,442.1979,W,10.00,255.49,211215,,*34
$GPRMC,050102,A,4817.9048,N,442.2337,W,10.00,255.49,211215,,*3B
$GPRMC,050102,A,4817.8986,N,442.2694,W,10.00,255.49,211215,,*3D
$GPRMC,050102,A,4817.8924,N,442.3052,W,10.00,255.49,211215,,*38
$GPRMC,050102,A,4817.8862,N,442.3409,W,10.00,255.49,211215,,*31
$GPRMC,050102,A,4817.8801,N,442.3766,W,10.00,255.49,211215,,*3E
$GPRMC,050102,A,4817.8739,N,442.4124,W,10.00,255.49,211215,,*3D
$GPRMC,050102,A,4817.8677,N,442.4481,W,10.00,255.49,211215,,*3C
$GPRMC,050102,A,4817.8615,N,442.4839,W,10.00,255.49,211215,,*37
$GPRMC,050102,A,4817.8553,N,442.5196,W,10.00,255.49,211215,,*3B
$GPRMC,050102,A,4817.8491,N,442.5553,W,10.00,255.49,211215,,*39
$GPRMC,050102,A,4817.8429,N,442.5911,W,10.00,255.49,211215,,*30
$GPRMC,050102,A,4817.8367,N,442.6268,W,10.00,255.49,211215,,*3B
$GPRMC,050102,A,4817.8305,N,442.6625,W,10.00,255.49,211215,,*32
