$GPRMC,024746,A,4822.1786,N,428.2827,W,10.00,239.87,151215,,*3C
$GPRMC,024746,A,4822.1685,N,428.3088,W,10.00,239.87,151215,,*32
$GPRMC,024746,A,4822.1584,N,428.3348,W,10.00,239.87,151215,,*3F
$GPRMC,024746,A,4822.1484,N,428.3609,W,10.00,239.87,151215,,*3E
$GPRMC,024746,A,4822.1383,N,428.3869,W,10.00,239.87,151215,,*36
$GPRMC,024746,A,4822.1282,N,428.4130,W,10.00,239.87,151215,,*34
$GPRMC,024746,A,4822.1181,N,428.4390,W,10.00,239.87,151215,,*3C
$GPRMC,024746,A,4822.1081,N,428.4651,W,10.00,239.87,151215,,*35
$GPRMC,024746,A,4822.0980,N,428.4911,W,10.00,239.87,151215,,*37
$GPRMC,024746,A,4822.0879,N,428.5171,W,10.00,239.87,151215,,*3F
$GPRMC,024746,A,4822.0778,N,428.5432,W,10.00,239.87,151215,,*33
$GPRMC,024746,A,4822.0678,N,428.5692,W,10.00,239.87,151215,,*3A
$GPRMC,024746,A,4822.0577,N,428.5953,W,10.00,239.87,151215,,*34
$GPRMC,024746,A,4822.0476,N,428.6213,W,10.00,239.87,151215,,*38
$GPRMC,024746,A,4822.0375,N,428.6474,W,10.00,239.87,151215,,*3B
$GPRMC,024746,A,4822.0275,N,428.6734,W,10.00,239.87,151215,,*3D
$GPRMC,024746,A,4822.0174,N,428.6994,W,10.00,239.87,151215,,*3B
$GPRMC,024746,A,4822.0073,N,428.7255,W,10.00,239.87,151215,,*3A
$GPRMC,024746,A,4821.9972,N,428.7515,W,10.00,239.87,151215,,*3B
$GPRMC,024746,A,4821.9872,N,428.7776,W,10.00,239.87,151215,,*3D
$GPRMC,024746,A,4821.9771,N,428.8036,W,10.00,239.87,151215,,*3D
$GPRMC,024746,A,4821.9670,N,428.8296,W,10.00,239.87,151215,,*35
$GPRMC,024746,A,4821.9569,N,428.8557,W,10.00,239.87,151215,,*34
$GPRMC,024746,A,4821.9469,N,428.8817,W,10.00,239.87,151215,,*3C
$GPRMC,024746,A,4821.9368,N,428.9078,W,10.00,239.87,151215,,*3A
$GPRMC,024746,A,4821.9267,N,428.9338,W,10.00,239.87,151215,,*33
$GPRMC,024746,A,4821.9166,N,428.9599,W,10.00,239.87,151215,,*3C
$GPRMC,024746,A,4821.9066,N,428.9859,W,10.00,239.87,151215,,*3C
$GPRMC,024746,A,4821.8965,N,429.0119,W,10.00,239.87,151215,,*32
$GPRMC,024746,A,4821.8864,N,429.0380,W,10.00,239.87,151215,,*30
$GPRMC,024746,A,4821.8763,N,429.0640,W,10.00,239.87,151215,,*31
$GPRMC,024746,A,4821.8663,N,429.0901,W,10.00,239.87,151215,,*3A
$GPRMC,024746,A,4821.8562,N,429.1161,W,10.00,239.87,151215,,*37
$GPRMC,024746,A,4821.8461,N,429.1421,W,10.00,239.87,151215,,*34
$GPRMC,024746,A,4821.8360,N,429.1682,W,10.00,239.87,151215,,*39
$GPRMC,024746,A,4821.8260,N,429.1942,W,10.00,239.87,151215,,*3B
$GPRMC,024746,A,4821.8159,N,429.2203,W,10.00,239.87,151215,,*3F
$GPRMC,024746,A,4821.8058,N,429.2463,W,10.00,239.87,151215,,*3F
$GPRMC,024746,A,4821.7957,N,429.2723,W,10.00,239.87,151215,,*31
$GPRMC,024746,A,4821.7857,N,429.2984,W,10.00,239.87,151215,,*33
$GPRMC,024746,A,4821.7756,N,429.3244,W,10.00,239.87,151215,,*3B
$GPRMC,024746,A,4821.7655,N,429.3504,W,10.00,239.87,151215,,*3A
$GPRMC,024746,A,4821.7554,N,429.3765,W,10.00,239.87,151215,,*3D
$GPRMC,024746,A,4821.7453,N,429.4025,W,10.00,239.87,151215,,*3F
$GPRMC,024746,A,4821.7353,N,429.4286,W,10.00,239.87,151215,,*33
$GPRMC,024746,A,4821.7252,N,429.4546,W,10.00,239.87,151215,,*38
$GPRMC,024746,A,4821.7151,N,429.4806,W,10.00,239.87,151215,,*31
$GPRMC,024746,A,4821.7050,N,429.5067,W,10.00,239.87,151215,,*3F
$GPRMC,024746,A,4821.6950,N,429.5327,W,10.00,239.87,151215,,*30
$GPRMC,024746,A,4821.6849,N,429.5587,W,10.00,239.87,151215,,*35
$GPRMC,024746,A,4821.6748,N,429.5848,W,10.00,239.87,151215,,*35
$GPRMC,024746,A,4821.6647,N,429.6108,W,10.00,239.87,151215,,*35
$GPRMC,024746,A,4821.6547,N,429.6369,W,10.00,239.87,151215,,*33
$GPRMC,024746,A,4821.6446,N,429.6629,W,10.00,239.87,151215,,*32
$GPRMC,024746,A,4821.6345,N,429.6889,W,10.00,239.87,151215,,*32
$GPRMC,024746,A,4821.6244,N,429.7150,W,10.00,239.87,151215,,*3E
$GPRMC,024746,A,4821.6143,N,429.7410,W,10.00,239.87,151215,,*3B
$GPRMC,024746,A,4821.6043,N,429.7670,W,10.00,239.87,151215,,*3E
$GPRMC,024746,A,4821.5942,N,429.7931,W,10.00,239.87,151215,,*3F
$GPRMC,024746,A,4821.5841,N,429.8191,W,10.00,239.87,151215,,*30
$GPRMC,024746,A,4821.5740,N,429.8451,W,10.00,239.87,151215,,*37
$GPRMC,024746,A,4821.5639,N,429.8712,W,10.00,239.87,151215,,*3C
$GPRMC,024746,A,4821.5539,N,429.8972,W,10.00,239.87,151215,,*37
$GPRMC,024746,A,4821.5438,N,429.9232,W,10.00,239.87,151215,,*39
$GPRMC,024746,A,4821.5337,N,429.9493,W,10.00,239.87,151215,,*3C
$GPRMC,024746,A,4821.5236,N,429.9753,W,10.00,239.87,151215,,*33
$GPRMC,024746,A,4821.5135,N,430.0013,W,10.00,239.87,151215,,*31
$GPRMC,024746,A,4821.5035,N,430.0274,W,10.00,239.87,151215,,*33
$GPRMC,024746,A,4821.4934,N,430.0534,W,10.00,239.87,151215,,*39
$GPRMC,024746,A,4821.4833,N,430.0795,W,10.00,239.87,151215,,*36
$GPRMC,024746,A,4821.4732,N,430.1055,W,10.00,239.87,151215,,*32
$GPRMC,024746,A,4821.4632,N,430.1315,W,10.00,239.87,151215,,*34
$GPRMC,024746,A,4821.4531,N,430.1575,W,10.00,239.87,151215,,*34
$GPRMC,024746,A,4821.4430,N,430.1836,W,10.00,239.87,151215,,*3E
$GPRMC,024746,A,4821.4329,N,430.2096,W,10.00,239.87,151215,,*30
$GPRMC,024746,A,4821.4228,N,430.2356,W,10.00,239.87,151215,,*3F
$GPRMC,024746,A,4821.4128,N,430.2617,W,10.00,239.87,151215,,*3C
$GPRMC,024746,A,4821.4027,N,430.2877,W,10.00,239.87,151215,,*3A
$GPRMC,024746,A,4821.3926,N,430.3137,W,10.00,239.87,151215,,*39
$GPRMC,024746,A,4821.3825,N,430.3398,W,10.00,239.87,151215,,*3C
$GPRMC,024746,A,4821.3724,N,430.3658,W,10.00,239.87,151215,,*3B
$GPRMC,024746,A,4821.3623,N,430.3918,W,10.00,239.87,151215,,*36
$GPRMC,024746,A,4821.3523,N,430.4179,W,10.00,239.87,151215,,*3D
$GPRMC,024746,A,4821.3422,N,430.4439,W,10.00,239.87,151215,,*3C
$GPRMC,024746,A,4821.3321,N,430.4699,W,10.00,239.87,151215,,*30
$GPRMC,024746,A,4821.3220,N,430.4960,W,10.00,239.87,151215,,*39
$GPRMC,024746,A,4821.3119,N,430.5220,W,10.00,239.87,151215,,*3E
$GPRMC,024746,A,4821.3019,N,430.5480,W,10.00,239.87,151215,,*33
$GPRMC,024746,A,4821.2918,N,430.5741,W,10.00,239.87,151215,,*34
$GPRMC,024746,A,4821.2817,N,430.6001,W,10.00,239.87,151215,,*3A
$GPRMC,024746,A,4821.2716,N,430.6261,W,10.00,239.87,151215,,*30
$GPRMC,024746,A,4821.2615,N,430.6521,W,10.00,239.87,151215,,*31
$GPRMC,024746,A,4821.2515,N,430.6782,W,10.00,239.87,151215,,*39
$GPRMC,024746,A,4821.2414,N,430.7042,W,10.00,239.87,151215,,*33
$GPRMC,024746,A,4821.2313,N,430.7302,W,10.00,239.87,151215,,*34
$GPRMC,024746,A,4821.2212,N,430.7563,W,10.00,239.87,151215,,*35
$GPRMC,024746,A,4821.2111,N,430.7823,W,10.00,239.87,151215,,*3C
$GPRMC,024746,A,4821.2010,N,430.8083,W,10.00,239.87,151215,,*31
$GPRMC,024746,A,4821.1910,N,430.8343,W,10.00,239.87,151215,,*34
$GPRMC,024746,A,4821.1809,N,430.8604,W,10.00,239.87,151215,,*3B
$GPRMC,024746,A,4821.1708,N,430.8864,W,10.00,239.87,151215,,*3D
$GPRMC,024746,A,4821.1607,N,430.9124,W,10.00,239.87,151215,,*3F
$GPRMC,024746,A,4821.1506,N,430.9385,W,10.00,239.87,151215,,*34
$GPRMC,024746,A,4821.1405,N,430.9645,W,10.00,239.87,151215,,*3F
$GPRMC,024746,A,4821.1305,N,430.9905,W,10.00,239.87,151215,,*33
$GPRMC,024746,A,4821.1204,N,431.0165,W,10.00,239.87,151215,,*35
$GPRMC,024746,A,4821.1103,N,431.0426,W,10.00,239.87,151215,,*33
$GPRMC,024746,A,4821.1002,N,431.0686,W,10.00,239.87,151215,,*3B
$GPRMC,024746,A,4821.0901,N,431.0946,W,10.00,239.87,151215,,*33
$GPRMC,024746,A,4821.0800,N,431.1206,W,10.00,239.87,151215,,*3D
$GPRMC,024746,A,4821.0700,N,431.1467,W,10.00,239.87,151215,,*33
$GPRMC,024746,A,4821.0599,N,431.1727,W,10.00,239.87,151215,,*36
$GPRMC,024746,A,4821.0498,N,431.1987,W,10.00,239.87,151215,,*32
$GPRMC,024746,A,4821.0397,N,431.2248,W,10.00,239.87,151215,,*31
$GPRMC,024746,A,4821.0296,N,431.2508,W,10.00,239.87,151215,,*32
$GPRMC,024746,A,4821.0195,N,431.2768,W,10.00,239.87,151215,,*36
$GPRMC,024746,A,4821.0095,N,431.3028,W,10.00,239.87,151215,,*35
$GPRMC,024746,A,4820.9994,N,431.3289,W,10.00,239.87,151215,,*3C
$GPRMC,024746,A,4820.9893,N,431.3549,W,10.00,239.87,151215,,*31
$GPRMC,024746,A,4820.9792,N,431.3809,W,10.00,239.87,151215,,*36
$GPRMC,024746,A,4820.9691,N,431.4069,W,10.00,239.87,151215,,*3D
$GPRMC,024746,A,4820.9590,N,431.4330,W,10.00,239.87,151215,,*30
$GPRMC,024746,A,4820.9490,N,431.4590,W,10.00,239.87,151215,,*3D
$GPRMC,024746,A,4820.9389,N,431.4850,W,10.00,239.87,151215,,*33
$GPRMC,024746,A,4820.9288,N,431.5110,W,10.00,239.87,151215,,*3F
$GPRMC,024746,A,4820.9187,N,431.5371,W,10.00,239.87,151215,,*36
$GPRMC,024746,A,4820.9086,N,431.5631,W,10.00,239.87,151215,,*37
$GPRMC,024746,A,4820.8985,N,431.5891,W,10.00,239.87,151215,,*38
$GPRMC,024746,A,4820.8884,N,431.6151,W,10.00,239.87,151215,,*3E
$GPRMC,024746,A,4820.8784,N,431.6411,W,10.00,239.87,151215,,*30
$GPRMC,024746,A,4820.8683,N,431.6672,W,10.00,239.87,151215,,*31
$GPRMC,024746,A,4820.8582,N,431.6932,W,10.00,239.87,151215,,*38
$GPRMC,024746,A,4820.8481,N,431.7192,W,10.00,239.87,151215,,*39
$GPRMC,024746,A,4820.8380,N,431.7452,W,10.00,239.87,151215,,*36
$GPRMC,024746,A,4820.8279,N,431.7713,W,10.00,239.87,151215,,*37
$GPRMC,024746,A,4820.8178,N,431.7973,W,10.00,239.87,151215,,*3D
$GPRMC,024746,A,4820.8078,N,431.8233,W,10.00,239.87,151215,,*3C
$GPRMC,024746,A,4820.7977,N,431.8493,W,10.00,239.87,151215,,*39
$GPRMC,024746,A,4820.7876,N,431.8753,W,10.00,239.87,151215,,*36
$GPRMC,024746,A,4820.7775,N,431.9014,W,10.00,239.87,151215,,*3F
$GPRMC,024746,A,4820.7674,N,431.9274,W,10.00,239.87,151215,,*3B
$GPRMC,024746,A,4820.7573,N,431.9534,W,10.00,239.87,151215,,*3C
$GPRMC,024746,A,4820.7472,N,431.9794,W,10.00,239.87,151215,,*34
$GPRMC,024746,A,4820.7371,N,432.0055,W,10.00,239.87,151215,,*30
$GPRMC,024746,A,4820.7271,N,432.0315,W,10.00,239.87,151215,,*36
$GPRMC,024746,A,4820.7170,N,432.0575,W,10.00,239.87,151215,,*34
$GPRMC,024746,A,4820.7069,N,432.0835,W,10.00,239.87,151215,,*34
$GPRMC,024746,A,4820.6968,N,432.1095,W,10.00,239.87,151215,,*3E
$GPRMC,024746,A,4820.6867,N,432.1356,W,10.00,239.87,151215,,*3C
$GPRMC,024746,A,4820.6766,N,432.1616,W,10.00,239.87,151215,,*33
$GPRMC,024746,A,4820.6665,N,432.1876,W,10.00,239.87,151215,,*39
$GPRMC,024746,A,4820.6564,N,432.2136,W,10.00,239.87,151215,,*35
$GPRMC,024746,A,4820.6464,N,432.2396,W,10.00,239.87,151215,,*3C
$GPRMC,024746,A,4820.6363,N,432.2657,W,10.00,239.87,151215,,*34
$GPRMC,024746,A,4820.6262,N,432.2917,W,10.00,239.87,151215,,*3F
$GPRMC,024746,A,4820.6161,N,432.3177,W,10.00,239.87,151215,,*30
$GPRMC,024746,A,4820.6060,N,432.3437,W,10.00,239.87,151215,,*31
$GPRMC,024746,A,4820.5959,N,432.3697,W,10.00,239.87,151215,,*39
$GPRMC,024746,A,4820.5858,N,432.3957,W,10.00,239.87,151215,,*3A
$GPRMC,024746,A,4820.5757,N,432.4218,W,10.00,239.87,151215,,*3D
$GPRMC,024746,A,4820.5657,N,432.4478,W,10.00,239.87,151215,,*3C
$GPRMC,024746,A,4820.5556,N,432.4738,W,10.00,239.87,151215,,*39
$GPRMC,024746,A,4820.5455,N,432.4998,W,10.00,239.87,151215,,*3F
$GPRMC,024746,A,4820.5354,N,432.5258,W,10.00,239.87,151215,,*3F
$GPRMC,024746,A,4820.5253,N,432.5519,W,10.00,239.87,151215,,*3B
$GPRMC,024746,A,4820.5152,N,432.5779,W,10.00,239.87,151215,,*3D
$GPRMC,024746,A,4820.5051,N,432.6039,W,10.00,239.87,151215,,*3F
$GPRMC,024746,A,4820.4950,N,432.6299,W,10.00,239.87,151215,,*3E
$GPRMC,024746,A,4820.4849,N,432.6559,W,10.00,239.87,151215,,*3C
$GPRMC,024746,A,4820.4749,N,432.6819,W,10.00,239.87,151215,,*3A
$GPRMC,024746,A,4820.4648,N,432.7080,W,10.00,239.87,151215,,*33
$GPRMC,024746,A,4820.4547,N,432.7340,W,10.00,239.87,151215,,*30
$GPRMC,024746,A,4820.4446,N,432.7600,W,10.00,239.87,151215,,*31
$GPRMC,024746,A,4820.4345,N,432.7860,W,10.00,239.87,151215,,*3D
$GPRMC,024746,A,4820.4244,N,432.8120,W,10.00,239.87,151215,,*3F
$GPRMC,024746,A,4820.4143,N,432.8380,W,10.00,239.87,151215,,*33
$GPRMC,024746,A,4820.4042,N,432.8640,W,10.00,239.87,151215,,*3A
$GPRMC,024746,A,4820.3941,N,432.8901,W,10.00,239.87,151215,,*3D
$GPRMC,024746,A,4820.3840,N,432.9161,W,10.00,239.87,151215,,*32
$GPRMC,024746,A,4820.3740,N,432.9421,W,10.00,239.87,151215,,*3C
$GPRMC,024746,A,4820.3639,N,432.9681,W,10.00,239.87,151215,,*3B
$GPRMC,024746,A,4820.3560,N,432.9885,W,10.00,243.38,151215,,*37
$GPRMC,024746,A,4820.3491,N,433.0090,W,10.00,243.38,151215,,*3C
$GPRMC,024746,A,4820.3422,N,433.0295,W,10.00,243.38,151215,,*33
$GPRMC,024746,A,4820.3354,N,433.0501,W,10.00,243.38,151215,,*3F
$GPRMC,024746,A,4820.3285,N,433.0706,W,10.00,243.38,151215,,*37
$GPRMC,024746,A,4820.3217,N,433.0912,W,10.00,243.38,151215,,*37
$GPRMC,024746,A,4820.3148,N,433.1117,W,10.00,243.38,151215,,*32
$GPRMC,024746,A,4820.3079,N,433.1322,W,10.00,243.38,151215,,*35
$GPRMC,024746,A,4820.3011,N,433.1528,W,10.00,243.38,151215,,*37
$GPRMC,024746,A,4820.2942,N,433.1733,W,10.00,243.38,151215,,*31
$GPRMC,024746,A,4820.2873,N,433.1938,W,10.00,243.38,151215,,*37
$GPRMC,024746,A,4820.2805,N,433.2144,W,10.00,243.38,151215,,*36
$GPRMC,024746,A,4820.2736,N,433.2349,W,10.00,243.38,151215,,*36
$GPRMC,024746,A,4820.2668,N,433.2554,W,10.00,243.38,151215,,*36
$GPRMC,024746,A,4820.2599,N,433.2760,W,10.00,243.38,151215,,*3E
$GPRMC,024746,A,4820.2530,N,433.2965,W,10.00,243.38,151215,,*36
$GPRMC,024746,A,4820.2462,N,433.3170,W,10.00,243.38,151215,,*3D
$GPRMC,024746,A,4820.2393,N,433.3376,W,10.00,243.38,151215,,*30
$GPRMC,024746,A,4820.2325,N,433.3581,W,10.00,243.38,151215,,*33
$GPRMC,024746,A,4820.2256,N,433.3786,W,10.00,243.38,151215,,*33
$GPRMC,024746,A,4820.2187,N,433.3992,W,10.00,243.38,151215,,*37
$GPRMC,024746,A,4820.2119,N,433.4197,W,10.00,243.38,151215,,*3A
$GPRMC,024746,A,4820.2050,N,433.4402,W,10.00,243.38,151215,,*3F
$GPRMC,024746,A,4820.1981,N,433.4608,W,10.00,243.38,151215,,*31
$GPRMC,024746,A,4820.1913,N,433.4813,W,10.00,243.38,151215,,*3E
$GPRMC,024746,A,4820.1844,N,433.5018,W,10.00,243.38,151215,,*3F
$GPRMC,024746,A,4820.1776,N,433.5224,W,10.00,243.38,151215,,*3C
$GPRMC,024746,A,4820.1707,N,433.5429,W,10.00,243.38,151215,,*31
$GPRMC,024746,A,4820.1638,N,433.5634,W,10.00,243.38,151215,,*32
$GPRMC,024746,A,4820.1570,N,433.5840,W,10.00,243.38,151215,,*30
$GPRMC,024746,A,4820.1501,N,433.6045,W,10.00,243.38,151215,,*38
$GPRMC,024746,A,4820.1432,N,433.6250,W,10.00,243.38,151215,,*3F
$GPRMC,024746,A,4820.1364,N,433.6456,W,10.00,243.38,151215,,*3B
$GPRMC,024746,A,4820.1295,N,433.6661,W,10.00,243.38,151215,,*32
$GPRMC,024746,A,4820.1227,N,433.6866,W,10.00,243.38,151215,,*32
$GPRMC,024746,A,4820.1158,N,433.7072,W,10.00,243.38,151215,,*35
$GPRMC,024746,A,4820.1089,N,433.7277,W,10.00,243.38,151215,,*3F
$GPRMC,024746,A,4820.1021,N,433.7482,W,10.00,243.38,151215,,*31
$GPRMC,024746,A,4820.0952,N,433.7688,W,10.00,243.38,151215,,*35
$GPRMC,024746,A,4820.0883,N,433.7893,W,10.00,243.38,151215,,*3C
$GPRMC,024746,A,4820.0815,N,433.8098,W,10.00,243.38,151215,,*3F
$GPRMC,024746,A,4820.0746,N,433.8304,W,10.00,243.38,151215,,*30
$GPRMC,024746,A,4820.0677,N,433.8509,W,10.00,243.38,151215,,*38
$GPRMC,024746,A,4820.0609,N,433.8714,W,10.00,243.38,151215,,*3F
$GPRMC,024746,A,4820.0540,N,433.8920,W,10.00,243.38,151215,,*38
$GPRMC,024746,A,4820.0472,N,433.9125,W,10.00,243.38,151215,,*34
$GPRMC,024746,A,4820.0403,N,433.9330,W,10.00,243.38,151215,,*34
$GPRMC,024746,A,4820.0334,N,433.9536,W,10.00,243.38,151215,,*37
$GPRMC,024746,A,4820.0266,N,433.9741,W,10.00,243.38,151215,,*33
$GPRMC,024746,A,4820.0197,N,433.9946,W,10.00,243.38,151215,,*37
$GPRMC,024746,A,4820.0128,N,434.0152,W,10.00,243.38,151215,,*30
$GPRMC,024746,A,4820.0060,N,434.0357,W,10.00,243.38,151215,,*3A
$GPRMC,024746,A,4819.9991,N,434.0562,W,10.00,243.38,151215,,*3E
$GPRMC,024746,A,4819.9922,N,434.0768,W,10.00,243.38,151215,,*3E
$GPRMC,024746,A,4819.9854,N,434.0973,W,10.00,243.38,151215,,*3A
$GPRMC,024746,A,4819.9785,N,434.1178,W,10.00,243.38,151215,,*3B
$GPRMC,024746,A,4819.9716,N,434.1383,W,10.00,243.38,151215,,*37
$GPRMC,024746,A,4819.9648,N,434.1589,W,10.00,243.38,151215,,*31
$GPRMC,024746,A,4819.9579,N,434.1794,W,10.00,243.38,151215,,*3E
$GPRMC,024746,A,4819.9511,N,434.1999,W,10.00,243.38,151215,,*33
$GPRMC,024746,A,4819.9442,N,434.2205,W,10.00,243.38,151215,,*39
$GPRMC,024746,A,4819.9373,N,434.2410,W,10.00,243.38,151215,,*3E
$GPRMC,024746,A,4819.9305,N,434.2615,W,10.00,243.38,151215,,*38
$GPRMC,024746,A,4819.9236,N,434.2821,W,10.00,243.38,151215,,*30
$GPRMC,024746,A,4819.9167,N,434.3026,W,10.00,243.38,151215,,*39
$GPRMC,024746,A,4819.9099,N,434.3231,W,10.00,243.38,151215,,*3D
$GPRMC,024746,A,4819.9030,N,434.3437,W,10.00,243.38,151215,,*3E
$GPRMC,024746,A,4819.8961,N,434.3642,W,10.00,243.38,151215,,*32
$GPRMC,024746,A,4819.8893,N,434.3847,W,10.00,243.38,151215,,*35
$GPRMC,024746,A,4819.8824,N,434.4052,W,10.00,243.38,151215,,*32
$GPRMC,024746,A,4819.8755,N,434.4258,W,10.00,243.38,151215,,*33
$GPRMC,024746,A,4819.8687,N,434.4463,W,10.00,243.38,151215,,*33
$GPRMC,024746,A,4819.8618,N,434.4668,W,10.00,243.38,151215,,*3C
$GPRMC,024746,A,4819.8549,N,434.4874,W,10.00,243.38,151215,,*38
$GPRMC,024746,A,4819.8481,N,434.5079,W,10.00,243.38,151215,,*39
$GPRMC,024746,A,4819.8412,N,434.5284,W,10.00,243.38,151215,,*33
$GPRMC,024746,A,4819.8343,N,434.5489,W,10.00,243.38,151215,,*3B
$GPRMC,024746,A,4819.8275,N,434.5695,W,10.00,243.38,151215,,*30
$GPRMC,024746,A,4819.8206,N,434.5900,W,10.00,243.38,151215,,*37
$GPRMC,024746,A,4819.8137,N,434.6105,W,10.00,243.38,151215,,*38
$GPRMC,024746,A,4819.8069,N,434.6311,W,10.00,243.38,151215,,*35
$GPRMC,024746,A,4819.8000,N,434.6516,W,10.00,243.38,151215,,*3B
$GPRMC,024746,A,4819.7931,N,434.6721,W,10.00,243.38,151215,,*39
$GPRMC,024746,A,4819.7863,N,434.6926,W,10.00,243.38,151215,,*36
$GPRMC,024746,A,4819.7794,N,434.7132,W,10.00,243.38,151215,,*3D
$GPRMC,024746,A,4819.7726,N,434.7337,W,10.00,243.38,151215,,*33
$GPRMC,024746,A,4819.7657,N,434.7542,W,10.00,243.38,151215,,*30
$GPRMC,024746,A,4819.7588,N,434.7748,W,10.00,243.38,151215,,*39
$GPRMC,024746,A,4819.7520,N,434.7953,W,10.00,243.38,151215,,*3F
$GPRMC,024746,A,4819.7451,N,434.8158,W,10.00,243.38,151215,,*34
$GPRMC,024746,A,4819.7382,N,434.8363,W,10.00,243.38,151215,,*37
$GPRMC,024746,A,4819.7314,N,434.8569,W,10.00,243.38,151215,,*34
$GPRMC,024746,A,4819.7245,N,434.8774,W,10.00,243.38,151215,,*3F
$GPRMC,024746,A,4819.7176,N,434.8979,W,10.00,243.38,151215,,*3F
$GPRMC,024746,A,4819.7108,N,434.9185,W,10.00,243.38,151215,,*3C
$GPRMC,024746,A,4819.7039,N,434.9390,W,10.00,243.38,151215,,*39
$GPRMC,024746,A,4819.6970,N,434.9595,W,10.00,243.38,151215,,*3F
$GPRMC,024746,A,4819.6902,N,434.9800,W,10.00,243.38,151215,,*3B
$GPRMC,024746,A,4819.6833,N,435.0006,W,10.00,243.38,151215,,*3E
$GPRMC,024746,A,4819.6764,N,435.0211,W,10.00,243.38,151215,,*37
$GPRMC,024746,A,4819.6696,N,435.0416,W,10.00,243.38,151215,,*3A
$GPRMC,024746,A,4819.6627,N,435.0621,W,10.00,243.38,151215,,*36
$GPRMC,024746,A,4819.6558,N,435.0827,W,10.00,243.38,151215,,*35
$GPRMC,024746,A,4819.6489,N,435.1032,W,10.00,243.38,151215,,*35
$GPRMC,024746,A,4819.6421,N,435.1237,W,10.00,243.38,151215,,*30
$GPRMC,024746,A,4819.6352,N,435.1442,W,10.00,243.38,151215,,*37
$GPRMC,024746,A,4819.6283,N,435.1648,W,10.00,243.38,151215,,*32
$GPRMC,024746,A,4819.6215,N,435.1853,W,10.00,243.38,151215,,*39
$GPRMC,024746,A,4819.6146,N,435.2058,W,10.00,243.38,151215,,*3C
$GPRMC,024746,A,4819.6077,N,435.2264,W,10.00,243.38,151215,,*32
$GPRMC,024746,A,4819.6009,N,435.2469,W,10.00,243.38,151215,,*30
$GPRMC,024746,A,4819.5940,N,435.2674,W,10.00,243.38,151215,,*39
$GPRMC,024746,A,4819.5871,N,435.2879,W,10.00,243.38,151215,,*39
$GPRMC,024746,A,4819.5803,N,435.3085,W,10.00,243.38,151215,,*36
$GPRMC,024746,A,4819.5734,N,435.3290,W,10.00,243.38,151215,,*3B
$GPRMC,024746,A,4819.5665,N,435.3495,W,10.00,243.38,151215,,*3D
$GPRMC,024746,A,4819.5597,N,435.3700,W,10.00,243.38,151215,,*3C
$GPRMC,024746,A,4819.5528,N,435.3906,W,10.00,243.38,151215,,*30
$GPRMC,024746,A,4819.5459,N,435.4111,W,10.00,243.38,151215,,*3E
$GPRMC,024746,A,4819.5391,N,435.4316,W,10.00,243.38,151215,,*38
$GPRMC,024746,A,4819.5322,N,435.4521,W,10.00,243.38,151215,,*32
$GPRMC,024746,A,4819.5253,N,435.4727,W,10.00,243.38,151215,,*31
$GPRMC,024746,A,4819.5185,N,435.4932,W,10.00,243.38,151215,,*33
$GPRMC,024746,A,4819.5116,N,435.5137,W,10.00,243.38,151215,,*35
$GPRMC,024746,A,4819.5047,N,435.5342,W,10.00,243.38,151215,,*30
$GPRMC,024746,A,4819.4979,N,435.5548,W,10.00,243.38,151215,,*39
$GPRMC,024746,A,4819.4910,N,435.5753,W,10.00,243.38,151215,,*3E
$GPRMC,024746,A,4819.4841,N,435.5958,W,10.00,243.38,151215,,*3E
$GPRMC,024746,A,4819.4772,N,435.6163,W,10.00,243.38,151215,,*32
$GPRMC,024746,A,4819.4704,N,435.6369,W,10.00,243.38,151215,,*3B
$GPRMC,024746,A,4819.4635,N,435.6574,W,10.00,243.38,151215,,*32
$GPRMC,024746,A,4819.4566,N,435.6779,W,10.00,243.38,151215,,*38
$GPRMC,024746,A,4819.4498,N,435.6984,W,10.00,243.38,151215,,*34
$GPRMC,024746,A,4819.4429,N,435.7190,W,10.00,243.38,151215,,*32
$GPRMC,024746,A,4819.4360,N,435.7395,W,10.00,243.38,151215,,*3F
$GPRMC,024746,A,4819.4292,N,435.7600,W,10.00,243.38,151215,,*3A
$GPRMC,024746,A,4819.4223,N,435.7805,W,10.00,243.38,151215,,*3B
$GPRMC,024746,A,4819.4154,N,435.8010,W,10.00,243.38,151215,,*3B
$GPRMC,024746,A,4819.4086,N,435.8216,W,10.00,243.38,151215,,*31
$GPRMC,024746,A,4819.4017,N,435.8421,W,10.00,243.38,151215,,*3B
$GPRMC,024746,A,4819.3948,N,435.8626,W,10.00,243.38,151215,,*3A
$GPRMC,024746,A,4819.3879,N,435.8831,W,10.00,243.38,151215,,*31
$GPRMC,024746,A,4819.3811,N,435.9037,W,10.00,243.38,151215,,*30
$GPRMC,024746,A,4819.3742,N,435.9242,W,10.00,243.38,151215,,*39
$GPRMC,024746,A,4819.3673,N,435.9447,W,10.00,243.38,151215,,*39
$GPRMC,024746,A,4819.3605,N,435.9652,W,10.00,243.38,151215,,*3E
$GPRMC,024746,A,4819.3536,N,435.9858,W,10.00,243.38,151215,,*39
$GPRMC,024746,A,4819.3467,N,436.0063,W,10.00,243.38,151215,,*36
$GPRMC,024746,A,4819.3399,N,436.0268,W,10.00,243.38,151215,,*39
$GPRMC,024746,A,4819.3330,N,436.0473,W,10.00,243.38,151215,,*36
$GPRMC,024746,A,4819.3261,N,436.0678,W,10.00,243.38,151215,,*3A
$GPRMC,024746,A,4819.3192,N,436.0884,W,10.00,243.38,151215,,*38
$GPRMC,024746,A,4819.3124,N,436.1089,W,10.00,243.38,151215,,*31
$GPRMC,024746,A,4819.3055,N,436.1294,W,10.00,243.38,151215,,*38
$GPRMC,024746,A,4819.2986,N,436.1499,W,10.00,243.38,151215,,*35
$GPRMC,024746,A,4819.2918,N,436.1705,W,10.00,243.38,151215,,*34
$GPRMC,024746,A,4819.2849,N,436.1910,W,10.00,243.38,151215,,*3B
$GPRMC,024746,A,4819.2780,N,436.2115,W,10.00,243.38,151215,,*3F
$GPRMC,024746,A,4819.2712,N,436.2320,W,10.00,243.38,151215,,*30
$GPRMC,024746,A,4819.2643,N,436.2525,W,10.00,243.38,151215,,*36
$GPRMC,024746,A,4819.2574,N,436.2731,W,10.00,243.38,151215,,*36
$GPRMC,024746,A,4819.2505,N,436.2936,W,10.00,243.38,151215,,*39
$GPRMC,024746,A,4819.2437,N,436.3141,W,10.00,243.38,151215,,*30
$GPRMC,024746,A,4819.2368,N,436.3346,W,10.00,243.38,151215,,*38
$GPRMC,024746,A,4819.2299,N,436.3551,W,10.00,243.38,151215,,*37
$GPRMC,024746,A,4819.2231,N,436.3757,W,10.00,243.38,151215,,*31
$GPRMC,024746,A,4819.2162,N,436.3962,W,10.00,243.38,151215,,*3C
$GPRMC,024746,A,4819.2093,N,436.4167,W,10.00,243.38,151215,,*39
$GPRMC,024746,A,4819.2024,N,436.4372,W,10.00,243.38,151215,,*33
$GPRMC,024746,A,4819.1956,N,436.4577,W,10.00,243.38,151215,,*3F
$GPRMC,024746,A,4819.1887,N,436.4783,W,10.00,243.38,151215,,*3B
$GPRMC,024746,A,4819.1818,N,436.4988,W,10.00,243.38,151215,,*38
$GPRMC,024746,A,4819.1750,N,436.5193,W,10.00,243.38,151215,,*38
$GPRMC,024746,A,4819.1681,N,436.5398,W,10.00,243.38,151215,,*3C
$GPRMC,024746,A,4819.1612,N,436.5603,W,10.00,243.38,151215,,*31
$GPRMC,024746,A,4819.1543,N,436.5809,W,10.00,243.38,151215,,*32
$GPRMC,024746,A,4819.1475,N,436.6014,W,10.00,243.38,151215,,*31
$GPRMC,024746,A,4819.1406,N,436.6219,W,10.00,243.38,151215,,*3A
$GPRMC,024746,A,4819.1337,N,436.6424,W,10.00,243.38,151215,,*37
$GPRMC,024746,A,4819.1269,N,436.6629,W,10.00,243.38,151215,,*32
$GPRMC,024746,A,4819.1200,N,436.6835,W,10.00,243.38,151215,,*3E
$GPRMC,024746,A,4819.1131,N,436.7040,W,10.00,243.38,151215,,*34
$GPRMC,024746,A,4819.1062,N,436.7245,W,10.00,243.38,151215,,*34
$GPRMC,024746,A,4819.0994,N,436.7450,W,10.00,243.38,151215,,*37
$GPRMC,024746,A,4819.0925,N,436.7655,W,10.00,243.38,151215,,*3A
$GPRMC,024746,A,4819.0856,N,436.7861,W,10.00,243.38,151215,,*36
$GPRMC,024746,A,4819.0787,N,436.8066,W,10.00,243.38,151215,,*35
$GPRMC,024746,A,4819.0719,N,436.8271,W,10.00,243.38,151215,,*36
$GPRMC,024746,A,4819.0650,N,436.8476,W,10.00,243.38,151215,,*3B
$GPRMC,024746,A,4819.0581,N,436.8681,W,10.00,243.38,151215,,*3E
$GPRMC,024746,A,4819.0513,N,436.8887,W,10.00,243.38,151215,,*3D
$GPRMC,024746,A,4819.0444,N,436.9092,W,10.00,243.38,151215,,*33
$GPRMC,024746,A,4819.0375,N,436.9297,W,10.00,243.38,151215,,*31
$GPRMC,024746,A,4819.0306,N,436.9502,W,10.00,243.38,151215,,*3E
$GPRMC,024746,A,4819.0238,N,436.9707,W,10.00,243.38,151215,,*35
$GPRMC,024746,A,4819.0169,N,436.9912,W,10.00,243.38,151215,,*38
$GPRMC,024746,A,4819.0100,N,437.0118,W,10.00,243.38,151215,,*3D
$GPRMC,024746,A,4819.0031,N,437.0323,W,10.00,243.38,151215,,*34
$GPRMC,024746,A,4818.9963,N,437.0528,W,10.00,243.38,151215,,*3F
$GPRMC,024746,A,4818.9894,N,437.0733,W,10.00,243.38,151215,,*3E
$GPRMC,024746,A,4818.9825,N,437.0938,W,10.00,243.38,151215,,*31
$GPRMC,024746,A,4818.9757,N,437.1144,W,10.00,243.38,151215,,*39
$GPRMC,024746,A,4818.9688,N,437.1349,W,10.00,243.38,151215,,*35
$GPRMC,024746,A,4818.9619,N,437.1554,W,10.00,243.38,151215,,*37
$GPRMC,024746,A,4818.9550,N,437.1759,W,10.00,243.38,151215,,*36
$GPRMC,024746,A,4818.9482,N,437.1964,W,10.00,243.38,151215,,*38
$GPRMC,024746,A,4818.9413,N,437.2169,W,10.00,243.38,151215,,*36
$GPRMC,024746,A,4818.9344,N,437.2375,W,10.00,243.38,151215,,*3C
$GPRMC,024746,A,4818.9275,N,437.2580,W,10.00,243.38,151215,,*33
$GPRMC,024746,A,4818.9207,N,437.2785,W,10.00,243.38,151215,,*31
$GPRMC,024746,A,4818.9138,N,437.2990,W,10.00,243.38,151215,,*34
$GPRMC,024746,A,4818.9069,N,437.3195,W,10.00,243.38,151215,,*3D
$GPRMC,024746,A,4818.9000,N,437.3400,W,10.00,243.38,151215,,*3B
$GPRMC,024746,A,4818.8932,N,437.3606,W,10.00,243.38,151215,,*36
$GPRMC,024746,A,4818.8863,N,437.3811,W,10.00,243.38,151215,,*3B
$GPRMC,024746,A,4818.8794,N,437.4016,W,10.00,243.38,151215,,*34
$GPRMC,024746,A,4818.8725,N,437.4221,W,10.00,243.38,151215,,*38
$GPRMC,024746,A,4818.8657,N,437.4426,W,10.00,243.38,151215,,*3D
$GPRMC,024746,A,4818.8588,N,437.4631,W,10.00,243.38,151215,,*38
$GPRMC,024746,A,4818.8519,N,437.4837,W,10.00,243.38,151215,,*38
$GPRMC,024746,A,4818.8450,N,437.5042,W,10.00,243.38,151215,,*3F
$GPRMC,024746,A,4818.8382,N,437.5247,W,10.00,243.38,151215,,*30
$GPRMC,024746,A,4818.8313,N,437.5452,W,10.00,243.38,151215,,*3A
$GPRMC,024746,A,4818.8244,N,437.5657,W,10.00,243.38,151215,,*3E
$GPRMC,024746,A,4818.8175,N,437.5862,W,10.00,243.38,151215,,*37
$GPRMC,024746,A,4818.8107,N,437.6068,W,10.00,243.38,151215,,*33
$GPRMC,024746,A,4818.8038,N,437.6273,W,10.00,243.38,151215,,*36
$GPRMC,024746,A,4818.7969,N,437.6478,W,10.00,243.38,151215,,*39
$GPRMC,024746,A,4818.7900,N,437.6683,W,10.00,243.38,151215,,*30
$GPRMC,024746,A,4818.7832,N,437.6888,W,10.00,243.38,151215,,*35
$GPRMC,024746,A,4818.7763,N,437.7093,W,10.00,243.38,151215,,*3D
$GPRMC,024746,A,4818.7694,N,437.7298,W,10.00,243.38,151215,,*3D
$GPRMC,024746,A,4818.7625,N,437.7504,W,10.00,243.38,151215,,*35
$GPRMC,024746,A,4818.7557,N,437.7709,W,10.00,243.38,151215,,*3C
$GPRMC,024746,A,4818.7488,N,437.7914,W,10.00,243.38,151215,,*3D
$GPRMC,024746,A,4818.7419,N,437.8119,W,10.00,243.38,151215,,*3F
$GPRMC,024746,A,4818.7350,N,437.8324,W,10.00,243.38,151215,,*39
$GPRMC,024746,A,4818.7282,N,437.8529,W,10.00,243.38,151215,,*3C
$GPRMC,024746,A,4818.7213,N,437.8734,W,10.00,243.38,151215,,*3A
$GPRMC,024746,A,4818.7144,N,437.8940,W,10.00,243.38,151215,,*36
$GPRMC,024746,A,4818.7075,N,437.9145,W,10.00,243.38,151215,,*39
$GPRMC,024746,A,4818.7007,N,437.9350,W,10.00,243.38,151215,,*3A
$GPRMC,024746,A,4818.6938,N,437.9555,W,10.00,243.38,151215,,*3D
$GPRMC,024746,A,4818.6869,N,437.9760,W,10.00,243.38,151215,,*3C
$GPRMC,024746,A,4818.6800,N,437.9965,W,10.00,243.38,151215,,*38
$GPRMC,024746,A,4818.6732,N,438.0170,W,10.00,243.38,151215,,*3C
$GPRMC,024746,A,4818.6663,N,438.0376,W,10.00,243.38,151215,,*3D
$GPRMC,024746,A,4818.6594,N,438.0581,W,10.00,243.38,151215,,*38
$GPRMC,024746,A,4818.6525,N,438.0786,W,10.00,243.38,151215,,*37
$GPRMC,024746,A,4818.6457,N,438.0991,W,10.00,243.38,151215,,*3B
$GPRMC,024746,A,4818.6388,N,438.1196,W,10.00,243.38,151215,,*30
$GPRMC,024746,A,4818.6319,N,438.1401,W,10.00,243.38,151215,,*33
$GPRMC,024746,A,4818.6250,N,438.1606,W,10.00,243.38,151215,,*3A
$GPRMC,024746,A,4818.6182,N,438.1811,W,10.00,243.38,151215,,*3E
$GPRMC,024746,A,4818.6113,N,438.2017,W,10.00,243.38,151215,,*3B
$GPRMC,024746,A,4818.6044,N,438.2222,W,10.00,243.38,151215,,*3C
$GPRMC,024746,A,4818.5975,N,438.2427,W,10.00,243.38,151215,,*37
$GPRMC,024746,A,4818.5906,N,438.2632,W,10.00,243.38,151215,,*35
$GPRMC,024746,A,4818.5838,N,438.2837,W,10.00,243.38,151215,,*32
$GPRMC,024746,A,4818.5769,N,438.3042,W,10.00,243.38,151215,,*32
$GPRMC,024746,A,4818.5700,N,438.3247,W,10.00,243.38,151215,,*3A
$GPRMC,024746,A,4818.5631,N,438.3452,W,10.00,243.38,151215,,*3B
$GPRMC,024746,A,4818.5563,N,438.3658,W,10.00,243.38,151215,,*37
$GPRMC,024746,A,4818.5494,N,438.3863,W,10.00,243.38,151215,,*38
$GPRMC,024746,A,4818.5425,N,438.4068,W,10.00,243.38,151215,,*36
$GPRMC,024746,A,4818.5356,N,438.4273,W,10.00,243.38,151215,,*3D
$GPRMC,024746,A,4818.5288,N,438.4478,W,10.00,243.38,151215,,*32
$GPRMC,024746,A,4818.5219,N,438.4683,W,10.00,243.38,151215,,*3C
$GPRMC,024746,A,4818.5150,N,438.4888,W,10.00,243.38,151215,,*37
$GPRMC,024746,A,4818.5081,N,438.5093,W,10.00,243.38,151215,,*39
$GPRMC,024746,A,4818.5012,N,438.5298,W,10.00,243.38,151215,,*3A
$GPRMC,024746,A,4818.4944,N,438.5504,W,10.00,243.38,151215,,*33
$GPRMC,024746,A,4818.4875,N,438.5709,W,10.00,243.38,151215,,*3F
$GPRMC,024746,A,4818.4806,N,438.5914,W,10.00,243.38,151215,,*39
$GPRMC,024746,A,4818.4737,N,438.6119,W,10.00,243.38,151215,,*32
$GPRMC,024746,A,4818.4669,N,438.6324,W,10.00,243.38,151215,,*34
$GPRMC,024746,A,4818.4600,N,438.6529,W,10.00,243.38,151215,,*30
$GPRMC,024746,A,4818.4531,N,438.6734,W,10.00,243.38,151215,,*3F
$GPRMC,024746,A,4818.4462,N,438.6939,W,10.00,243.38,151215,,*3B
$GPRMC,024746,A,4818.4393,N,438.7144,W,10.00,243.38,151215,,*31
$GPRMC,024746,A,4818.4325,N,438.7350,W,10.00,243.38,151215,,*3B
$GPRMC,024746,A,4818.4256,N,438.7555,W,10.00,243.38,151215,,*3D
$GPRMC,024746,A,4818.4187,N,438.7760,W,10.00,243.38,151215,,*36
$GPRMC,024746,A,4818.4118,N,438.7965,W,10.00,243.38,151215,,*3B
$GPRMC,024746,A,4818.4050,N,438.8170,W,10.00,243.38,151215,,*35
$GPRMC,024746,A,4818.3981,N,438.8375,W,10.00,243.38,151215,,*30
$GPRMC,024746,A,4818.3912,N,438.8580,W,10.00,243.38,151215,,*36
$GPRMC,024746,A,4818.3843,N,438.8785,W,10.00,243.38,151215,,*34
$GPRMC,024746,A,4818.3774,N,438.8990,W,10.00,243.38,151215,,*35
$GPRMC,024746,A,4818.3706,N,438.9195,W,10.00,243.38,151215,,*3C
$GPRMC,024746,A,4818.3637,N,438.9401,W,10.00,243.38,151215,,*37
$GPRMC,024746,A,4818.3568,N,438.9606,W,10.00,243.38,151215,,*3B
$GPRMC,024746,A,4818.3499,N,438.9811,W,10.00,243.38,151215,,*3C
$GPRMC,024746,A,4818.3430,N,439.0016,W,10.00,243.38,151215,,*38
$GPRMC,024746,A,4818.3362,N,439.0221,W,10.00,243.38,151215,,*3E
$GPRMC,024746,A,4818.3293,N,439.0426,W,10.00,243.38,151215,,*30
$GPRMC,024746,A,4818.3224,N,439.0631,W,10.00,243.38,151215,,*38
$GPRMC,024746,A,4818.3155,N,439.0836,W,10.00,243.38,151215,,*34
$GPRMC,024746,A,4818.3086,N,439.1041,W,10.00,243.38,151215,,*32
$GPRMC,024746,A,4818.3018,N,439.1246,W,10.00,243.38,151215,,*30
$GPRMC,024746,A,4818.2949,N,439.1451,W,10.00,243.38,151215,,*3C
$GPRMC,024746,A,4818.2880,N,439.1657,W,10.00,243.38,151215,,*3C
$GPRMC,024746,A,4818.2811,N,439.1862,W,10.00,243.38,151215,,*3C
$GPRMC,024746,A,4818.2743,N,439.2067,W,10.00,243.38,151215,,*3A
$GPRMC,024746,A,4818.2674,N,439.2272,W,10.00,243.38,151215,,*39
$GPRMC,024746,A,4818.2605,N,439.2477,W,10.00,243.38,151215,,*3C
$GPRMC,024746,A,4818.2536,N,439.2682,W,10.00,243.38,151215,,*37
$GPRMC,024746,A,4818.2467,N,439.2887,W,10.00,243.38,151215,,*39
$GPRMC,024746,A,4818.2399,N,439.3092,W,10.00,243.38,151215,,*32
$GPRMC,024746,A,4818.2330,N,439.3297,W,10.00,243.38,151215,,*36
$GPRMC,024746,A,4818.2261,N,439.3502,W,10.00,243.38,151215,,*38
$GPRMC,024746,A,4818.2236,N,439.3576,W,10.00,238.91,151215,,*36
$GPRMC,024746,A,4818.2157,N,439.3774,W,10.00,238.91,151215,,*32
$GPRMC,024746,A,4818.2077,N,439.3972,W,10.00,238.91,151215,,*39
$GPRMC,024746,A,4818.1997,N,439.4169,W,10.00,238.91,151215,,*38
$GPRMC,024746,A,4818.1918,N,439.4367,W,10.00,238.91,151215,,*33
$GPRMC,024746,A,4818.1838,N,439.4565,W,10.00,238.91,151215,,*34
$GPRMC,024746,A,4818.1759,N,439.4763,W,10.00,238.91,151215,,*38
$GPRMC,024746,A,4818.1679,N,439.4960,W,10.00,238.91,151215,,*36
$GPRMC,024746,A,4818.1600,N,439.5158,W,10.00,238.91,151215,,*3A
$GPRMC,024746,A,4818.1520,N,439.5356,W,10.00,238.91,151215,,*37
$GPRMC,024746,A,4818.1440,N,439.5554,W,10.00,238.91,151215,,*34
$GPRMC,024746,A,4818.1361,N,439.5751,W,10.00,238.91,151215,,*37
$GPRMC,024746,A,4818.1281,N,439.5949,W,10.00,238.91,151215,,*3F
$GPRMC,024746,A,4818.1202,N,439.6147,W,10.00,238.91,151215,,*31
$GPRMC,024746,A,4818.1122,N,439.6345,W,10.00,238.91,151215,,*30
$GPRMC,024746,A,4818.1042,N,439.6543,W,10.00,238.91,151215,,*37
$GPRMC,024746,A,4818.0963,N,439.6740,W,10.00,238.91,151215,,*3D
$GPRMC,024746,A,4818.0883,N,439.6938,W,10.00,238.91,151215,,*33
$GPRMC,024746,A,4818.0804,N,439.7136,W,10.00,238.91,151215,,*3B
$GPRMC,024746,A,4818.0724,N,439.7334,W,10.00,238.91,151215,,*36
$GPRMC,024746,A,4818.0644,N,439.7531,W,10.00,238.91,151215,,*32
$GPRMC,024746,A,4818.0565,N,439.7729,W,10.00,238.91,151215,,*39
$GPRMC,024746,A,4818.0485,N,439.7927,W,10.00,238.91,151215,,*36
$GPRMC,024746,A,4818.0406,N,439.8125,W,10.00,238.91,151215,,*38
$GPRMC,024746,A,4818.0326,N,439.8322,W,10.00,238.91,151215,,*38
$GPRMC,024746,A,4818.0246,N,439.8520,W,10.00,238.91,151215,,*3B
$GPRMC,024746,A,4818.0167,N,439.8718,W,10.00,238.91,151215,,*32
$GPRMC,024746,A,4818.0087,N,439.8916,W,10.00,238.91,151215,,*3D
$GPRMC,024746,A,4818.0008,N,439.9113,W,10.00,238.91,151215,,*36
$GPRMC,024746,A,4817.9928,N,439.9311,W,10.00,238.91,151215,,*3B
$GPRMC,024746,A,4817.9849,N,439.9509,W,10.00,238.91,151215,,*32
$GPRMC,024746,A,4817.9769,N,439.9707,W,10.00,238.91,151215,,*33
$GPRMC,024746,A,4817.9689,N,439.9904,W,10.00,238.91,151215,,*31
$GPRMC,024746,A,4817.9610,N,440.0102,W,10.00,238.91,151215,,*38
$GPRMC,024746,A,4817.9530,N,440.0300,W,10.00,238.91,151215,,*39
$GPRMC,024746,A,4817.9451,N,440.0497,W,10.00,238.91,151215,,*36
$GPRMC,024746,A,4817.9371,N,440.0695,W,10.00,238.91,151215,,*33
$GPRMC,024746,A,4817.9291,N,440.0893,W,10.00,238.91,151215,,*34
$GPRMC,024746,A,4817.9212,N,440.1091,W,10.00,238.91,151215,,*34
$GPRMC,024746,A,4817.9132,N,440.1288,W,10.00,238.91,151215,,*3F
$GPRMC,024746,A,4817.9053,N,440.1486,W,10.00,238.91,151215,,*31
$GPRMC,024746,A,4817.8973,N,440.1684,W,10.00,238.91,151215,,*3B
$GPRMC,024746,A,4817.8893,N,440.1882,W,10.00,238.91,151215,,*3C
$GPRMC,024746,A,4817.8814,N,440.2079,W,10.00,238.91,151215,,*3C
$GPRMC,024746,A,4817.8734,N,440.2277,W,10.00,238.91,151215,,*3D
$GPRMC,024746,A,4817.8655,N,440.2475,W,10.00,238.91,151215,,*3F
$GPRMC,024746,A,4817.8575,N,440.2673,W,10.00,238.91,151215,,*3A
$GPRMC,024746,A,4817.8495,N,440.2870,W,10.00,238.91,151215,,*38
$GPRMC,024746,A,4817.8416,N,440.3068,W,10.00,238.91,151215,,*33
$GPRMC,024746,A,4817.8336,N,440.3266,W,10.00,238.91,151215,,*3A
$GPRMC,024746,A,4817.8256,N,440.3463,W,10.00,238.91,151215,,*3E
$GPRMC,024746,A,4817.8177,N,440.3661,W,10.00,238.91,151215,,*3E
$GPRMC,024746,A,4817.8097,N,440.3859,W,10.00,238.91,151215,,*34
$GPRMC,024746,A,4817.8018,N,440.4057,W,10.00,238.91,151215,,*32
$GPRMC,024746,A,4817.7938,N,440.4254,W,10.00,238.91,151215,,*37
$GPRMC,024746,A,4817.7858,N,440.4452,W,10.00,238.91,151215,,*30
$GPRMC,024746,A,4817.7779,N,440.4650,W,10.00,238.91,151215,,*3C
$GPRMC,024746,A,4817.7699,N,440.4847,W,10.00,238.91,151215,,*3B
$GPRMC,024746,A,4817.7620,N,440.5045,W,10.00,238.91,151215,,*32
$GPRMC,024746,A,4817.7540,N,440.5243,W,10.00,238.91,151215,,*33
$GPRMC,024746,A,4817.7460,N,440.5441,W,10.00,238.91,151215,,*34
$GPRMC,024746,A,4817.7381,N,440.5638,W,10.00,238.91,151215,,*30
$GPRMC,024746,A,4817.7301,N,440.5836,W,10.00,238.91,151215,,*38
$GPRMC,024746,A,4817.7222,N,440.6034,W,10.00,238.91,151215,,*31
$GPRMC,024746,A,4817.7142,N,440.6231,W,10.00,238.91,151215,,*33
$GPRMC,024746,A,4817.7062,N,440.6429,W,10.00,238.91,151215,,*3F
$GPRMC,024746,A,4817.6983,N,440.6627,W,10.00,238.91,151215,,*34
$GPRMC,024746,A,4817.6903,N,440.6825,W,10.00,238.91,151215,,*30
$GPRMC,024746,A,4817.6823,N,440.7022,W,10.00,238.91,151215,,*3D
$GPRMC,024746,A,4817.6744,N,440.7220,W,10.00,238.91,151215,,*33
$GPRMC,024746,A,4817.6664,N,440.7418,W,10.00,238.91,151215,,*3D
$GPRMC,024746,A,4817.6585,N,440.7615,W,10.00,238.91,151215,,*3E
$GPRMC,024746,A,4817.6505,N,440.7813,W,10.00,238.91,151215,,*3E
$GPRMC,024746,A,4817.6425,N,440.8011,W,10.00,238.91,151215,,*38
$GPRMC,024746,A,4817.6346,N,440.8208,W,10.00,238.91,151215,,*30
$GPRMC,024746,A,4817.6266,N,440.8406,W,10.00,238.91,151215,,*3B
$GPRMC,024746,A,4817.6186,N,440.8604,W,10.00,238.91,151215,,*36
$GPRMC,024746,A,4817.6107,N,440.8802,W,10.00,238.91,151215,,*37
$GPRMC,024746,A,4817.6027,N,440.8999,W,10.00,238.91,151215,,*37
$GPRMC,024746,A,4817.5948,N,440.9197,W,10.00,238.91,151215,,*33
$GPRMC,024746,A,4817.5868,N,440.9395,W,10.00,238.91,151215,,*30
$GPRMC,024746,A,4817.5788,N,440.9592,W,10.00,238.91,151215,,*30
$GPRMC,024746,A,4817.5709,N,440.9790,W,10.00,238.91,151215,,*39
$GPRMC,024746,A,4817.5629,N,440.9988,W,10.00,238.91,151215,,*3D
$GPRMC,024746,A,4817.5549,N,441.0185,W,10.00,238.91,151215,,*35
$GPRMC,024746,A,4817.5470,N,441.0383,W,10.00,238.91,151215,,*3A
$GPRMC,024746,A,4817.5390,N,441.0581,W,10.00,238.91,151215,,*37
$GPRMC,024746,A,4817.5311,N,441.0778,W,10.00,238.91,151215,,*3A
$GPRMC,024746,A,4817.5231,N,441.0976,W,10.00,238.91,151215,,*39
$GPRMC,024746,A,4817.5151,N,441.1174,W,10.00,238.91,151215,,*37
$GPRMC,024746,A,4817.5072,N,441.1372,W,10.00,238.91,151215,,*33
$GPRMC,024746,A,4817.4992,N,441.1569,W,10.00,238.91,151215,,*39
$GPRMC,024746,A,4817.4912,N,441.1767,W,10.00,238.91,151215,,*3D
$GPRMC,024746,A,4817.4833,N,441.1965,W,10.00,238.91,151215,,*33
$GPRMC,024746,A,4817.4753,N,441.2162,W,10.00,238.91,151215,,*36
$GPRMC,024746,A,4817.4674,N,441.2360,W,10.00,238.91,151215,,*32
$GPRMC,024746,A,4817.4594,N,441.2558,W,10.00,238.91,151215,,*32
$GPRMC,024746,A,4817.4514,N,441.2755,W,10.00,238.91,151215,,*35
$GPRMC,024746,A,4817.4435,N,441.2953,W,10.00,238.91,151215,,*3F
$GPRMC,024746,A,4817.4355,N,441.3151,W,10.00,238.91,151215,,*35
$GPRMC,024746,A,4817.4275,N,441.3348,W,10.00,238.91,151215,,*3C
$GPRMC,024746,A,4817.4196,N,441.3546,W,10.00,238.91,151215,,*3A
$GPRMC,024746,A,4817.4116,N,441.3744,W,10.00,238.91,151215,,*32
$GPRMC,024746,A,4817.4036,N,441.3941,W,10.00,238.91,151215,,*3A
$GPRMC,024746,A,4817.3957,N,441.4139,W,10.00,238.91,151215,,*33
$GPRMC,024746,A,4817.3877,N,441.4337,W,10.00,238.91,151215,,*3C
$GPRMC,024746,A,4817.3798,N,441.4534,W,10.00,238.91,151215,,*37
$GPRMC,024746,A,4817.3718,N,441.4732,W,10.00,238.91,151215,,*3B
$GPRMC,024746,A,4817.3638,N,441.4930,W,10.00,238.91,151215,,*34
$GPRMC,024746,A,4817.3559,N,441.5127,W,10.00,238.91,151215,,*3F
$GPRMC,024746,A,4817.3479,N,441.5325,W,10.00,238.91,151215,,*3C
$GPRMC,024746,A,4817.3399,N,441.5523,W,10.00,238.91,151215,,*35
$GPRMC,024746,A,4817.3320,N,441.5720,W,10.00,238.91,151215,,*36
$GPRMC,024746,A,4817.3240,N,441.5918,W,10.00,238.91,151215,,*34
$GPRMC,024746,A,4817.3160,N,441.6116,W,10.00,238.91,151215,,*30
$GPRMC,024746,A,4817.3081,N,441.6313,W,10.00,238.91,151215,,*39
$GPRMC,024746,A,4817.3001,N,441.6511,W,10.00,238.91,151215,,*35
$GPRMC,024746,A,4817.2921,N,441.6709,W,10.00,238.91,151215,,*34
$GPRMC,024746,A,4817.2842,N,441.6906,W,10.00,238.91,151215,,*31
$GPRMC,024746,A,4817.2762,N,441.7104,W,10.00,238.91,151215,,*37
$GPRMC,024746,A,4817.2683,N,441.7302,W,10.00,238.91,151215,,*3D
$GPRMC,024746,A,4817.2603,N,441.7499,W,10.00,238.91,151215,,*30
$GPRMC,024746,A,4817.2523,N,441.7697,W,10.00,238.91,151215,,*3D
$GPRMC,024746,A,4817.2444,N,441.7894,W,10.00,238.91,151215,,*30
$GPRMC,024746,A,4817.2364,N,441.8092,W,10.00,238.91,151215,,*34
$GPRMC,024746,A,4817.2284,N,441.8290,W,10.00,238.91,151215,,*3B
$GPRMC,024746,A,4817.2205,N,441.8487,W,10.00,238.91,151215,,*32
$GPRMC,024746,A,4817.2125,N,441.8685,W,10.00,238.91,151215,,*33
$GPRMC,024746,A,4817.2045,N,441.8883,W,10.00,238.91,151215,,*3C
$GPRMC,024746,A,4817.1966,N,441.9080,W,10.00,238.91,151215,,*3D
$GPRMC,024746,A,4817.1886,N,441.9278,W,10.00,238.91,151215,,*37
$GPRMC,024746,A,4817.1806,N,441.9476,W,10.00,238.91,151215,,*37
$GPRMC,024746,A,4817.1727,N,441.9673,W,10.00,238.91,151215,,*3C
$GPRMC,024746,A,4817.1647,N,441.9871,W,10.00,238.91,151215,,*37
$GPRMC,024746,A,4817.1567,N,442.0069,W,10.00,238.91,151215,,*3D
$GPRMC,024746,A,4817.1488,N,442.0266,W,10.00,238.91,151215,,*30
$GPRMC,024746,A,4817.1408,N,442.0464,W,10.00,238.91,151215,,*3C
$GPRMC,024746,A,4817.1328,N,442.0661,W,10.00,238.91,151215,,*3E
$GPRMC,024746,A,4817.1249,N,442.0859,W,10.00,238.91,151215,,*3D
$GPRMC,024746,A,4817.1169,N,442.1057,W,10.00,238.91,151215,,*3B
$GPRMC,024746,A,4817.1089,N,442.1254,W,10.00,238.91,151215,,*35
$GPRMC,024746,A,4817.1010,N,442.1452,W,10.00,238.91,151215,,*35
$GPRMC,024746,A,4817.0930,N,442.1650,W,10.00,238.91,151215,,*3F
$GPRMC,024746,A,4817.0850,N,442.1847,W,10.00,238.91,151215,,*30
$GPRMC,024746,A,4817.0771,N,442.2045,W,10.00,238.91,151215,,*35
$GPRMC,024746,A,4817.0691,N,442.2242,W,10.00,238.91,151215,,*3F
$GPRMC,024746,A,4817.0611,N,442.2440,W,10.00,238.91,151215,,*33
$GPRMC,024746,A,4817.0532,N,442.2638,W,10.00,238.91,151215,,*3C
$GPRMC,024746,A,4817.0452,N,442.2835,W,10.00,238.91,151215,,*38
$GPRMC,024746,A,4817.0372,N,442.3033,W,10.00,238.91,151215,,*32
$GPRMC,024746,A,4817.0293,N,442.3231,W,10.00,238.91,151215,,*3C
$GPRMC,024746,A,4817.0213,N,442.3428,W,10.00,238.91,151215,,*3A
$GPRMC,024746,A,4817.0133,N,442.3626,W,10.00,238.91,151215,,*37
$GPRMC,024746,A,4817.0054,N,442.3823,W,10.00,238.91,151215,,*3C
$GPRMC,024746,A,4816.9974,N,442.4021,W,10.00,238.91,151215,,*32
$GPRMC,024746,A,4816.9894,N,442.4219,W,10.00,238.91,151215,,*34
$GPRMC,024746,A,4816.9815,N,442.4416,W,10.00,238.91,151215,,*34
$GPRMC,024746,A,4816.9735,N,442.4614,W,10.00,238.91,151215,,*39
$GPRMC,024746,A,4816.9655,N,442.4812,W,10.00,238.91,151215,,*36
$GPRMC,024746,A,4816.9576,N,442.5009,W,10.00,238.91,151215,,*37
$GPRMC,024746,A,4816.9496,N,442.5207,W,10.00,238.91,151215,,*34
$GPRMC,024746,A,4816.9416,N,442.5404,W,10.00,238.91,151215,,*39
$GPRMC,024746,A,4816.9337,N,442.5602,W,10.00,238.91,151215,,*39
$GPRMC,024746,A,4816.9257,N,442.5800,W,10.00,238.91,151215,,*32
$GPRMC,024746,A,4816.9177,N,442.5997,W,10.00,238.91,151215,,*3C
$GPRMC,024746,A,4816.9098,N,442.6195,W,10.00,238.91,151215,,*35
$GPRMC,024746,A,4816.9018,N,442.6392,W,10.00,238.91,151215,,*38
$GPRMC,024746,A,4816.8938,N,442.6590,W,10.00,238.91,151215,,*36
$GPRMC,024746,A,4816.8859,N,442.6788,W,10.00,238.91,151215,,*3B
$GPRMC,024746,A,4816.8779,N,442.6985,W,10.00,238.91,151215,,*35
$GPRMC,024746,A,4816.8699,N,442.7183,W,10.00,238.91,151215,,*35
$GPRMC,024746,A,4816.8620,N,442.7380,W,10.00,238.91,151215,,*36
$GPRMC,024746,A,4816.8540,N,442.7578,W,10.00,238.91,151215,,*32
$GPRMC,024746,A,4816.8460,N,442.7776,W,10.00,238.91,151215,,*3D
$GPRMC,024746,A,4816.8381,N,442.7973,W,10.00,238.91,151215,,*3E
$GPRMC,024746,A,4816.8301,N,442.8171,W,10.00,238.91,151215,,*33
$GPRMC,024746,A,4816.8221,N,442.8368,W,10.00,238.91,151215,,*3A
$GPRMC,024746,A,4816.8142,N,442.8566,W,10.00,238.91,151215,,*34
$GPRMC,024746,A,4816.8062,N,442.8764,W,10.00,238.91,151215,,*37
$GPRMC,024746,A,4816.7982,N,442.8961,W,10.00,238.91,151215,,*34
$GPRMC,024746,A,4816.7903,N,442.9159,W,10.00,238.91,151215,,*3F
$GPRMC,024746,A,4816.7823,N,442.9356,W,10.00,238.91,151215,,*31
$GPRMC,024746,A,4816.7743,N,442.9554,W,10.00,238.91,151215,,*3C
$GPRMC,024746,A,4816.7664,N,442.9751,W,10.00,238.91,151215,,*3F
$GPRMC,024746,A,4816.7584,N,442.9949,W,10.00,238.91,151215,,*35
$GPRMC,024746,A,4816.7504,N,443.0147,W,10.00,238.91,151215,,*33
$GPRMC,024746,A,4816.7425,N,443.0344,W,10.00,238.91,151215,,*30
$GPRMC,024746,A,4816.7345,N,443.0542,W,10.00,238.91,151215,,*31
$GPRMC,024746,A,4816.7265,N,443.0739,W,10.00,238.91,151215,,*3C
$GPRMC,024746,A,4816.7185,N,443.0937,W,10.00,238.91,151215,,*31
$GPRMC,024746,A,4816.7106,N,443.1135,W,10.00,238.91,151215,,*31
$GPRMC,024746,A,4816.7026,N,443.1332,W,10.00,238.91,151215,,*37
$GPRMC,024746,A,4816.6946,N,443.1530,W,10.00,238.91,151215,,*3D
$GPRMC,024746,A,4816.6867,N,443.1727,W,10.00,238.91,151215,,*3B
$GPRMC,024746,A,4816.6787,N,443.1925,W,10.00,238.91,151215,,*36
$GPRMC,024746,A,4816.6707,N,443.2122,W,10.00,238.91,151215,,*32
$GPRMC,024746,A,4816.6628,N,443.2320,W,10.00,238.91,151215,,*3E
$GPRMC,024746,A,4816.6548,N,443.2518,W,10.00,238.91,151215,,*36
$GPRMC,024746,A,4816.6468,N,443.2715,W,10.00,238.91,151215,,*3A
$GPRMC,024746,A,4816.6389,N,443.2913,W,10.00,238.91,151215,,*3A
$GPRMC,024746,A,4816.6309,N,443.3110,W,10.00,238.91,151215,,*38
$GPRMC,024746,A,4816.6229,N,443.3308,W,10.00,238.91,151215,,*30
$GPRMC,024746,A,4816.6149,N,443.3505,W,10.00,238.91,151215,,*3E
$GPRMC,024746,A,4816.6070,N,443.3703,W,10.00,238.91,151215,,*31
$GPRMC,024746,A,4816.5990,N,443.3901,W,10.00,238.91,151215,,*39
$GPRMC,024746,A,4816.5910,N,443.4098,W,10.00,238.91,151215,,*3F
$GPRMC,024746,A,4816.5831,N,443.4296,W,10.00,238.91,151215,,*31
$GPRMC,024746,A,4816.5751,N,443.4493,W,10.00,238.91,151215,,*3B
$GPRMC,024746,A,4816.5671,N,443.4691,W,10.00,238.91,151215,,*38
$GPRMC,024746,A,4816.5592,N,443.4888,W,10.00,238.91,151215,,*30
$GPRMC,024746,A,4816.5512,N,443.5086,W,10.00,238.91,151215,,*3F
$GPRMC,024746,A,4816.5432,N,443.5284,W,10.00,238.91,151215,,*3C
$GPRMC,024746,A,4816.5353,N,443.5481,W,10.00,238.91,151215,,*3F
$GPRMC,024746,A,4816.5273,N,443.5679,W,10.00,238.91,151215,,*39
$GPRMC,024746,A,4816.5193,N,443.5876,W,10.00,238.91,151215,,*35
$GPRMC,024746,A,4816.5113,N,443.6074,W,10.00,238.91,151215,,*34
$GPRMC,024746,A,4816.5034,N,443.6271,W,10.00,238.91,151215,,*37
$GPRMC,024746,A,4816.4954,N,443.6469,W,10.00,238.91,151215,,*36
$GPRMC,024746,A,4816.4874,N,443.6666,W,10.00,238.91,151215,,*38
$GPRMC,024746,A,4816.4795,N,443.6864,W,10.00,238.91,151215,,*34
$GPRMC,024746,A,4816.4715,N,443.7061,W,10.00,238.91,151215,,*30
$GPRMC,024746,A,4816.4635,N,443.7259,W,10.00,238.91,151215,,*3A
$GPRMC,024746,A,4816.4555,N,443.7457,W,10.00,238.91,151215,,*37
$GPRMC,024746,A,4816.4476,N,443.7654,W,10.00,238.91,151215,,*36
$GPRMC,024746,A,4816.4396,N,443.7852,W,10.00,238.91,151215,,*37
$GPRMC,024746,A,4816.4316,N,443.8049,W,10.00,238.91,151215,,*32
$GPRMC,024746,A,4816.4237,N,443.8247,W,10.00,238.91,151215,,*3C
$GPRMC,024746,A,4816.4157,N,443.8444,W,10.00,238.91,151215,,*3C
$GPRMC,024746,A,4816.4077,N,443.8642,W,10.00,238.91,151215,,*3B
$GPRMC,024746,A,4816.3998,N,443.8839,W,10.00,238.91,151215,,*36
$GPRMC,024746,A,4816.3918,N,443.9037,W,10.00,238.91,151215,,*39
$GPRMC,024746,A,4816.3838,N,443.9234,W,10.00,238.91,151215,,*3B
$GPRMC,024746,A,4816.3758,N,443.9432,W,10.00,238.91,151215,,*32
$GPRMC,024746,A,4816.3679,N,443.9630,W,10.00,238.91,151215,,*30
$GPRMC,024746,A,4816.3599,N,443.9827,W,10.00,238.91,151215,,*35
$GPRMC,024746,A,4816.3519,N,444.0025,W,10.00,238.91,151215,,*39
$GPRMC,024746,A,4816.3440,N,444.0222,W,10.00,238.91,151215,,*31
$GPRMC,024746,A,4816.3360,N,444.0420,W,10.00,238.91,151215,,*30
$GPRMC,024746,A,4816.3280,N,444.0617,W,10.00,238.91,151215,,*39
$GPRMC,024746,A,4816.3200,N,444.0815,W,10.00,238.91,151215,,*3D
$GPRMC,024746,A,4816.3121,N,444.1012,W,10.00,238.91,151215,,*33
$GPRMC,024746,A,4816.3041,N,444.1210,W,10.00,238.91,151215,,*34
$GPRMC,024746,A,4816.2961,N,444.1407,W,10.00,238.91,151215,,*3E
$GPRMC,024746,A,4816.2882,N,444.1605,W,10.00,238.91,151215,,*32
$GPRMC,024746,A,4816.2802,N,444.1802,W,10.00,238.91,151215,,*33
$GPRMC,024746,A,4816.2722,N,444.2000,W,10.00,238.91,151215,,*37
$GPRMC,024746,A,4816.2642,N,444.2197,W,10.00,238.91,151215,,*3F
$GPRMC,024746,A,4816.2563,N,444.2395,W,10.00,238.91,151215,,*3F
$GPRMC,024746,A,4816.2483,N,444.2592,W,10.00,238.91,151215,,*31
$GPRMC,024746,A,4816.2403,N,444.2790,W,10.00,238.91,151215,,*39
$GPRMC,024746,A,4816.2323,N,444.2987,W,10.00,238.91,151215,,*34
$GPRMC,024746,A,4816.2244,N,444.3185,W,10.00,238.91,151215,,*3F
$GPRMC,024746,A,4816.2164,N,444.3383,W,10.00,238.91,151215,,*3A
$GPRMC,024746,A,4816.2084,N,444.3580,W,10.00,238.91,151215,,*30
$GPRMC,024746,A,4816.2005,N,444.3778,W,10.00,238.91,151215,,*3C
$GPRMC,024746,A,4816.1925,N,444.3975,W,10.00,238.91,151215,,*37
$GPRMC,024746,A,4816.1845,N,444.4173,W,10.00,238.91,151215,,*39
$GPRMC,024746,A,4816.1765,N,444.4370,W,10.00,238.91,151215,,*35
$GPRMC,024746,A,4816.1686,N,444.4568,W,10.00,238.91,151215,,*36
$GPRMC,024746,A,4816.1606,N,444.4765,W,10.00,238.91,151215,,*31
$GPRMC,024746,A,4816.1526,N,444.4963,W,10.00,238.91,151215,,*38
$GPRMC,024746,A,4816.1447,N,444.5160,W,10.00,238.91,151215,,*34
$GPRMC,024746,A,4816.1367,N,444.5358,W,10.00,238.91,151215,,*38
$GPRMC,024746,A,4816.1287,N,444.5555,W,10.00,238.91,151215,,*3C
$GPRMC,024746,A,4816.1207,N,444.5753,W,10.00,238.91,151215,,*30
$GPRMC,024746,A,4816.1128,N,444.5950,W,10.00,238.91,151215,,*33
$GPRMC,024746,A,4816.1048,N,444.6148,W,10.00,238.91,151215,,*36
$GPRMC,024746,A,4816.0968,N,444.6345,W,10.00,238.91,151215,,*33
$GPRMC,024746,A,4816.0888,N,444.6543,W,10.00,238.91,151215,,*3C
$GPRMC,024746,A,4816.0809,N,444.6740,W,10.00,238.91,151215,,*34
$GPRMC,024746,A,4816.0729,N,444.6938,W,10.00,238.91,151215,,*38
$GPRMC,024746,A,4816.0649,N,444.7135,W,10.00,238.91,151215,,*3B
$GPRMC,024746,A,4816.0569,N,444.7333,W,10.00,238.91,151215,,*3E
$GPRMC,024746,A,4816.0490,N,444.7530,W,10.00,238.91,151215,,*3C
$GPRMC,024746,A,4816.0410,N,444.7728,W,10.00,238.91,151215,,*3F
$GPRMC,024746,A,4816.0330,N,444.7925,W,10.00,238.91,151215,,*39
$GPRMC,024746,A,4816.0251,N,444.8123,W,10.00,238.91,151215,,*3E
$GPRMC,024746,A,4816.0171,N,444.8320,W,10.00,238.91,151215,,*3E
$GPRMC,024746,A,4816.0091,N,444.8518,W,10.00,238.91,151215,,*3C
$GPRMC,024746,A,4816.0011,N,444.8715,W,10.00,238.91,151215,,*3B
$GPRMC,024746,A,4815.9932,N,444.8913,W,10.00,238.91,151215,,*31
$GPRMC,024746,A,4815.9852,N,444.9110,W,10.00,238.91,151215,,*3C
$GPRMC,024746,A,4815.9772,N,444.9308,W,10.00,238.91,151215,,*3A
$GPRMC,024746,A,4815.9692,N,444.9505,W,10.00,238.91,151215,,*3E
$GPRMC,024746,A,4815.9613,N,444.9702,W,10.00,238.91,151215,,*32
$GPRMC,024746,A,4815.9533,N,444.9900,W,10.00,238.91,151215,,*3F
$GPRMC,024746,A,4815.9453,N,445.0097,W,10.00,238.91,151215,,*37
$GPRMC,024746,A,4815.9373,N,445.0295,W,10.00,238.91,151215,,*32
$GPRMC,024746,A,4815.9294,N,445.0492,W,10.00,238.91,151215,,*3B
$GPRMC,024746,A,4815.9214,N,445.0690,W,10.00,238.91,151215,,*33
$GPRMC,024746,A,4815.9134,N,445.0887,W,10.00,238.91,151215,,*3A
$GPRMC,024746,A,4815.9054,N,445.1085,W,10.00,238.91,151215,,*36
$GPRMC,024746,A,4815.8975,N,445.1282,W,10.00,238.91,151215,,*38
$GPRMC,024746,A,4815.8895,N,445.1480,W,10.00,238.91,151215,,*33
$GPRMC,024746,A,4815.8815,N,445.1677,W,10.00,238.91,151215,,*31
$GPRMC,024746,A,4815.8735,N,445.1875,W,10.00,238.91,151215,,*30
$GPRMC,024746,A,4815.8656,N,445.2072,W,10.00,238.91,151215,,*38
$GPRMC,024746,A,4815.8576,N,445.2270,W,10.00,238.91,151215,,*39
$GPRMC,024746,A,4815.8496,N,445.2467,W,10.00,238.91,151215,,*36
$GPRMC,024746,A,4815.8416,N,445.2665,W,10.00,238.91,151215,,*3E
$GPRMC,024746,A,4815.8337,N,445.2862,W,10.00,238.91,151215,,*33
$GPRMC,024746,A,4815.8257,N,445.3060,W,10.00,238.91,151215,,*3F
$GPRMC,024746,A,4815.8177,N,445.3257,W,10.00,238.91,151215,,*38
$GPRMC,024746,A,4815.8097,N,445.3454,W,10.00,238.91,151215,,*32
$GPRMC,024746,A,4815.8018,N,445.3652,W,10.00,238.91,151215,,*31
$GPRMC,024746,A,4815.7938,N,445.3849,W,10.00,238.91,151215,,*31
$GPRMC,024746,A,4815.7858,N,445.4047,W,10.00,238.91,151215,,*37
