$GPRMC,082651,A,4819.5937,N,435.1745,W,10.00,235.51,281015,,*30
$GPRMC,082651,A,4819.5839,N,435.1959,W,10.00,235.51,281015,,*3C
$GPRMC,082651,A,4819.5742,N,435.2173,W,10.00,235.51,281015,,*3C
$GPRMC,082651,A,4819.5644,N,435.2386,W,10.00,235.51,281015,,*33
$GPRMC,082651,A,4819.5546,N,435.2600,W,10.00,235.51,281015,,*39
$GPRMC,082651,A,4819.5448,N,435.2814,W,10.00,235.51,281015,,*3D
$GPRMC,082651,A,4819.5350,N,435.3027,W,10.00,235.51,281015,,*3A
$GPRMC,082651,A,4819.5252,N,435.3241,W,10.00,235.51,281015,,*3B
$GPRMC,082651,A,4819.5154,N,435.3454,W,10.00,235.51,281015,,*3C
$GPRMC,082651,A,4819.5056,N,435.3668,W,10.00,235.51,281015,,*32
$GPRMC,082651,A,4819.4958,N,435.3882,W,10.00,235.51,281015,,*3E
$GPRMC,082651,A,4819.4861,N,435.4095,W,10.00,235.51,281015,,*3C
$GPRMC,082651,A,4819.4763,N,435.4309,W,10.00,235.51,281015,,*37
$GPRMC,082651,A,4819.4665,N,435.4523,W,10.00,235.51,281015,,*3E
$GPRMC,082651,A,4819.4567,N,435.4736,W,10.00,235.51,281015,,*39
$GPRMC,082651,A,4819.4469,N,435.4950,W,10.00,235.51,281015,,*38
$GPRMC,082651,A,4819.4371,N,435.5163,W,10.00,235.51,281015,,*3F
$GPRMC,082651,A,4819.4273,N,435.5377,W,10.00,235.51,281015,,*3B
$GPRMC,082651,A,4819.4175,N,435.5591,W,10.00,235.51,281015,,*30
$GPRMC,082651,A,4819.4078,N,435.5804,W,10.00,235.51,281015,,*3D
$GPRMC,082651,A,4819.3980,N,435.6018,W,10.00,235.51,281015,,*32
$GPRMC,082651,A,4819.3882,N,435.6231,W,10.00,235.51,281015,,*38
$GPRMC,082651,A,4819.3784,N,435.6445,W,10.00,235.51,281015,,*34
$GPRMC,082651,A,4819.3686,N,435.6659,W,10.00,235.51,281015,,*38
$GPRMC,082651,A,4819.3588,N,435.6872,W,10.00,235.51,281015,,*32
$GPRMC,082651,A,4819.3490,N,435.7086,W,10.00,235.51,281015,,*38
$GPRMC,082651,A,4819.3392,N,435.7299,W,10.00,235.51,281015,,*31
$GPRMC,082651,A,4819.3294,N,435.7513,W,10.00,235.51,281015,,*33
$GPRMC,082651,A,4819.3196,N,435.7727,W,10.00,235.51,281015,,*37
$GPRMC,082651,A,4819.3099,N,435.7940,W,10.00,235.51,281015,,*36
$GPRMC,082651,A,4819.3001,N,435.8154,W,10.00,235.51,281015,,*35
$GPRMC,082651,A,4819.2903,N,435.8367,W,10.00,235.51,281015,,*3D
$GPRMC,082651,A,4819.2805,N,435.8581,W,10.00,235.51,281015,,*34
$GPRMC,082651,A,4819.2707,N,435.8794,W,10.00,235.51,281015,,*3F
$GPRMC,082651,A,4819.2609,N,435.9008,W,10.00,235.51,281015,,*33
$GPRMC,082651,A,4819.2511,N,435.9222,W,10.00,235.51,281015,,*33
$GPRMC,082651,A,4819.2413,N,435.9435,W,10.00,235.51,281015,,*30
$GPRMC,082651,A,4819.2315,N,435.9649,W,10.00,235.51,281015,,*38
$GPRMC,082651,A,4819.2217,N,435.9862,W,10.00,235.51,281015,,*3C
$GPRMC,082651,A,4819.2120,N,436.0076,W,10.00,235.51,281015,,*3C
$GPRMC,082651,A,4819.2022,N,436.0289,W,10.00,235.51,281015,,*3D
$GPRMC,082651,A,4819.1924,N,436.0503,W,10.00,235.51,281015,,*34
$GPRMC,082651,A,4819.1826,N,436.0717,W,10.00,235.51,281015,,*30
$GPRMC,082651,A,4819.1728,N,436.0930,W,10.00,235.51,281015,,*3A
$GPRMC,082651,A,4819.1630,N,436.1144,W,10.00,235.51,281015,,*38
$GPRMC,082651,A,4819.1532,N,436.1357,W,10.00,235.51,281015,,*39
$GPRMC,082651,A,4819.1434,N,436.1571,W,10.00,235.51,281015,,*3C
$GPRMC,082651,A,4819.1336,N,436.1784,W,10.00,235.51,281015,,*31
$GPRMC,082651,A,4819.1238,N,436.1998,W,10.00,235.51,281015,,*3D
$GPRMC,082651,A,4819.1167,N,436.2153,W,10.00,284.34,281015,,*31
$GPRMC,082651,A,4819.1189,N,436.2280,W,10.00,284.34,281015,,*3C
$GPRMC,082651,A,4819.1210,N,436.2407,W,10.00,284.34,281015,,*36
$GPRMC,082651,A,4819.1232,N,436.2534,W,10.00,284.34,281015,,*37
$GPRMC,082651,A,4819.1254,N,436.2660,W,10.00,284.34,281015,,*35
$GPRMC,082651,A,4819.1275,N,436.2787,W,10.00,284.34,281015,,*3E
$GPRMC,082651,A,4819.1297,N,436.2914,W,10.00,284.34,281015,,*36
$GPRMC,082651,A,4819.1318,N,436.3040,W,10.00,284.34,281015,,*39
$GPRMC,082651,A,4819.1340,N,436.3167,W,10.00,284.34,281015,,*30
$GPRMC,082651,A,4819.1362,N,436.3294,W,10.00,284.34,281015,,*3F
$GPRMC,082651,A,4819.1383,N,436.3420,W,10.00,284.34,281015,,*39
$GPRMC,082651,A,4819.1405,N,436.3547,W,10.00,284.34,281015,,*30
$GPRMC,082651,A,4819.1426,N,436.3674,W,10.00,284.34,281015,,*32
$GPRMC,082651,A,4819.1448,N,436.3800,W,10.00,284.34,281015,,*37
$GPRMC,082651,A,4819.1470,N,436.3927,W,10.00,284.34,281015,,*38
$GPRMC,082651,A,4819.1491,N,436.4054,W,10.00,284.34,281015,,*3D
$GPRMC,082651,A,4819.1513,N,436.4180,W,10.00,284.34,281015,,*3E
$GPRMC,082651,A,4819.1534,N,436.4307,W,10.00,284.34,281015,,*36
$GPRMC,082651,A,4819.1556,N,436.4434,W,10.00,284.34,281015,,*35
$GPRMC,082651,A,4819.1578,N,436.4561,W,10.00,284.34,281015,,*38
$GPRMC,082651,A,4819.1599,N,436.4687,W,10.00,284.34,281015,,*3C
$GPRMC,082651,A,4819.1621,N,436.4814,W,10.00,284.34,281015,,*38
$GPRMC,082651,A,4819.1642,N,436.4941,W,10.00,284.34,281015,,*3C
$GPRMC,082651,A,4819.1664,N,436.5067,W,10.00,284.34,281015,,*34
$GPRMC,082651,A,4819.1686,N,436.5194,W,10.00,284.34,281015,,*35
$GPRMC,082651,A,4819.1707,N,436.5321,W,10.00,284.34,281015,,*31
$GPRMC,082651,A,4819.1729,N,436.5447,W,10.00,284.34,281015,,*3A
$GPRMC,082651,A,4819.1750,N,436.5574,W,10.00,284.34,281015,,*35
$GPRMC,082651,A,4819.1772,N,436.5701,W,10.00,284.34,281015,,*35
$GPRMC,082651,A,4819.1794,N,436.5827,W,10.00,284.34,281015,,*36
$GPRMC,082651,A,4819.1815,N,436.5954,W,10.00,284.34,281015,,*35
$GPRMC,082651,A,4819.1837,N,436.6081,W,10.00,284.34,281015,,*37
$GPRMC,082651,A,4819.1858,N,436.6208,W,10.00,284.34,281015,,*3D
$GPRMC,082651,A,4819.1880,N,436.6334,W,10.00,284.34,281015,,*36
$GPRMC,082651,A,4819.1902,N,436.6461,W,10.00,284.34,281015,,*3A
$GPRMC,082651,A,4819.1923,N,436.6588,W,10.00,284.34,281015,,*3F
$GPRMC,082651,A,4819.1945,N,436.6714,W,10.00,284.34,281015,,*38
$GPRMC,082651,A,4819.1966,N,436.6841,W,10.00,284.34,281015,,*36
$GPRMC,082651,A,4819.1988,N,436.6968,W,10.00,284.34,281015,,*3C
$GPRMC,082651,A,4819.2010,N,436.7094,W,10.00,284.34,281015,,*3C
$GPRMC,082651,A,4819.2031,N,436.7221,W,10.00,284.34,281015,,*33
$GPRMC,082651,A,4819.2053,N,436.7348,W,10.00,284.34,281015,,*39
$GPRMC,082651,A,4819.2074,N,436.7474,W,10.00,284.34,281015,,*34
$GPRMC,082651,A,4819.2096,N,436.7601,W,10.00,284.34,281015,,*38
$GPRMC,082651,A,4819.2118,N,436.7728,W,10.00,284.34,281015,,*35
$GPRMC,082651,A,4819.2139,N,436.7855,W,10.00,284.34,281015,,*33
$GPRMC,082651,A,4819.2161,N,436.7981,W,10.00,284.34,281015,,*36
$GPRMC,082651,A,4819.2182,N,436.8108,W,10.00,284.34,281015,,*3D
$GPRMC,082651,A,4819.2204,N,436.8235,W,10.00,284.34,281015,,*3D
$GPRMC,082651,A,4819.2226,N,436.8361,W,10.00,284.34,281015,,*3D
$GPRMC,082651,A,4819.2247,N,436.8488,W,10.00,284.34,281015,,*3A
$GPRMC,082651,A,4819.2269,N,436.8615,W,10.00,284.34,281015,,*30
$GPRMC,082651,A,4819.2290,N,436.8741,W,10.00,284.34,281015,,*36
$GPRMC,082651,A,4819.2312,N,436.8868,W,10.00,284.34,281015,,*39
$GPRMC,082651,A,4819.2334,N,436.8995,W,10.00,284.34,281015,,*3E
$GPRMC,082651,A,4819.2355,N,436.9122,W,10.00,284.34,281015,,*3C
$GPRMC,082651,A,4819.2377,N,436.9248,W,10.00,284.34,281015,,*33
$GPRMC,082651,A,4819.2398,N,436.9375,W,10.00,284.34,281015,,*3D
$GPRMC,082651,A,4819.2420,N,436.9502,W,10.00,284.34,281015,,*3F
$GPRMC,082651,A,4819.2441,N,436.9628,W,10.00,284.34,281015,,*33
$GPRMC,082651,A,4819.2463,N,436.9755,W,10.00,284.34,281015,,*38
$GPRMC,082651,A,4819.2485,N,436.9882,W,10.00,284.34,281015,,*35
$GPRMC,082651,A,4819.2506,N,437.0008,W,10.00,284.34,281015,,*3D
$GPRMC,082651,A,4819.2528,N,437.0135,W,10.00,284.34,281015,,*3E
$GPRMC,082651,A,4819.2549,N,437.0262,W,10.00,284.34,281015,,*38
$GPRMC,082651,A,4819.2571,N,437.0388,W,10.00,284.34,281015,,*36
$GPRMC,082651,A,4819.2593,N,437.0515,W,10.00,284.34,281015,,*38
$GPRMC,082651,A,4819.2614,N,437.0642,W,10.00,284.34,281015,,*35
$GPRMC,082651,A,4819.2636,N,437.0769,W,10.00,284.34,281015,,*3D
$GPRMC,082651,A,4819.2657,N,437.0895,W,10.00,284.34,281015,,*36
$GPRMC,082651,A,4819.2679,N,437.1022,W,10.00,284.34,281015,,*3F
$GPRMC,082651,A,4819.2701,N,437.1149,W,10.00,284.34,281015,,*3D
$GPRMC,082651,A,4819.2722,N,437.1275,W,10.00,284.34,281015,,*30
$GPRMC,082651,A,4819.2744,N,437.1402,W,10.00,284.34,281015,,*36
$GPRMC,082651,A,4819.2765,N,437.1529,W,10.00,284.34,281015,,*3D
$GPRMC,082651,A,4819.2787,N,437.1655,W,10.00,284.34,281015,,*39
$GPRMC,082651,A,4819.2809,N,437.1782,W,10.00,284.34,281015,,*3B
$GPRMC,082651,A,4819.2830,N,437.1909,W,10.00,284.34,281015,,*3C
$GPRMC,082651,A,4819.2852,N,437.2036,W,10.00,284.34,281015,,*3E
$GPRMC,082651,A,4819.2873,N,437.2162,W,10.00,284.34,281015,,*3D
$GPRMC,082651,A,4819.2895,N,437.2289,W,10.00,284.34,281015,,*33
$GPRMC,082651,A,4819.2916,N,437.2416,W,10.00,284.34,281015,,*39
$GPRMC,082651,A,4819.2938,N,437.2542,W,10.00,284.34,281015,,*35
$GPRMC,082651,A,4819.2960,N,437.2669,W,10.00,284.34,281015,,*32
$GPRMC,082651,A,4819.2981,N,437.2796,W,10.00,284.34,281015,,*3C
$GPRMC,082651,A,4819.3003,N,437.2922,W,10.00,284.34,281015,,*3F
$GPRMC,082651,A,4819.3024,N,437.3049,W,10.00,284.34,281015,,*3F
$GPRMC,082651,A,4819.3046,N,437.3176,W,10.00,284.34,281015,,*36
$GPRMC,082651,A,4819.3068,N,437.3303,W,10.00,284.34,281015,,*3A
$GPRMC,082651,A,4819.3089,N,437.3429,W,10.00,284.34,281015,,*3A
$GPRMC,082651,A,4819.3111,N,437.3556,W,10.00,284.34,281015,,*33
$GPRMC,082651,A,4819.3132,N,437.3683,W,10.00,284.34,281015,,*39
$GPRMC,082651,A,4819.3154,N,437.3809,W,10.00,284.34,281015,,*35
$GPRMC,082651,A,4819.3175,N,437.3936,W,10.00,284.34,281015,,*3B
$GPRMC,082651,A,4819.3197,N,437.4063,W,10.00,284.34,281015,,*39
$GPRMC,082651,A,4819.3219,N,437.4189,W,10.00,284.34,281015,,*39
$GPRMC,082651,A,4819.3240,N,437.4316,W,10.00,284.34,281015,,*31
$GPRMC,082651,A,4819.3262,N,437.4443,W,10.00,284.34,281015,,*36
$GPRMC,082651,A,4819.3283,N,437.4570,W,10.00,284.34,281015,,*38
$GPRMC,082651,A,4819.3305,N,437.4696,W,10.00,284.34,281015,,*3C
$GPRMC,082651,A,4819.3327,N,437.4823,W,10.00,284.34,281015,,*3C
$GPRMC,082651,A,4819.3348,N,437.4950,W,10.00,284.34,281015,,*30
$GPRMC,082651,A,4819.3370,N,437.5076,W,10.00,284.34,281015,,*37
$GPRMC,082651,A,4819.3391,N,437.5203,W,10.00,284.34,281015,,*38
$GPRMC,082651,A,4819.3413,N,437.5330,W,10.00,284.34,281015,,*34
$GPRMC,082651,A,4819.3434,N,437.5457,W,10.00,284.34,281015,,*37
$GPRMC,082651,A,4819.3456,N,437.5583,W,10.00,284.34,281015,,*3B
$GPRMC,082651,A,4819.3478,N,437.5710,W,10.00,284.34,281015,,*3F
$GPRMC,082651,A,4819.3499,N,437.5837,W,10.00,284.34,281015,,*3A
$GPRMC,082651,A,4819.3521,N,437.5963,W,10.00,284.34,281015,,*38
$GPRMC,082651,A,4819.3542,N,437.6090,W,10.00,284.34,281015,,*3B
$GPRMC,082651,A,4819.3564,N,437.6217,W,10.00,284.34,281015,,*32
$GPRMC,082651,A,4819.3586,N,437.6343,W,10.00,284.34,281015,,*3E
$GPRMC,082651,A,4819.3607,N,437.6470,W,10.00,284.34,281015,,*33
$GPRMC,082651,A,4819.3629,N,437.6597,W,10.00,284.34,281015,,*37
$GPRMC,082651,A,4819.3650,N,437.6724,W,10.00,284.34,281015,,*33
$GPRMC,082651,A,4819.3672,N,437.6850,W,10.00,284.34,281015,,*3F
$GPRMC,082651,A,4819.3693,N,437.6977,W,10.00,284.34,281015,,*34
$GPRMC,082651,A,4819.3715,N,437.7104,W,10.00,284.34,281015,,*36
$GPRMC,082651,A,4819.3737,N,437.7230,W,10.00,284.34,281015,,*32
$GPRMC,082651,A,4819.3758,N,437.7357,W,10.00,284.34,281015,,*3B
$GPRMC,082651,A,4819.3780,N,437.7484,W,10.00,284.34,281015,,*37
$GPRMC,082651,A,4819.3801,N,437.7611,W,10.00,284.34,281015,,*3F
$GPRMC,082651,A,4819.3823,N,437.7737,W,10.00,284.34,281015,,*3A
$GPRMC,082651,A,4819.3844,N,437.7864,W,10.00,284.34,281015,,*32
$GPRMC,082651,A,4819.3866,N,437.7991,W,10.00,284.34,281015,,*39
$GPRMC,082651,A,4819.3888,N,437.8117,W,10.00,284.34,281015,,*30
$GPRMC,082651,A,4819.3909,N,437.8244,W,10.00,284.34,281015,,*3D
$GPRMC,082651,A,4819.3931,N,437.8371,W,10.00,284.34,281015,,*31
$GPRMC,082651,A,4819.3952,N,437.8497,W,10.00,284.34,281015,,*3B
$GPRMC,082651,A,4819.3974,N,437.8624,W,10.00,284.34,281015,,*35
$GPRMC,082651,A,4819.3996,N,437.8751,W,10.00,284.34,281015,,*3A
$GPRMC,082651,A,4819.4017,N,437.8878,W,10.00,284.34,281015,,*39
$GPRMC,082651,A,4819.4039,N,437.9004,W,10.00,284.34,281015,,*37
$GPRMC,082651,A,4819.4060,N,437.9131,W,10.00,284.34,281015,,*3C
$GPRMC,082651,A,4819.4082,N,437.9258,W,10.00,284.34,281015,,*3C
$GPRMC,082651,A,4819.4103,N,437.9384,W,10.00,284.34,281015,,*34
$GPRMC,082651,A,4819.4125,N,437.9511,W,10.00,284.34,281015,,*3A
$GPRMC,082651,A,4819.4147,N,437.9638,W,10.00,284.34,281015,,*36
$GPRMC,082651,A,4819.4168,N,437.9765,W,10.00,284.34,281015,,*32
$GPRMC,082651,A,4819.4190,N,437.9891,W,10.00,284.34,281015,,*31
$GPRMC,082651,A,4819.4211,N,438.0018,W,10.00,284.34,281015,,*34
$GPRMC,082651,A,4819.4233,N,438.0145,W,10.00,284.34,281015,,*3D
$GPRMC,082651,A,4819.4254,N,438.0271,W,10.00,284.34,281015,,*38
$GPRMC,082651,A,4819.4276,N,438.0398,W,10.00,284.34,281015,,*3E
$GPRMC,082651,A,4819.4298,N,438.0525,W,10.00,284.34,281015,,*3E
$GPRMC,082651,A,4819.4319,N,438.0652,W,10.00,284.34,281015,,*35
$GPRMC,082651,A,4819.4341,N,438.0778,W,10.00,284.34,281015,,*31
$GPRMC,082651,A,4819.4362,N,438.0905,W,10.00,284.34,281015,,*34
$GPRMC,082651,A,4819.4384,N,438.1032,W,10.00,284.34,281015,,*30
$GPRMC,082651,A,4819.4405,N,438.1158,W,10.00,284.34,281015,,*33
$GPRMC,082651,A,4819.4427,N,438.1285,W,10.00,284.34,281015,,*30
$GPRMC,082651,A,4819.4449,N,438.1412,W,10.00,284.34,281015,,*30
$GPRMC,082651,A,4819.4470,N,438.1539,W,10.00,284.34,281015,,*32
$GPRMC,082651,A,4819.4492,N,438.1665,W,10.00,284.34,281015,,*34
$GPRMC,082651,A,4819.4513,N,438.1792,W,10.00,284.34,281015,,*35
$GPRMC,082651,A,4819.4535,N,438.1919,W,10.00,284.34,281015,,*3C
$GPRMC,082651,A,4819.4556,N,438.2045,W,10.00,284.34,281015,,*3A
$GPRMC,082651,A,4819.4578,N,438.2172,W,10.00,284.34,281015,,*33
$GPRMC,082651,A,4819.4600,N,438.2299,W,10.00,284.34,281015,,*39
$GPRMC,082651,A,4819.4621,N,438.2426,W,10.00,284.34,281015,,*38
$GPRMC,082651,A,4819.4643,N,438.2552,W,10.00,284.34,281015,,*3E
$GPRMC,082651,A,4819.4664,N,438.2679,W,10.00,284.34,281015,,*31
$GPRMC,082651,A,4819.4686,N,438.2806,W,10.00,284.34,281015,,*3B
$GPRMC,082651,A,4819.4707,N,438.2932,W,10.00,284.34,281015,,*35
$GPRMC,082651,A,4819.4729,N,438.3059,W,10.00,284.34,281015,,*3C
$GPRMC,082651,A,4819.4751,N,438.3186,W,10.00,284.34,281015,,*30
$GPRMC,082651,A,4819.4772,N,438.3313,W,10.00,284.34,281015,,*3F
$GPRMC,082651,A,4819.4794,N,438.3439,W,10.00,284.34,281015,,*38
$GPRMC,082651,A,4819.4815,N,438.3566,W,10.00,284.34,281015,,*35
$GPRMC,082651,A,4819.4837,N,438.3693,W,10.00,284.34,281015,,*3C
$GPRMC,082651,A,4819.4858,N,438.3819,W,10.00,284.34,281015,,*39
$GPRMC,082651,A,4819.4880,N,438.3946,W,10.00,284.34,281015,,*37
$GPRMC,082651,A,4819.4902,N,438.4073,W,10.00,284.34,281015,,*34
$GPRMC,082651,A,4819.4923,N,438.4200,W,10.00,284.34,281015,,*31
$GPRMC,082651,A,4819.4945,N,438.4326,W,10.00,284.34,281015,,*34
$GPRMC,082651,A,4819.4966,N,438.4453,W,10.00,284.34,281015,,*30
$GPRMC,082651,A,4819.4988,N,438.4580,W,10.00,284.34,281015,,*3F
$GPRMC,082651,A,4819.5009,N,438.4706,W,10.00,284.34,281015,,*32
$GPRMC,082651,A,4819.5031,N,438.4833,W,10.00,284.34,281015,,*30
$GPRMC,082651,A,4819.5052,N,438.4960,W,10.00,284.34,281015,,*32
$GPRMC,082651,A,4819.5074,N,438.5087,W,10.00,284.34,281015,,*37
$GPRMC,082651,A,4819.5096,N,438.5213,W,10.00,284.34,281015,,*34
$GPRMC,082651,A,4819.5117,N,438.5340,W,10.00,284.34,281015,,*3B
$GPRMC,082651,A,4819.5139,N,438.5467,W,10.00,284.34,281015,,*35
$GPRMC,082651,A,4819.5160,N,438.5593,W,10.00,284.34,281015,,*33
$GPRMC,082651,A,4819.5182,N,438.5720,W,10.00,284.34,281015,,*35
$GPRMC,082651,A,4819.5203,N,438.5847,W,10.00,284.34,281015,,*31
$GPRMC,082651,A,4819.5225,N,438.5974,W,10.00,284.34,281015,,*34
$GPRMC,082651,A,4819.5247,N,438.6100,W,10.00,284.34,281015,,*38
$GPRMC,082651,A,4819.5268,N,438.6227,W,10.00,284.34,281015,,*33
$GPRMC,082651,A,4819.5290,N,438.6354,W,10.00,284.34,281015,,*31
$GPRMC,082651,A,4819.5298,N,438.6403,W,10.00,328.63,281015,,*39
$GPRMC,082651,A,4819.5436,N,438.6529,W,10.00,328.63,281015,,*32
$GPRMC,082651,A,4819.5575,N,438.6656,W,10.00,328.63,281015,,*3F
$GPRMC,082651,A,4819.5713,N,438.6783,W,10.00,328.63,281015,,*34
$GPRMC,082651,A,4819.5852,N,438.6909,W,10.00,328.63,281015,,*32
$GPRMC,082651,A,4819.5990,N,438.7036,W,10.00,328.63,281015,,*39
$GPRMC,082651,A,4819.6129,N,438.7162,W,10.00,328.63,281015,,*30
$GPRMC,082651,A,4819.6267,N,438.7289,W,10.00,328.63,281015,,*3F
$GPRMC,082651,A,4819.6406,N,438.7416,W,10.00,328.63,281015,,*3E
$GPRMC,082651,A,4819.6544,N,438.7542,W,10.00,328.63,281015,,*39
$GPRMC,082651,A,4819.6683,N,438.7669,W,10.00,328.63,281015,,*3B
$GPRMC,082651,A,4819.6821,N,438.7796,W,10.00,328.63,281015,,*3C
$GPRMC,082651,A,4819.6960,N,438.7922,W,10.00,328.63,281015,,*39
$GPRMC,082651,A,4819.7098,N,438.8049,W,10.00,328.63,281015,,*3D
$GPRMC,082651,A,4819.7236,N,438.8175,W,10.00,328.63,281015,,*35
$GPRMC,082651,A,4819.7375,N,438.8302,W,10.00,328.63,281015,,*31
$GPRMC,082651,A,4819.7513,N,438.8429,W,10.00,328.63,281015,,*39
$GPRMC,082651,A,4819.7652,N,438.8555,W,10.00,328.63,281015,,*35
$GPRMC,082651,A,4819.7790,N,438.8682,W,10.00,328.63,281015,,*33
$GPRMC,082651,A,4819.7929,N,438.8809,W,10.00,328.63,281015,,*32
$GPRMC,082651,A,4819.8067,N,438.8935,W,10.00,328.63,281015,,*30
$GPRMC,082651,A,4819.8206,N,438.9062,W,10.00,328.63,281015,,*3F
$GPRMC,082651,A,4819.8344,N,438.9188,W,10.00,328.63,281015,,*3D
$GPRMC,082651,A,4819.8483,N,438.9315,W,10.00,328.63,281015,,*37
$GPRMC,082651,A,4819.8621,N,438.9442,W,10.00,328.63,281015,,*38
$GPRMC,082651,A,4819.8760,N,438.9568,W,10.00,328.63,281015,,*35
$GPRMC,082651,A,4819.8898,N,438.9695,W,10.00,328.63,281015,,*3C
$GPRMC,082651,A,4819.9036,N,438.9822,W,10.00,328.63,281015,,*33
$GPRMC,082651,A,4819.9175,N,438.9948,W,10.00,328.63,281015,,*38
$GPRMC,082651,A,4819.9313,N,439.0075,W,10.00,328.63,281015,,*35
$GPRMC,082651,A,4819.9452,N,439.0202,W,10.00,328.63,281015,,*35
$GPRMC,082651,A,4819.9590,N,439.0328,W,10.00,328.63,281015,,*33
$GPRMC,082651,A,4819.9729,N,439.0455,W,10.00,328.63,281015,,*3E
$GPRMC,082651,A,4819.9867,N,439.0581,W,10.00,328.63,281015,,*33
$GPRMC,082651,A,4820.0006,N,439.0708,W,10.00,328.63,281015,,*3C
$GPRMC,082651,A,4820.0144,N,439.0835,W,10.00,328.63,281015,,*3A
$GPRMC,082651,A,4820.0283,N,439.0961,W,10.00,328.63,281015,,*32
$GPRMC,082651,A,4820.0421,N,439.1088,W,10.00,328.63,281015,,*33
$GPRMC,082651,A,4820.0559,N,439.1215,W,10.00,328.63,281015,,*3B
$GPRMC,082651,A,4820.0698,N,439.1341,W,10.00,328.63,281015,,*35
$GPRMC,082651,A,4820.0836,N,439.1468,W,10.00,328.63,281015,,*33
$GPRMC,082651,A,4820.0975,N,439.1595,W,10.00,328.63,281015,,*36
$GPRMC,082651,A,4820.1113,N,439.1721,W,10.00,328.63,281015,,*32
$GPRMC,082651,A,4820.1252,N,439.1848,W,10.00,328.63,281015,,*34
$GPRMC,082651,A,4820.1390,N,439.1975,W,10.00,328.63,281015,,*34
$GPRMC,082651,A,4820.1529,N,439.2101,W,10.00,328.63,281015,,*38
$GPRMC,082651,A,4820.1667,N,439.2228,W,10.00,328.63,281015,,*39
$GPRMC,082651,A,4820.1806,N,439.2355,W,10.00,328.63,281015,,*3B
$GPRMC,082651,A,4820.1944,N,439.2481,W,10.00,328.63,281015,,*32
$GPRMC,082651,A,4820.2082,N,439.2608,W,10.00,328.63,281015,,*31
$GPRMC,082651,A,4820.2221,N,439.2735,W,10.00,328.63,281015,,*35
$GPRMC,082651,A,4820.2359,N,439.2861,W,10.00,328.63,281015,,*35
$GPRMC,082651,A,4820.2498,N,439.2988,W,10.00,328.63,281015,,*39
$GPRMC,082651,A,4820.2636,N,439.3115,W,10.00,328.63,281015,,*32
$GPRMC,082651,A,4820.2775,N,439.3241,W,10.00,328.63,281015,,*36
$GPRMC,082651,A,4820.2913,N,439.3368,W,10.00,328.63,281015,,*32
$GPRMC,082651,A,4820.2962,N,439.3412,W,10.00,192.77,281015,,*38
$GPRMC,082651,A,4820.2793,N,439.3470,W,10.00,192.77,281015,,*3C
$GPRMC,082651,A,4820.2624,N,439.3527,W,10.00,192.77,281015,,*32
$GPRMC,082651,A,4820.2454,N,439.3585,W,10.00,192.77,281015,,*3F
$GPRMC,082651,A,4820.2285,N,439.3642,W,10.00,192.77,281015,,*3D
$GPRMC,082651,A,4820.2116,N,439.3700,W,10.00,192.77,281015,,*33
$GPRMC,082651,A,4820.1947,N,439.3757,W,10.00,192.77,281015,,*3E
$GPRMC,082651,A,4820.1778,N,439.3815,W,10.00,192.77,281015,,*35
$GPRMC,082651,A,4820.1609,N,439.3872,W,10.00,192.77,281015,,*33
$GPRMC,082651,A,4820.1440,N,439.3930,W,10.00,192.77,281015,,*3B
$GPRMC,082651,A,4820.1271,N,439.3987,W,10.00,192.77,281015,,*33
$GPRMC,082651,A,4820.1102,N,439.4045,W,10.00,192.77,281015,,*34
$GPRMC,082651,A,4820.0933,N,439.4102,W,10.00,192.77,281015,,*3D
$GPRMC,082651,A,4820.0764,N,439.4160,W,10.00,192.77,281015,,*35
$GPRMC,082651,A,4820.0595,N,439.4217,W,10.00,192.77,281015,,*3A
$GPRMC,082651,A,4820.0426,N,439.4274,W,10.00,192.77,281015,,*36
$GPRMC,082651,A,4820.0257,N,439.4332,W,10.00,192.77,281015,,*35
$GPRMC,082651,A,4820.0088,N,439.4389,W,10.00,192.77,281015,,*35
$GPRMC,082651,A,4819.9919,N,439.4447,W,10.00,192.77,281015,,*32
$GPRMC,082651,A,4819.9750,N,439.4504,W,10.00,192.77,281015,,*37
$GPRMC,082651,A,4819.9581,N,439.4562,W,10.00,192.77,281015,,*39
$GPRMC,082651,A,4819.9412,N,439.4619,W,10.00,192.77,281015,,*3D
$GPRMC,082651,A,4819.9242,N,439.4677,W,10.00,192.77,281015,,*36
$GPRMC,082651,A,4819.9073,N,439.4734,W,10.00,192.77,281015,,*30
$GPRMC,082651,A,4819.8904,N,439.4792,W,10.00,192.77,281015,,*34
$GPRMC,082651,A,4819.8735,N,439.4849,W,10.00,192.77,281015,,*31
$GPRMC,082651,A,4819.8566,N,439.4907,W,10.00,192.77,281015,,*3E
$GPRMC,082651,A,4819.8397,N,439.4964,W,10.00,192.77,281015,,*33
$GPRMC,082651,A,4819.8228,N,439.5022,W,10.00,192.77,281015,,*3C
$GPRMC,082651,A,4819.8059,N,439.5079,W,10.00,192.77,281015,,*36
$GPRMC,082651,A,4819.7890,N,439.5137,W,10.00,192.77,281015,,*3F
$GPRMC,082651,A,4819.7721,N,439.5194,W,10.00,192.77,281015,,*33
$GPRMC,082651,A,4819.7552,N,439.5252,W,10.00,192.77,281015,,*3C
$GPRMC,082651,A,4819.7383,N,439.5309,W,10.00,192.77,281015,,*39
$GPRMC,082651,A,4819.7214,N,439.5366,W,10.00,192.77,281015,,*3F
$GPRMC,082651,A,4819.7045,N,439.5424,W,10.00,192.77,281015,,*38
$GPRMC,082651,A,4819.6876,N,439.5481,W,10.00,192.77,281015,,*3E
$GPRMC,082651,A,4819.6707,N,439.5539,W,10.00,192.77,281015,,*35
$GPRMC,082651,A,4819.6538,N,439.5596,W,10.00,192.77,281015,,*3E
$GPRMC,082651,A,4819.6369,N,439.5654,W,10.00,192.77,281015,,*31
$GPRMC,082651,A,4819.6199,N,439.5711,W,10.00,192.77,281015,,*3C
$GPRMC,082651,A,4819.6030,N,439.5769,W,10.00,192.77,281015,,*31
$GPRMC,082651,A,4819.5861,N,439.5826,W,10.00,192.77,281015,,*3A
$GPRMC,082651,A,4819.5692,N,439.5884,W,10.00,192.77,281015,,*30
$GPRMC,082651,A,4819.5523,N,439.5941,W,10.00,192.77,281015,,*31
$GPRMC,082651,A,4819.5354,N,439.5999,W,10.00,192.77,281015,,*32
$GPRMC,082651,A,4819.5185,N,439.6056,W,10.00,192.77,281015,,*35
$GPRMC,082651,A,4819.5016,N,439.6113,W,10.00,192.77,281015,,*3E
$GPRMC,082651,A,4819.4847,N,439.6171,W,10.00,192.77,281015,,*37
$GPRMC,082651,A,4819.4771,N,439.6197,W,10.00,139.84,281015,,*38
$GPRMC,082651,A,4819.4690,N,439.6094,W,10.00,139.84,281015,,*34
$GPRMC,082651,A,4819.4609,N,439.5991,W,10.00,139.84,281015,,*3B
$GPRMC,082651,A,4819.4527,N,439.5888,W,10.00,139.84,281015,,*3D
$GPRMC,082651,A,4819.4446,N,439.5785,W,10.00,139.84,281015,,*39
$GPRMC,082651,A,4819.4365,N,439.5682,W,10.00,139.84,281015,,*39
$GPRMC,082651,A,4819.4284,N,439.5579,W,10.00,139.84,281015,,*30
$GPRMC,082651,A,4819.4202,N,439.5476,W,10.00,139.84,281015,,*30
$GPRMC,082651,A,4819.4121,N,439.5373,W,10.00,139.84,281015,,*30
$GPRMC,082651,A,4819.4040,N,439.5271,W,10.00,139.84,281015,,*35
$GPRMC,082651,A,4819.3958,N,439.5168,W,10.00,139.84,281015,,*39
$GPRMC,082651,A,4819.3877,N,439.5065,W,10.00,139.84,281015,,*39
$GPRMC,082651,A,4819.3796,N,439.4962,W,10.00,139.84,281015,,*36
$GPRMC,082651,A,4819.3714,N,439.4859,W,10.00,139.84,281015,,*35
$GPRMC,082651,A,4819.3633,N,439.4756,W,10.00,139.84,281015,,*31
$GPRMC,082651,A,4819.3552,N,439.4653,W,10.00,139.84,281015,,*31
$GPRMC,082651,A,4819.3470,N,439.4550,W,10.00,139.84,281015,,*30
$GPRMC,082651,A,4819.3389,N,439.4447,W,10.00,139.84,281015,,*36
$GPRMC,082651,A,4819.3308,N,439.4344,W,10.00,139.84,281015,,*3B
$GPRMC,082651,A,4819.3226,N,439.4242,W,10.00,139.84,281015,,*31
$GPRMC,082651,A,4819.3145,N,439.4139,W,10.00,139.84,281015,,*38
$GPRMC,082651,A,4819.3064,N,439.4036,W,10.00,139.84,281015,,*34
$GPRMC,082651,A,4819.2982,N,439.3933,W,10.00,139.84,281015,,*3F
$GPRMC,082651,A,4819.2901,N,439.3830,W,10.00,139.84,281015,,*36
$GPRMC,082651,A,4819.2820,N,439.3727,W,10.00,139.84,281015,,*3D
$GPRMC,082651,A,4819.2739,N,439.3624,W,10.00,139.84,281015,,*38
$GPRMC,082651,A,4819.2657,N,439.3521,W,10.00,139.84,281015,,*37
$GPRMC,082651,A,4819.2576,N,439.3418,W,10.00,139.84,281015,,*3C
$GPRMC,082651,A,4819.2495,N,439.3316,W,10.00,139.84,281015,,*39
$GPRMC,082651,A,4819.2413,N,439.3213,W,10.00,139.84,281015,,*33
$GPRMC,082651,A,4819.2332,N,439.3110,W,10.00,139.84,281015,,*37
$GPRMC,082651,A,4819.2251,N,439.3007,W,10.00,139.84,281015,,*34
$GPRMC,082651,A,4819.2169,N,439.2904,W,10.00,139.84,281015,,*37
$GPRMC,082651,A,4819.2088,N,439.2801,W,10.00,139.84,281015,,*3D
$GPRMC,082651,A,4819.2007,N,439.2698,W,10.00,139.84,281015,,*34
$GPRMC,082651,A,4819.1925,N,439.2595,W,10.00,139.84,281015,,*30
$GPRMC,082651,A,4819.1844,N,439.2492,W,10.00,139.84,281015,,*30
$GPRMC,082651,A,4819.1763,N,439.2390,W,10.00,139.84,281015,,*3F
$GPRMC,082651,A,4819.1681,N,439.2287,W,10.00,139.84,281015,,*35
$GPRMC,082651,A,4819.1600,N,439.2184,W,10.00,139.84,281015,,*3C
$GPRMC,082651,A,4819.1519,N,439.2081,W,10.00,139.84,281015,,*33
$GPRMC,082651,A,4819.1438,N,439.1978,W,10.00,139.84,281015,,*3D
$GPRMC,082651,A,4819.1356,N,439.1875,W,10.00,139.84,281015,,*3E
$GPRMC,082651,A,4819.1275,N,439.1772,W,10.00,139.84,281015,,*36
$GPRMC,082651,A,4819.1194,N,439.1669,W,10.00,139.84,281015,,*31
$GPRMC,082651,A,4819.1112,N,439.1567,W,10.00,139.84,281015,,*32
$GPRMC,082651,A,4819.1031,N,439.1464,W,10.00,139.84,281015,,*30
$GPRMC,082651,A,4819.0950,N,439.1361,W,10.00,139.84,281015,,*3D
$GPRMC,082651,A,4819.0868,N,439.1258,W,10.00,139.84,281015,,*3C
$GPRMC,082651,A,4819.0787,N,439.1155,W,10.00,139.84,281015,,*3C
$GPRMC,082651,A,4819.0706,N,439.1052,W,10.00,139.84,281015,,*33
$GPRMC,082651,A,4819.0624,N,439.0949,W,10.00,139.84,281015,,*30
$GPRMC,082651,A,4819.0543,N,439.0846,W,10.00,139.84,281015,,*3C
$GPRMC,082651,A,4819.0462,N,439.0743,W,10.00,139.84,281015,,*34
$GPRMC,082651,A,4819.0380,N,439.0641,W,10.00,139.84,281015,,*3C
$GPRMC,082651,A,4819.0299,N,439.0538,W,10.00,139.84,281015,,*38
$GPRMC,082651,A,4819.0218,N,439.0435,W,10.00,139.84,281015,,*3D
$GPRMC,082651,A,4819.0136,N,439.0332,W,10.00,139.84,281015,,*32
$GPRMC,082651,A,4819.0055,N,439.0229,W,10.00,139.84,281015,,*3D
$GPRMC,082651,A,4818.9974,N,439.0126,W,10.00,139.84,281015,,*33
$GPRMC,082651,A,4818.9892,N,439.0023,W,10.00,139.84,281015,,*3E
$GPRMC,082651,A,4818.9811,N,438.9921,W,10.00,139.84,281015,,*36
$GPRMC,082651,A,4818.9730,N,438.9818,W,10.00,139.84,281015,,*31
$GPRMC,082651,A,4818.9649,N,438.9715,W,10.00,139.84,281015,,*3C
$GPRMC,082651,A,4818.9567,N,438.9612,W,10.00,139.84,281015,,*35
$GPRMC,082651,A,4818.9486,N,438.9509,W,10.00,139.84,281015,,*32
$GPRMC,082651,A,4818.9405,N,438.9406,W,10.00,139.84,281015,,*37
$GPRMC,082651,A,4818.9323,N,438.9303,W,10.00,139.84,281015,,*36
$GPRMC,082651,A,4818.9242,N,438.9200,W,10.00,139.84,281015,,*32
$GPRMC,082651,A,4818.9161,N,438.9098,W,10.00,139.84,281015,,*33
$GPRMC,082651,A,4818.9079,N,438.8995,W,10.00,139.84,281015,,*3E
$GPRMC,082651,A,4818.8998,N,438.8892,W,10.00,139.84,281015,,*3F
$GPRMC,082651,A,4818.8917,N,438.8789,W,10.00,139.84,281015,,*3D
$GPRMC,082651,A,4818.8835,N,438.8686,W,10.00,139.84,281015,,*32
$GPRMC,082651,A,4818.8754,N,438.8583,W,10.00,139.84,281015,,*3C
$GPRMC,082651,A,4818.8673,N,438.8480,W,10.00,139.84,281015,,*3A
$GPRMC,082651,A,4818.8591,N,438.8378,W,10.00,139.84,281015,,*35
$GPRMC,082651,A,4818.8510,N,438.8275,W,10.00,139.84,281015,,*30
$GPRMC,082651,A,4818.8429,N,438.8172,W,10.00,139.84,281015,,*3F
$GPRMC,082651,A,4818.8347,N,438.8069,W,10.00,139.84,281015,,*3B
$GPRMC,082651,A,4818.8266,N,438.7966,W,10.00,139.84,281015,,*30
$GPRMC,082651,A,4818.8185,N,438.7863,W,10.00,139.84,281015,,*3A
$GPRMC,082651,A,4818.8103,N,438.7760,W,10.00,139.84,281015,,*38
$GPRMC,082651,A,4818.8022,N,438.7657,W,10.00,139.84,281015,,*3F
$GPRMC,082651,A,4818.7941,N,438.7555,W,10.00,139.84,281015,,*3D
$GPRMC,082651,A,4818.7859,N,438.7452,W,10.00,139.84,281015,,*33
$GPRMC,082651,A,4818.7778,N,438.7349,W,10.00,139.84,281015,,*32
$GPRMC,082651,A,4818.7697,N,438.7246,W,10.00,139.84,281015,,*3C
$GPRMC,082651,A,4818.7615,N,438.7143,W,10.00,139.84,281015,,*30
$GPRMC,082651,A,4818.7534,N,438.7040,W,10.00,139.84,281015,,*32
$GPRMC,082651,A,4818.7453,N,438.6937,W,10.00,139.84,281015,,*3A
$GPRMC,082651,A,4818.7371,N,438.6835,W,10.00,139.84,281015,,*3E
$GPRMC,082651,A,4818.7290,N,438.6732,W,10.00,139.84,281015,,*38
$GPRMC,082651,A,4818.7209,N,438.6629,W,10.00,139.84,281015,,*33
$GPRMC,082651,A,4818.7127,N,438.6526,W,10.00,139.84,281015,,*30
$GPRMC,082651,A,4818.7046,N,438.6423,W,10.00,139.84,281015,,*32
$GPRMC,082651,A,4818.6965,N,438.6320,W,10.00,139.84,281015,,*3F
$GPRMC,082651,A,4818.6884,N,438.6218,W,10.00,139.84,281015,,*3B
$GPRMC,082651,A,4818.6802,N,438.6115,W,10.00,139.84,281015,,*3B
$GPRMC,082651,A,4818.6721,N,438.6012,W,10.00,139.84,281015,,*33
$GPRMC,082651,A,4818.6640,N,438.5909,W,10.00,139.84,281015,,*35
$GPRMC,082651,A,4818.6558,N,438.5806,W,10.00,139.84,281015,,*31
$GPRMC,082651,A,4818.6477,N,438.5703,W,10.00,139.84,281015,,*37
$GPRMC,082651,A,4818.6396,N,438.5600,W,10.00,139.84,281015,,*3D
$GPRMC,082651,A,4818.6314,N,438.5498,W,10.00,139.84,281015,,*34
$GPRMC,082651,A,4818.6233,N,438.5395,W,10.00,139.84,281015,,*3A
$GPRMC,082651,A,4818.6152,N,438.5292,W,10.00,139.84,281015,,*38
$GPRMC,082651,A,4818.6070,N,438.5189,W,10.00,139.84,281015,,*30
$GPRMC,082651,A,4818.5989,N,438.5086,W,10.00,139.84,281015,,*32
$GPRMC,082651,A,4818.5908,N,438.4983,W,10.00,139.84,281015,,*36
$GPRMC,082651,A,4818.5826,N,438.4881,W,10.00,139.84,281015,,*38
$GPRMC,082651,A,4818.5745,N,438.4778,W,10.00,139.84,281015,,*3B
$GPRMC,082651,A,4818.5664,N,438.4675,W,10.00,139.84,281015,,*35
$GPRMC,082651,A,4818.5582,N,438.4572,W,10.00,139.84,281015,,*3A
$GPRMC,082651,A,4818.5501,N,438.4469,W,10.00,139.84,281015,,*3A
$GPRMC,082651,A,4818.5420,N,438.4366,W,10.00,139.84,281015,,*30
$GPRMC,082651,A,4818.5338,N,438.4263,W,10.00,139.84,281015,,*3A
$GPRMC,082651,A,4818.5257,N,438.4161,W,10.00,139.84,281015,,*33
$GPRMC,082651,A,4818.5176,N,438.4058,W,10.00,139.84,281015,,*38
$GPRMC,082651,A,4818.5094,N,438.3955,W,10.00,139.84,281015,,*36
$GPRMC,082651,A,4818.5013,N,438.3852,W,10.00,139.84,281015,,*3F
$GPRMC,082651,A,4818.4932,N,438.3749,W,10.00,139.84,281015,,*31
$GPRMC,082651,A,4818.4850,N,438.3646,W,10.00,139.84,281015,,*3A
$GPRMC,082651,A,4818.4769,N,438.3544,W,10.00,139.84,281015,,*3E
$GPRMC,082651,A,4818.4688,N,438.3441,W,10.00,139.84,281015,,*34
$GPRMC,082651,A,4818.4606,N,438.3338,W,10.00,139.84,281015,,*3B
$GPRMC,082651,A,4818.4525,N,438.3235,W,10.00,139.84,281015,,*35
$GPRMC,082651,A,4818.4444,N,438.3132,W,10.00,139.84,281015,,*37
$GPRMC,082651,A,4818.4362,N,438.3029,W,10.00,139.84,281015,,*3F
