$GPRMC,011748,A,4821.2275,N,428.6286,W,10.00,266.36,161215,,*3B
$GPRMC,011748,A,4821.2263,N,428.6570,W,10.00,266.36,161215,,*32
$GPRMC,011748,A,4821.2250,N,428.6854,W,10.00,266.36,161215,,*39
$GPRMC,011748,A,4821.2238,N,428.7138,W,10.00,266.36,161215,,*35
$GPRMC,011748,A,4821.2226,N,428.7422,W,10.00,266.36,161215,,*34
$GPRMC,011748,A,4821.2214,N,428.7705,W,10.00,266.36,161215,,*33
$GPRMC,011748,A,4821.2202,N,428.7989,W,10.00,266.36,161215,,*3E
$GPRMC,011748,A,4821.2190,N,428.8273,W,10.00,266.36,161215,,*37
$GPRMC,011748,A,4821.2178,N,428.8557,W,10.00,266.36,161215,,*30
$GPRMC,011748,A,4821.2166,N,428.8841,W,10.00,266.36,161215,,*35
$GPRMC,011748,A,4821.2154,N,428.9125,W,10.00,266.36,161215,,*3E
$GPRMC,011748,A,4821.2142,N,428.9408,W,10.00,266.36,161215,,*33
$GPRMC,011748,A,4821.2130,N,428.9692,W,10.00,266.36,161215,,*37
$GPRMC,011748,A,4821.2118,N,428.9976,W,10.00,266.36,161215,,*38
$GPRMC,011748,A,4821.2106,N,429.0260,W,10.00,266.36,161215,,*33
$GPRMC,011748,A,4821.2094,N,429.0544,W,10.00,266.36,161215,,*38
$GPRMC,011748,A,4821.2082,N,429.0828,W,10.00,266.36,161215,,*38
$GPRMC,011748,A,4821.2070,N,429.1112,W,10.00,266.36,161215,,*34
$GPRMC,011748,A,4821.2058,N,429.1395,W,10.00,266.36,161215,,*33
$GPRMC,011748,A,4821.2046,N,429.1679,W,10.00,266.36,161215,,*3B
$GPRMC,011748,A,4821.2034,N,429.1963,W,10.00,266.36,161215,,*3A
$GPRMC,011748,A,4821.2022,N,429.2247,W,10.00,266.36,161215,,*33
$GPRMC,011748,A,4821.2010,N,429.2531,W,10.00,266.36,161215,,*34
$GPRMC,011748,A,4821.1998,N,429.2815,W,10.00,266.36,161215,,*35
$GPRMC,011748,A,4821.1986,N,429.3098,W,10.00,266.36,161215,,*36
$GPRMC,011748,A,4821.1974,N,429.3382,W,10.00,266.36,161215,,*33
$GPRMC,011748,A,4821.1962,N,429.3666,W,10.00,266.36,161215,,*3B
$GPRMC,011748,A,4821.1949,N,429.3950,W,10.00,266.36,161215,,*38
$GPRMC,011748,A,4821.1937,N,429.4234,W,10.00,266.36,161215,,*3F
$GPRMC,011748,A,4821.1925,N,429.4518,W,10.00,266.36,161215,,*35
$GPRMC,011748,A,4821.1913,N,429.4802,W,10.00,266.36,161215,,*36
$GPRMC,011748,A,4821.1901,N,429.5085,W,10.00,266.36,161215,,*33
$GPRMC,011748,A,4821.1889,N,429.5369,W,10.00,266.36,161215,,*33
$GPRMC,011748,A,4821.1877,N,429.5653,W,10.00,266.36,161215,,*3E
$GPRMC,011748,A,4821.1865,N,429.5937,W,10.00,266.36,161215,,*30
$GPRMC,011748,A,4821.1853,N,429.6221,W,10.00,266.36,161215,,*3A
$GPRMC,011748,A,4821.1841,N,429.6505,W,10.00,266.36,161215,,*38
$GPRMC,011748,A,4821.1829,N,429.6788,W,10.00,266.36,161215,,*31
$GPRMC,011748,A,4821.1817,N,429.7072,W,10.00,266.36,161215,,*3F
$GPRMC,011748,A,4821.1805,N,429.7356,W,10.00,266.36,161215,,*39
$GPRMC,011748,A,4821.1793,N,429.7640,W,10.00,266.36,161215,,*3B
$GPRMC,011748,A,4821.1781,N,429.7924,W,10.00,266.36,161215,,*35
$GPRMC,011748,A,4821.1768,N,429.8208,W,10.00,266.36,161215,,*38
$GPRMC,011748,A,4821.1756,N,429.8491,W,10.00,266.36,161215,,*33
$GPRMC,011748,A,4821.1744,N,429.8775,W,10.00,266.36,161215,,*39
$GPRMC,011748,A,4821.1732,N,429.9059,W,10.00,266.36,161215,,*30
$GPRMC,011748,A,4821.1720,N,429.9343,W,10.00,266.36,161215,,*3B
$GPRMC,011748,A,4821.1708,N,429.9627,W,10.00,266.36,161215,,*36
$GPRMC,011748,A,4821.1696,N,429.9911,W,10.00,266.36,161215,,*3A
$GPRMC,011748,A,4821.1684,N,430.0195,W,10.00,266.36,161215,,*3C
$GPRMC,011748,A,4821.1672,N,430.0478,W,10.00,266.36,161215,,*33
$GPRMC,011748,A,4821.1660,N,430.0762,W,10.00,266.36,161215,,*38
$GPRMC,011748,A,4821.1648,N,430.1046,W,10.00,266.36,161215,,*32
$GPRMC,011748,A,4821.1636,N,430.1330,W,10.00,266.36,161215,,*39
$GPRMC,011748,A,4821.1624,N,430.1614,W,10.00,266.36,161215,,*39
$GPRMC,011748,A,4821.1611,N,430.1898,W,10.00,266.36,161215,,*35
$GPRMC,011748,A,4821.1599,N,430.2181,W,10.00,266.36,161215,,*34
$GPRMC,011748,A,4821.1587,N,430.2465,W,10.00,266.36,161215,,*34
$GPRMC,011748,A,4821.1575,N,430.2749,W,10.00,266.36,161215,,*34
$GPRMC,011748,A,4821.1563,N,430.3033,W,10.00,266.36,161215,,*38
$GPRMC,011748,A,4821.1551,N,430.3317,W,10.00,266.36,161215,,*3C
$GPRMC,011748,A,4821.1539,N,430.3601,W,10.00,266.36,161215,,*30
$GPRMC,011748,A,4821.1527,N,430.3884,W,10.00,266.36,161215,,*3C
$GPRMC,011748,A,4821.1515,N,430.4168,W,10.00,266.36,161215,,*31
$GPRMC,011748,A,4821.1503,N,430.4452,W,10.00,266.36,161215,,*3A
$GPRMC,011748,A,4821.1490,N,430.4736,W,10.00,266.36,161215,,*30
$GPRMC,011748,A,4821.1478,N,430.5020,W,10.00,266.36,161215,,*37
$GPRMC,011748,A,4821.1466,N,430.5304,W,10.00,266.36,161215,,*3D
$GPRMC,011748,A,4821.1454,N,430.5587,W,10.00,266.36,161215,,*31
$GPRMC,011748,A,4821.1442,N,430.5871,W,10.00,266.36,161215,,*32
$GPRMC,011748,A,4821.1430,N,430.6155,W,10.00,266.36,161215,,*3B
$GPRMC,011748,A,4821.1418,N,430.6439,W,10.00,266.36,161215,,*3E
$GPRMC,011748,A,4821.1406,N,430.6723,W,10.00,266.36,161215,,*39
$GPRMC,011748,A,4821.1394,N,430.7007,W,10.00,266.36,161215,,*35
$GPRMC,011748,A,4821.1382,N,430.7290,W,10.00,266.36,161215,,*3E
$GPRMC,011748,A,4821.1369,N,430.7574,W,10.00,266.36,161215,,*36
$GPRMC,011748,A,4821.1357,N,430.7858,W,10.00,266.36,161215,,*38
$GPRMC,011748,A,4821.1345,N,430.8142,W,10.00,266.36,161215,,*36
$GPRMC,011748,A,4821.1333,N,430.8426,W,10.00,266.36,161215,,*30
$GPRMC,011748,A,4821.1321,N,430.8710,W,10.00,266.36,161215,,*35
$GPRMC,011748,A,4821.1309,N,430.8993,W,10.00,266.36,161215,,*3A
$GPRMC,011748,A,4821.1297,N,430.9277,W,10.00,266.36,161215,,*3C
$GPRMC,011748,A,4821.1285,N,430.9561,W,10.00,266.36,161215,,*3F
$GPRMC,011748,A,4821.1272,N,430.9845,W,10.00,266.36,161215,,*3C
$GPRMC,011748,A,4821.1260,N,431.0129,W,10.00,266.36,161215,,*34
$GPRMC,011748,A,4821.1248,N,431.0413,W,10.00,266.36,161215,,*32
$GPRMC,011748,A,4821.1236,N,431.0696,W,10.00,266.36,161215,,*34
$GPRMC,011748,A,4821.1224,N,431.0980,W,10.00,266.36,161215,,*3F
$GPRMC,011748,A,4821.1212,N,431.1264,W,10.00,266.36,161215,,*3A
$GPRMC,011748,A,4821.1200,N,431.1548,W,10.00,266.36,161215,,*30
$GPRMC,011748,A,4821.1188,N,431.1832,W,10.00,266.36,161215,,*33
$GPRMC,011748,A,4821.1175,N,431.2116,W,10.00,266.36,161215,,*3D
$GPRMC,011748,A,4821.1163,N,431.2399,W,10.00,266.36,161215,,*3F
$GPRMC,011748,A,4821.1151,N,431.2683,W,10.00,266.36,161215,,*30
$GPRMC,011748,A,4821.1139,N,431.2967,W,10.00,266.36,161215,,*3B
$GPRMC,011748,A,4821.1127,N,431.3251,W,10.00,266.36,161215,,*3B
$GPRMC,011748,A,4821.1115,N,431.3535,W,10.00,266.36,161215,,*3F
$GPRMC,011748,A,4821.1103,N,431.3819,W,10.00,266.36,161215,,*3B
$GPRMC,011748,A,4821.1091,N,431.4102,W,10.00,266.36,161215,,*35
$GPRMC,011748,A,4821.1078,N,431.4386,W,10.00,266.36,161215,,*3C
$GPRMC,011748,A,4821.1066,N,431.4670,W,10.00,266.36,161215,,*3F
$GPRMC,011748,A,4821.1054,N,431.4954,W,10.00,266.36,161215,,*37
$GPRMC,011748,A,4821.1042,N,431.5238,W,10.00,266.36,161215,,*30
$GPRMC,011748,A,4821.1030,N,431.5522,W,10.00,266.36,161215,,*39
$GPRMC,011748,A,4821.1018,N,431.5805,W,10.00,266.36,161215,,*3B
$GPRMC,011748,A,4821.1006,N,431.6089,W,10.00,266.36,161215,,*3B
$GPRMC,011748,A,4821.0993,N,431.6373,W,10.00,266.36,161215,,*39
$GPRMC,011748,A,4821.0981,N,431.6657,W,10.00,266.36,161215,,*39
$GPRMC,011748,A,4821.0969,N,431.6941,W,10.00,266.36,161215,,*37
$GPRMC,011748,A,4821.0957,N,431.7224,W,10.00,266.36,161215,,*33
$GPRMC,011748,A,4821.0945,N,431.7508,W,10.00,266.36,161215,,*39
$GPRMC,011748,A,4821.0933,N,431.7792,W,10.00,266.36,161215,,*39
$GPRMC,011748,A,4821.0920,N,431.8076,W,10.00,266.36,161215,,*39
$GPRMC,011748,A,4821.0908,N,431.8360,W,10.00,266.36,161215,,*37
$GPRMC,011748,A,4821.0896,N,431.8644,W,10.00,266.36,161215,,*32
$GPRMC,011748,A,4821.0884,N,431.8927,W,10.00,266.36,161215,,*3B
$GPRMC,011748,A,4821.0872,N,431.9211,W,10.00,266.36,161215,,*3D
$GPRMC,011748,A,4821.0860,N,431.9495,W,10.00,266.36,161215,,*34
$GPRMC,011748,A,4821.0848,N,431.9779,W,10.00,266.36,161215,,*3F
$GPRMC,011748,A,4821.0835,N,432.0063,W,10.00,266.36,161215,,*33
$GPRMC,011748,A,4821.0823,N,432.0347,W,10.00,266.36,161215,,*31
$GPRMC,011748,A,4821.0811,N,432.0630,W,10.00,266.36,161215,,*35
$GPRMC,011748,A,4821.0799,N,432.0914,W,10.00,266.36,161215,,*33
$GPRMC,011748,A,4821.0787,N,432.1198,W,10.00,266.36,161215,,*31
$GPRMC,011748,A,4821.0775,N,432.1482,W,10.00,266.36,161215,,*32
$GPRMC,011748,A,4821.0762,N,432.1766,W,10.00,266.36,161215,,*3D
$GPRMC,011748,A,4821.0750,N,432.2049,W,10.00,266.36,161215,,*35
$GPRMC,011748,A,4821.0738,N,432.2333,W,10.00,266.36,161215,,*35
$GPRMC,011748,A,4821.0726,N,432.2617,W,10.00,266.36,161215,,*39
$GPRMC,011748,A,4821.0714,N,432.2901,W,10.00,266.36,161215,,*30
$GPRMC,011748,A,4821.0701,N,432.3185,W,10.00,266.36,161215,,*31
$GPRMC,011748,A,4821.0689,N,432.3469,W,10.00,266.36,161215,,*37
$GPRMC,011748,A,4821.0677,N,432.3752,W,10.00,266.36,161215,,*3D
$GPRMC,011748,A,4821.0665,N,432.4036,W,10.00,266.36,161215,,*3C
$GPRMC,011748,A,4821.0653,N,432.4320,W,10.00,266.36,161215,,*3D
$GPRMC,011748,A,4821.0641,N,432.4604,W,10.00,266.36,161215,,*3D
$GPRMC,011748,A,4821.0628,N,432.4888,W,10.00,266.36,161215,,*38
$GPRMC,011748,A,4821.0616,N,432.5172,W,10.00,266.36,161215,,*38
$GPRMC,011748,A,4821.0604,N,432.5455,W,10.00,266.36,161215,,*3B
$GPRMC,011748,A,4821.0592,N,432.5739,W,10.00,266.36,161215,,*3E
$GPRMC,011748,A,4821.0580,N,432.6023,W,10.00,266.36,161215,,*32
$GPRMC,011748,A,4821.0567,N,432.6307,W,10.00,266.36,161215,,*3E
$GPRMC,011748,A,4821.0555,N,432.6591,W,10.00,266.36,161215,,*36
$GPRMC,011748,A,4821.0543,N,432.6874,W,10.00,266.36,161215,,*37
$GPRMC,011748,A,4821.0531,N,432.7158,W,10.00,266.36,161215,,*34
$GPRMC,011748,A,4821.0519,N,432.7442,W,10.00,266.36,161215,,*30
$GPRMC,011748,A,4821.0507,N,432.7726,W,10.00,266.36,161215,,*3E
$GPRMC,011748,A,4821.0494,N,432.8010,W,10.00,266.36,161215,,*38
$GPRMC,011748,A,4821.0482,N,432.8294,W,10.00,266.36,161215,,*31
$GPRMC,011748,A,4821.0470,N,432.8577,W,10.00,266.36,161215,,*36
$GPRMC,011748,A,4821.0458,N,432.8861,W,10.00,266.36,161215,,*36
$GPRMC,011748,A,4821.0446,N,432.9145,W,10.00,266.36,161215,,*37
$GPRMC,011748,A,4821.0433,N,432.9429,W,10.00,266.36,161215,,*3A
$GPRMC,011748,A,4821.0421,N,432.9713,W,10.00,266.36,161215,,*33
$GPRMC,011748,A,4821.0409,N,432.9996,W,10.00,266.36,161215,,*3A
$GPRMC,011748,A,4821.0397,N,433.0280,W,10.00,266.36,161215,,*3E
$GPRMC,011748,A,4821.0385,N,433.0564,W,10.00,266.36,161215,,*30
$GPRMC,011748,A,4821.0372,N,433.0848,W,10.00,266.36,161215,,*3B
$GPRMC,011748,A,4821.0360,N,433.1132,W,10.00,266.36,161215,,*3D
$GPRMC,011748,A,4821.0348,N,433.1416,W,10.00,266.36,161215,,*34
$GPRMC,011748,A,4821.0336,N,433.1699,W,10.00,266.36,161215,,*38
$GPRMC,011748,A,4821.0323,N,433.1983,W,10.00,266.36,161215,,*38
$GPRMC,011748,A,4821.0311,N,433.2267,W,10.00,266.36,161215,,*3B
$GPRMC,011748,A,4821.0299,N,433.2551,W,10.00,266.36,161215,,*38
$GPRMC,011748,A,4821.0287,N,433.2835,W,10.00,266.36,161215,,*38
$GPRMC,011748,A,4821.0275,N,433.3118,W,10.00,266.36,161215,,*32
$GPRMC,011748,A,4821.0262,N,433.3402,W,10.00,266.36,161215,,*3A
$GPRMC,011748,A,4821.0250,N,433.3686,W,10.00,266.36,161215,,*35
$GPRMC,011748,A,4821.0238,N,433.3970,W,10.00,266.36,161215,,*3D
$GPRMC,011748,A,4821.0226,N,433.4254,W,10.00,266.36,161215,,*38
$GPRMC,011748,A,4821.0214,N,433.4537,W,10.00,266.36,161215,,*3B
$GPRMC,011748,A,4821.0201,N,433.4821,W,10.00,266.36,161215,,*35
$GPRMC,011748,A,4821.0189,N,433.5105,W,10.00,266.36,161215,,*38
$GPRMC,011748,A,4821.0177,N,433.5389,W,10.00,266.36,161215,,*3F
$GPRMC,011748,A,4821.0165,N,433.5673,W,10.00,266.36,161215,,*3C
$GPRMC,011748,A,4821.0152,N,433.5957,W,10.00,266.36,161215,,*31
$GPRMC,011748,A,4821.0140,N,433.6240,W,10.00,266.36,161215,,*3C
$GPRMC,011748,A,4821.0128,N,433.6524,W,10.00,266.36,161215,,*37
$GPRMC,011748,A,4821.0116,N,433.6808,W,10.00,266.36,161215,,*39
$GPRMC,011748,A,4821.0103,N,433.7092,W,10.00,266.36,161215,,*37
$GPRMC,011748,A,4821.0091,N,433.7376,W,10.00,266.36,161215,,*34
$GPRMC,011748,A,4821.0079,N,433.7659,W,10.00,266.36,161215,,*3A
$GPRMC,011748,A,4821.0067,N,433.7943,W,10.00,266.36,161215,,*31
$GPRMC,011748,A,4821.0055,N,433.8227,W,10.00,266.36,161215,,*36
$GPRMC,011748,A,4821.0042,N,433.8511,W,10.00,266.36,161215,,*32
$GPRMC,011748,A,4821.0030,N,433.8795,W,10.00,266.36,161215,,*39
$GPRMC,011748,A,4821.0018,N,433.9078,W,10.00,266.36,161215,,*36
$GPRMC,011748,A,4821.0006,N,433.9362,W,10.00,266.36,161215,,*31
$GPRMC,011748,A,4820.9993,N,433.9646,W,10.00,266.36,161215,,*3F
$GPRMC,011748,A,4820.9981,N,433.9930,W,10.00,266.36,161215,,*32
$GPRMC,011748,A,4820.9969,N,434.0214,W,10.00,266.36,161215,,*37
$GPRMC,011748,A,4820.9957,N,434.0497,W,10.00,266.36,161215,,*37
$GPRMC,011748,A,4820.9944,N,434.0781,W,10.00,266.36,161215,,*31
$GPRMC,011748,A,4820.9932,N,434.1065,W,10.00,266.36,161215,,*3C
$GPRMC,011748,A,4820.9920,N,434.1349,W,10.00,266.36,161215,,*32
$GPRMC,011748,A,4820.9908,N,434.1633,W,10.00,266.36,161215,,*30
$GPRMC,011748,A,4820.9895,N,434.1916,W,10.00,266.36,161215,,*3D
$GPRMC,011748,A,4820.9883,N,434.2200,W,10.00,266.36,161215,,*35
$GPRMC,011748,A,4820.9871,N,434.2484,W,10.00,266.36,161215,,*32
$GPRMC,011748,A,4820.9859,N,434.2768,W,10.00,266.36,161215,,*39
$GPRMC,011748,A,4820.9846,N,434.3052,W,10.00,266.36,161215,,*38
$GPRMC,011748,A,4820.9834,N,434.3336,W,10.00,266.36,161215,,*3C
$GPRMC,011748,A,4820.9822,N,434.3619,W,10.00,266.36,161215,,*33
$GPRMC,011748,A,4820.9815,N,434.3773,W,10.00,239.47,161215,,*36
$GPRMC,011748,A,4820.9700,N,434.4065,W,10.00,239.47,161215,,*3A
$GPRMC,011748,A,4820.9585,N,434.4358,W,10.00,239.47,161215,,*38
$GPRMC,011748,A,4820.9470,N,434.4650,W,10.00,239.47,161215,,*3E
$GPRMC,011748,A,4820.9355,N,434.4942,W,10.00,239.47,161215,,*32
$GPRMC,011748,A,4820.9241,N,434.5235,W,10.00,239.47,161215,,*3C
$GPRMC,011748,A,4820.9126,N,434.5527,W,10.00,239.47,161215,,*3A
$GPRMC,011748,A,4820.9011,N,434.5819,W,10.00,239.47,161215,,*3F
$GPRMC,011748,A,4820.8896,N,434.6111,W,10.00,239.47,161215,,*3B
$GPRMC,011748,A,4820.8781,N,434.6404,W,10.00,239.47,161215,,*33
$GPRMC,011748,A,4820.8666,N,434.6696,W,10.00,239.47,161215,,*32
$GPRMC,011748,A,4820.8551,N,434.6988,W,10.00,239.47,161215,,*35
$GPRMC,011748,A,4820.8436,N,434.7281,W,10.00,239.47,161215,,*36
$GPRMC,011748,A,4820.8321,N,434.7573,W,10.00,239.47,161215,,*3D
$GPRMC,011748,A,4820.8206,N,434.7865,W,10.00,239.47,161215,,*33
$GPRMC,011748,A,4820.8091,N,434.8157,W,10.00,239.47,161215,,*38
$GPRMC,011748,A,4820.7976,N,434.8450,W,10.00,239.47,161215,,*35
$GPRMC,011748,A,4820.7861,N,434.8742,W,10.00,239.47,161215,,*32
$GPRMC,011748,A,4820.7746,N,434.9034,W,10.00,239.47,161215,,*3F
$GPRMC,011748,A,4820.7631,N,434.9326,W,10.00,239.47,161215,,*3E
$GPRMC,011748,A,4820.7516,N,434.9619,W,10.00,239.47,161215,,*31
$GPRMC,011748,A,4820.7402,N,434.9911,W,10.00,239.47,161215,,*32
$GPRMC,011748,A,4820.7287,N,435.0203,W,10.00,239.47,161215,,*39
$GPRMC,011748,A,4820.7172,N,435.0495,W,10.00,239.47,161215,,*39
$GPRMC,011748,A,4820.7057,N,435.0787,W,10.00,239.47,161215,,*3F
$GPRMC,011748,A,4820.6942,N,435.1080,W,10.00,239.47,161215,,*32
$GPRMC,011748,A,4820.6827,N,435.1372,W,10.00,239.47,161215,,*3E
$GPRMC,011748,A,4820.6712,N,435.1664,W,10.00,239.47,161215,,*35
$GPRMC,011748,A,4820.6597,N,435.1956,W,10.00,239.47,161215,,*34
$GPRMC,011748,A,4820.6482,N,435.2249,W,10.00,239.47,161215,,*37
$GPRMC,011748,A,4820.6367,N,435.2541,W,10.00,239.47,161215,,*34
$GPRMC,011748,A,4820.6252,N,435.2833,W,10.00,239.47,161215,,*3B
$GPRMC,011748,A,4820.6137,N,435.3125,W,10.00,239.47,161215,,*34
$GPRMC,011748,A,4820.6022,N,435.3418,W,10.00,239.47,161215,,*3A
$GPRMC,011748,A,4820.5907,N,435.3710,W,10.00,239.47,161215,,*3C
$GPRMC,011748,A,4820.5792,N,435.4002,W,10.00,239.47,161215,,*3D
$GPRMC,011748,A,4820.5677,N,435.4294,W,10.00,239.47,161215,,*3A
$GPRMC,011748,A,4820.5562,N,435.4586,W,10.00,239.47,161215,,*39
$GPRMC,011748,A,4820.5447,N,435.4879,W,10.00,239.47,161215,,*32
$GPRMC,011748,A,4820.5332,N,435.5171,W,10.00,239.47,161215,,*37
$GPRMC,011748,A,4820.5217,N,435.5463,W,10.00,239.47,161215,,*37
$GPRMC,011748,A,4820.5102,N,435.5755,W,10.00,239.47,161215,,*36
$GPRMC,011748,A,4820.4987,N,435.6047,W,10.00,239.47,161215,,*35
$GPRMC,011748,A,4820.4872,N,435.6340,W,10.00,239.47,161215,,*3A
$GPRMC,011748,A,4820.4757,N,435.6632,W,10.00,239.47,161215,,*32
$GPRMC,011748,A,4820.4642,N,435.6924,W,10.00,239.47,161215,,*3F
$GPRMC,011748,A,4820.4527,N,435.7216,W,10.00,239.47,161215,,*34
$GPRMC,011748,A,4820.4412,N,435.7508,W,10.00,239.47,161215,,*3B
$GPRMC,011748,A,4820.4297,N,435.7801,W,10.00,239.47,161215,,*34
$GPRMC,011748,A,4820.4182,N,435.8093,W,10.00,239.47,161215,,*3F
$GPRMC,011748,A,4820.4068,N,435.8385,W,10.00,239.47,161215,,*3E
$GPRMC,011748,A,4820.3953,N,435.8677,W,10.00,239.47,161215,,*30
$GPRMC,011748,A,4820.3838,N,435.8969,W,10.00,239.47,161215,,*3C
$GPRMC,011748,A,4820.3723,N,435.9261,W,10.00,239.47,161215,,*3B
$GPRMC,011748,A,4820.3608,N,435.9554,W,10.00,239.47,161215,,*32
$GPRMC,011748,A,4820.3493,N,435.9846,W,10.00,239.47,161215,,*3C
$GPRMC,011748,A,4820.3378,N,436.0138,W,10.00,239.47,161215,,*34
$GPRMC,011748,A,4820.3263,N,436.0430,W,10.00,239.47,161215,,*32
$GPRMC,011748,A,4820.3148,N,436.0722,W,10.00,239.47,161215,,*38
$GPRMC,011748,A,4820.3033,N,436.1014,W,10.00,239.47,161215,,*36
$GPRMC,011748,A,4820.2918,N,436.1307,W,10.00,239.47,161215,,*36
$GPRMC,011748,A,4820.2803,N,436.1599,W,10.00,239.47,161215,,*3C
$GPRMC,011748,A,4820.2688,N,436.1891,W,10.00,239.47,161215,,*34
$GPRMC,011748,A,4820.2573,N,436.2183,W,10.00,239.47,161215,,*3A
$GPRMC,011748,A,4820.2458,N,436.2475,W,10.00,239.47,161215,,*3E
$GPRMC,011748,A,4820.2343,N,436.2767,W,10.00,239.47,161215,,*33
$GPRMC,011748,A,4820.2228,N,436.3059,W,10.00,239.47,161215,,*34
$GPRMC,011748,A,4820.2113,N,436.3352,W,10.00,239.47,161215,,*37
$GPRMC,011748,A,4820.1998,N,436.3644,W,10.00,239.47,161215,,*3D
$GPRMC,011748,A,4820.1883,N,436.3936,W,10.00,239.47,161215,,*3C
$GPRMC,011748,A,4820.1768,N,436.4228,W,10.00,239.47,161215,,*35
$GPRMC,011748,A,4820.1653,N,436.4520,W,10.00,239.47,161215,,*33
$GPRMC,011748,A,4820.1538,N,436.4812,W,10.00,239.47,161215,,*31
$GPRMC,011748,A,4820.1423,N,436.5104,W,10.00,239.47,161215,,*35
$GPRMC,011748,A,4820.1308,N,436.5397,W,10.00,239.47,161215,,*33
$GPRMC,011748,A,4820.1193,N,436.5689,W,10.00,239.47,161215,,*39
$GPRMC,011748,A,4820.1078,N,436.5981,W,10.00,239.47,161215,,*3A
$GPRMC,011748,A,4820.0962,N,436.6273,W,10.00,239.47,161215,,*3C
$GPRMC,011748,A,4820.0847,N,436.6565,W,10.00,239.47,161215,,*3A
$GPRMC,011748,A,4820.0732,N,436.6857,W,10.00,239.47,161215,,*3B
$GPRMC,011748,A,4820.0617,N,436.7149,W,10.00,239.47,161215,,*3A
$GPRMC,011748,A,4820.0502,N,436.7441,W,10.00,239.47,161215,,*30
$GPRMC,011748,A,4820.0387,N,436.7733,W,10.00,239.47,161215,,*3D
$GPRMC,011748,A,4820.0272,N,436.8026,W,10.00,239.47,161215,,*3A
$GPRMC,011748,A,4820.0157,N,436.8318,W,10.00,239.47,161215,,*30
$GPRMC,011748,A,4820.0042,N,436.8610,W,10.00,239.47,161215,,*38
$GPRMC,011748,A,4819.9927,N,436.8902,W,10.00,239.47,161215,,*3D
$GPRMC,011748,A,4819.9812,N,436.9194,W,10.00,239.47,161215,,*3C
$GPRMC,011748,A,4819.9697,N,436.9486,W,10.00,239.47,161215,,*39
$GPRMC,011748,A,4819.9582,N,436.9778,W,10.00,239.47,161215,,*3C
$GPRMC,011748,A,4819.9467,N,437.0070,W,10.00,239.47,161215,,*31
$GPRMC,011748,A,4819.9352,N,437.0362,W,10.00,239.47,161215,,*30
$GPRMC,011748,A,4819.9237,N,437.0654,W,10.00,239.47,161215,,*32
$GPRMC,011748,A,4819.9122,N,437.0947,W,10.00,239.47,161215,,*38
$GPRMC,011748,A,4819.9007,N,437.1239,W,10.00,239.47,161215,,*3D
$GPRMC,011748,A,4819.8892,N,437.1531,W,10.00,239.47,161215,,*37
$GPRMC,011748,A,4819.8777,N,437.1823,W,10.00,239.47,161215,,*3D
$GPRMC,011748,A,4819.8662,N,437.2115,W,10.00,239.47,161215,,*37
$GPRMC,011748,A,4819.8547,N,437.2407,W,10.00,239.47,161215,,*35
$GPRMC,011748,A,4819.8432,N,437.2699,W,10.00,239.47,161215,,*33
$GPRMC,011748,A,4819.8317,N,437.2991,W,10.00,239.47,161215,,*34
$GPRMC,011748,A,4819.8202,N,437.3283,W,10.00,239.47,161215,,*38
$GPRMC,011748,A,4819.8087,N,437.3575,W,10.00,239.47,161215,,*39
$GPRMC,011748,A,4819.7972,N,437.3867,W,10.00,239.47,161215,,*3B
$GPRMC,011748,A,4819.7857,N,437.4159,W,10.00,239.47,161215,,*3E
$GPRMC,011748,A,4819.7742,N,437.4451,W,10.00,239.47,161215,,*38
$GPRMC,011748,A,4819.7626,N,437.4743,W,10.00,239.47,161215,,*3B
$GPRMC,011748,A,4819.7511,N,437.5035,W,10.00,239.47,161215,,*3B
$GPRMC,011748,A,4819.7396,N,437.5328,W,10.00,239.47,161215,,*3D
$GPRMC,011748,A,4819.7281,N,437.5620,W,10.00,239.47,161215,,*37
$GPRMC,011748,A,4819.7166,N,437.5912,W,10.00,239.47,161215,,*33
$GPRMC,011748,A,4819.7051,N,437.6204,W,10.00,239.47,161215,,*39
$GPRMC,011748,A,4819.6936,N,437.6496,W,10.00,239.47,161215,,*3D
$GPRMC,011748,A,4819.6821,N,437.6788,W,10.00,239.47,161215,,*36
$GPRMC,011748,A,4819.6706,N,437.7080,W,10.00,239.47,161215,,*32
$GPRMC,011748,A,4819.6591,N,437.7372,W,10.00,239.47,161215,,*30
$GPRMC,011748,A,4819.6476,N,437.7664,W,10.00,239.47,161215,,*3A
$GPRMC,011748,A,4819.6361,N,437.7956,W,10.00,239.47,161215,,*35
$GPRMC,011748,A,4819.6246,N,437.8248,W,10.00,239.47,161215,,*3A
$GPRMC,011748,A,4819.6131,N,437.8540,W,10.00,239.47,161215,,*36
$GPRMC,011748,A,4819.6016,N,437.8832,W,10.00,239.47,161215,,*3A
$GPRMC,011748,A,4819.5901,N,437.9124,W,10.00,239.47,161215,,*39
$GPRMC,011748,A,4819.5785,N,437.9416,W,10.00,239.47,161215,,*3F
$GPRMC,011748,A,4819.5670,N,437.9708,W,10.00,239.47,161215,,*38
$GPRMC,011748,A,4819.5555,N,438.0000,W,10.00,239.47,161215,,*35
$GPRMC,011748,A,4819.5440,N,438.0292,W,10.00,239.47,161215,,*39
$GPRMC,011748,A,4819.5325,N,438.0584,W,10.00,239.47,161215,,*3D
$GPRMC,011748,A,4819.5210,N,438.0876,W,10.00,239.47,161215,,*3A
$GPRMC,011748,A,4819.5095,N,438.1168,W,10.00,239.47,161215,,*32
$GPRMC,011748,A,4819.4980,N,438.1460,W,10.00,239.47,161215,,*33
$GPRMC,011748,A,4819.4865,N,438.1752,W,10.00,239.47,161215,,*3B
$GPRMC,011748,A,4819.4750,N,438.2044,W,10.00,239.47,161215,,*31
$GPRMC,011748,A,4819.4635,N,438.2336,W,10.00,239.47,161215,,*35
$GPRMC,011748,A,4819.4520,N,438.2628,W,10.00,239.47,161215,,*38
$GPRMC,011748,A,4819.4405,N,438.2920,W,10.00,239.47,161215,,*39
$GPRMC,011748,A,4819.4289,N,438.3212,W,10.00,239.47,161215,,*30
$GPRMC,011748,A,4819.4174,N,438.3504,W,10.00,239.47,161215,,*31
$GPRMC,011748,A,4819.4059,N,438.3796,W,10.00,239.47,161215,,*36
$GPRMC,011748,A,4819.3944,N,438.4088,W,10.00,239.47,161215,,*3B
$GPRMC,011748,A,4819.3829,N,438.4380,W,10.00,239.47,161215,,*3A
$GPRMC,011748,A,4819.3714,N,438.4672,W,10.00,239.47,161215,,*33
$GPRMC,011748,A,4819.3599,N,438.4964,W,10.00,239.47,161215,,*3C
$GPRMC,011748,A,4819.3484,N,438.5256,W,10.00,239.47,161215,,*3A
$GPRMC,011748,A,4819.3454,N,438.5332,W,10.00,243.31,161215,,*38
$GPRMC,011748,A,4819.3359,N,438.5613,W,10.00,243.31,161215,,*34
$GPRMC,011748,A,4819.3265,N,438.5895,W,10.00,243.31,161215,,*3A
$GPRMC,011748,A,4819.3171,N,438.6176,W,10.00,243.31,161215,,*3B
$GPRMC,011748,A,4819.3077,N,438.6457,W,10.00,243.31,161215,,*3A
$GPRMC,011748,A,4819.2982,N,438.6738,W,10.00,243.31,161215,,*32
$GPRMC,011748,A,4819.2888,N,438.7020,W,10.00,243.31,161215,,*36
$GPRMC,011748,A,4819.2794,N,438.7301,W,10.00,243.31,161215,,*34
$GPRMC,011748,A,4819.2699,N,438.7582,W,10.00,243.31,161215,,*35
$GPRMC,011748,A,4819.2605,N,438.7864,W,10.00,243.31,161215,,*35
$GPRMC,011748,A,4819.2511,N,438.8145,W,10.00,243.31,161215,,*36
$GPRMC,011748,A,4819.2416,N,438.8426,W,10.00,243.31,161215,,*30
$GPRMC,011748,A,4819.2322,N,438.8707,W,10.00,243.31,161215,,*30
$GPRMC,011748,A,4819.2228,N,438.8989,W,10.00,243.31,161215,,*33
$GPRMC,011748,A,4819.2134,N,438.9270,W,10.00,243.31,161215,,*31
$GPRMC,011748,A,4819.2039,N,438.9551,W,10.00,243.31,161215,,*39
$GPRMC,011748,A,4819.1945,N,438.9832,W,10.00,243.31,161215,,*30
$GPRMC,011748,A,4819.1851,N,439.0114,W,10.00,243.31,161215,,*31
$GPRMC,011748,A,4819.1756,N,439.0395,W,10.00,243.31,161215,,*32
$GPRMC,011748,A,4819.1662,N,439.0676,W,10.00,243.31,161215,,*3C
$GPRMC,011748,A,4819.1568,N,439.0957,W,10.00,243.31,161215,,*39
$GPRMC,011748,A,4819.1473,N,439.1239,W,10.00,243.31,161215,,*30
$GPRMC,011748,A,4819.1379,N,439.1520,W,10.00,243.31,161215,,*32
$GPRMC,011748,A,4819.1285,N,439.1801,W,10.00,243.31,161215,,*3E
$GPRMC,011748,A,4819.1190,N,439.2082,W,10.00,243.31,161215,,*39
$GPRMC,011748,A,4819.1096,N,439.2364,W,10.00,243.31,161215,,*35
$GPRMC,011748,A,4819.1002,N,439.2645,W,10.00,243.31,161215,,*3E
$GPRMC,011748,A,4819.0907,N,439.2926,W,10.00,243.31,161215,,*39
$GPRMC,011748,A,4819.0813,N,439.3207,W,10.00,243.31,161215,,*34
$GPRMC,011748,A,4819.0719,N,439.3489,W,10.00,243.31,161215,,*31
$GPRMC,011748,A,4819.0624,N,439.3770,W,10.00,243.31,161215,,*3B
$GPRMC,011748,A,4819.0530,N,439.4051,W,10.00,243.31,161215,,*3E
$GPRMC,011748,A,4819.0436,N,439.4332,W,10.00,243.31,161215,,*3F
$GPRMC,011748,A,4819.0341,N,439.4613,W,10.00,243.31,161215,,*3E
$GPRMC,011748,A,4819.0247,N,439.4895,W,10.00,243.31,161215,,*39
$GPRMC,011748,A,4819.0153,N,439.5176,W,10.00,243.31,161215,,*3A
$GPRMC,011748,A,4819.0058,N,439.5457,W,10.00,243.31,161215,,*36
$GPRMC,011748,A,4818.9964,N,439.5738,W,10.00,243.31,161215,,*32
$GPRMC,011748,A,4818.9870,N,439.6020,W,10.00,243.31,161215,,*3B
$GPRMC,011748,A,4818.9775,N,439.6301,W,10.00,243.31,161215,,*31
$GPRMC,011748,A,4818.9681,N,439.6582,W,10.00,243.31,161215,,*36
$GPRMC,011748,A,4818.9587,N,439.6863,W,10.00,243.31,161215,,*31
$GPRMC,011748,A,4818.9492,N,439.7144,W,10.00,243.31,161215,,*39
$GPRMC,011748,A,4818.9398,N,439.7426,W,10.00,243.31,161215,,*35
$GPRMC,011748,A,4818.9304,N,439.7707,W,10.00,243.31,161215,,*30
$GPRMC,011748,A,4818.9209,N,439.7988,W,10.00,243.31,161215,,*35
$GPRMC,011748,A,4818.9115,N,439.8269,W,10.00,243.31,161215,,*30
$GPRMC,011748,A,4818.9021,N,439.8550,W,10.00,243.31,161215,,*3B
$GPRMC,011748,A,4818.8926,N,439.8832,W,10.00,243.31,161215,,*3D
$GPRMC,011748,A,4818.8832,N,439.9113,W,10.00,243.31,161215,,*32
$GPRMC,011748,A,4818.8738,N,439.9394,W,10.00,243.31,161215,,*3A
$GPRMC,011748,A,4818.8643,N,439.9675,W,10.00,243.31,161215,,*3D
$GPRMC,011748,A,4818.8549,N,439.9956,W,10.00,243.31,161215,,*3A
$GPRMC,011748,A,4818.8455,N,440.0238,W,10.00,243.31,161215,,*32
$GPRMC,011748,A,4818.8360,N,440.0519,W,10.00,243.31,161215,,*37
$GPRMC,011748,A,4818.8266,N,440.0800,W,10.00,243.31,161215,,*35
$GPRMC,011748,A,4818.8171,N,440.1081,W,10.00,243.31,161215,,*30
$GPRMC,011748,A,4818.8077,N,440.1362,W,10.00,243.31,161215,,*39
$GPRMC,011748,A,4818.7983,N,440.1644,W,10.00,243.31,161215,,*35
$GPRMC,011748,A,4818.7888,N,440.1925,W,10.00,243.31,161215,,*37
$GPRMC,011748,A,4818.7794,N,440.2206,W,10.00,243.31,161215,,*3C
$GPRMC,011748,A,4818.7700,N,440.2487,W,10.00,243.31,161215,,*3E
$GPRMC,011748,A,4818.7605,N,440.2768,W,10.00,243.31,161215,,*38
$GPRMC,011748,A,4818.7511,N,440.3050,W,10.00,243.31,161215,,*33
$GPRMC,011748,A,4818.7417,N,440.3331,W,10.00,243.31,161215,,*30
$GPRMC,011748,A,4818.7322,N,440.3612,W,10.00,243.31,161215,,*35
$GPRMC,011748,A,4818.7228,N,440.3893,W,10.00,243.31,161215,,*39
$GPRMC,011748,A,4818.7133,N,440.4174,W,10.00,243.31,161215,,*37
$GPRMC,011748,A,4818.7039,N,440.4455,W,10.00,243.31,161215,,*3A
$GPRMC,011748,A,4818.6945,N,440.4737,W,10.00,243.31,161215,,*3E
$GPRMC,011748,A,4818.6850,N,440.5018,W,10.00,243.31,161215,,*30
$GPRMC,011748,A,4818.6756,N,440.5299,W,10.00,243.31,161215,,*32
$GPRMC,011748,A,4818.6662,N,440.5580,W,10.00,243.31,161215,,*3B
$GPRMC,011748,A,4818.6567,N,440.5861,W,10.00,243.31,161215,,*3F
$GPRMC,011748,A,4818.6473,N,440.6142,W,10.00,243.31,161215,,*30
$GPRMC,011748,A,4818.6378,N,440.6423,W,10.00,243.31,161215,,*3E
$GPRMC,011748,A,4818.6284,N,440.6705,W,10.00,243.31,161215,,*3B
$GPRMC,011748,A,4818.6190,N,440.6986,W,10.00,243.31,161215,,*38
$GPRMC,011748,A,4818.6095,N,440.7267,W,10.00,243.31,161215,,*39
$GPRMC,011748,A,4818.6001,N,440.7548,W,10.00,243.31,161215,,*3E
$GPRMC,011748,A,4818.5906,N,440.7829,W,10.00,243.31,161215,,*39
$GPRMC,011748,A,4818.5812,N,440.8110,W,10.00,243.31,161215,,*31
$GPRMC,011748,A,4818.5718,N,440.8392,W,10.00,243.31,161215,,*3C
$GPRMC,011748,A,4818.5623,N,440.8673,W,10.00,243.31,161215,,*3F
$GPRMC,011748,A,4818.5529,N,440.8954,W,10.00,243.31,161215,,*3C
$GPRMC,011748,A,4818.5435,N,440.9235,W,10.00,243.31,161215,,*3D
$GPRMC,011748,A,4818.5340,N,440.9516,W,10.00,243.31,161215,,*3E
$GPRMC,011748,A,4818.5246,N,440.9797,W,10.00,243.31,161215,,*32
$GPRMC,011748,A,4818.5151,N,441.0078,W,10.00,243.31,161215,,*39
$GPRMC,011748,A,4818.5057,N,441.0359,W,10.00,243.31,161215,,*3E
$GPRMC,011748,A,4818.4963,N,441.0641,W,10.00,243.31,161215,,*3D
$GPRMC,011748,A,4818.4868,N,441.0922,W,10.00,243.31,161215,,*3D
$GPRMC,011748,A,4818.4774,N,441.1203,W,10.00,243.31,161215,,*36
$GPRMC,011748,A,4818.4679,N,441.1484,W,10.00,243.31,161215,,*33
$GPRMC,011748,A,4818.4585,N,441.1765,W,10.00,243.31,161215,,*3F
$GPRMC,011748,A,4818.4491,N,441.2046,W,10.00,243.31,161215,,*3E
$GPRMC,011748,A,4818.4396,N,441.2327,W,10.00,243.31,161215,,*3A
$GPRMC,011748,A,4818.4302,N,441.2608,W,10.00,243.31,161215,,*3F
$GPRMC,011748,A,4818.4207,N,441.2890,W,10.00,243.31,161215,,*34
$GPRMC,011748,A,4818.4113,N,441.3171,W,10.00,243.31,161215,,*35
$GPRMC,011748,A,4818.4019,N,441.3452,W,10.00,243.31,161215,,*3A
$GPRMC,011748,A,4818.3924,N,441.3733,W,10.00,243.31,161215,,*3E
$GPRMC,011748,A,4818.3830,N,441.4014,W,10.00,243.31,161215,,*3F
$GPRMC,011748,A,4818.3735,N,441.4295,W,10.00,243.31,161215,,*3E
$GPRMC,011748,A,4818.3641,N,441.4576,W,10.00,243.31,161215,,*36
$GPRMC,011748,A,4818.3546,N,441.4857,W,10.00,243.31,161215,,*3C
$GPRMC,011748,A,4818.3452,N,441.5138,W,10.00,243.31,161215,,*39
$GPRMC,011748,A,4818.3358,N,441.5420,W,10.00,243.31,161215,,*38
$GPRMC,011748,A,4818.3263,N,441.5701,W,10.00,243.31,161215,,*31
$GPRMC,011748,A,4818.3169,N,441.5982,W,10.00,243.31,161215,,*3D
$GPRMC,011748,A,4818.3074,N,441.6263,W,10.00,243.31,161215,,*37
$GPRMC,011748,A,4818.2980,N,441.6544,W,10.00,243.31,161215,,*36
$GPRMC,011748,A,4818.2886,N,441.6825,W,10.00,243.31,161215,,*3B
$GPRMC,011748,A,4818.2791,N,441.7106,W,10.00,243.31,161215,,*3B
$GPRMC,011748,A,4818.2697,N,441.7387,W,10.00,243.31,161215,,*37
$GPRMC,011748,A,4818.2602,N,441.7668,W,10.00,243.31,161215,,*3F
$GPRMC,011748,A,4818.2508,N,441.7949,W,10.00,243.31,161215,,*3A
$GPRMC,011748,A,4818.2413,N,441.8230,W,10.00,243.31,161215,,*3B
$GPRMC,011748,A,4818.2319,N,441.8512,W,10.00,243.31,161215,,*31
$GPRMC,011748,A,4818.2225,N,441.8793,W,10.00,243.31,161215,,*34
$GPRMC,011748,A,4818.2130,N,441.9074,W,10.00,243.31,161215,,*3C
$GPRMC,011748,A,4818.2036,N,441.9355,W,10.00,243.31,161215,,*3B
$GPRMC,011748,A,4818.1941,N,441.9636,W,10.00,243.31,161215,,*31
$GPRMC,011748,A,4818.1847,N,441.9917,W,10.00,243.31,161215,,*3A
$GPRMC,011748,A,4818.1752,N,442.0198,W,10.00,243.31,161215,,*34
$GPRMC,011748,A,4818.1658,N,442.0479,W,10.00,243.31,161215,,*35
$GPRMC,011748,A,4818.1563,N,442.0760,W,10.00,243.31,161215,,*35
$GPRMC,011748,A,4818.1469,N,442.1041,W,10.00,243.31,161215,,*3B
$GPRMC,011748,A,4818.1375,N,442.1322,W,10.00,243.31,161215,,*37
$GPRMC,011748,A,4818.1280,N,442.1603,W,10.00,243.31,161215,,*3A
$GPRMC,011748,A,4818.1186,N,442.1884,W,10.00,243.31,161215,,*3E
$GPRMC,011748,A,4818.1091,N,442.2165,W,10.00,243.31,161215,,*3C
$GPRMC,011748,A,4818.0997,N,442.2446,W,10.00,243.31,161215,,*36
$GPRMC,011748,A,4818.0902,N,442.2728,W,10.00,243.31,161215,,*31
$GPRMC,011748,A,4818.0808,N,442.3009,W,10.00,243.31,161215,,*3F
$GPRMC,011748,A,4818.0713,N,442.3290,W,10.00,243.31,161215,,*38
$GPRMC,011748,A,4818.0619,N,442.3571,W,10.00,243.31,161215,,*3B
$GPRMC,011748,A,4818.0525,N,442.3852,W,10.00,243.31,161215,,*3B
$GPRMC,011748,A,4818.0430,N,442.4133,W,10.00,243.31,161215,,*37
$GPRMC,011748,A,4818.0336,N,442.4414,W,10.00,243.31,161215,,*36
$GPRMC,011748,A,4818.0241,N,442.4695,W,10.00,243.31,161215,,*3C
$GPRMC,011748,A,4818.0147,N,442.4976,W,10.00,243.31,161215,,*3B
$GPRMC,011748,A,4818.0052,N,442.5257,W,10.00,243.31,161215,,*37
$GPRMC,011748,A,4817.9958,N,442.5538,W,10.00,243.31,161215,,*3C
$GPRMC,011748,A,4817.9863,N,442.5819,W,10.00,243.31,161215,,*3B
$GPRMC,011748,A,4817.9769,N,442.6100,W,10.00,243.31,161215,,*3C
$GPRMC,011748,A,4817.9674,N,442.6381,W,10.00,243.31,161215,,*3A
$GPRMC,011748,A,4817.9580,N,442.6662,W,10.00,243.31,161215,,*3A
$GPRMC,011748,A,4817.9486,N,442.6943,W,10.00,243.31,161215,,*31
$GPRMC,011748,A,4817.9391,N,442.7224,W,10.00,243.31,161215,,*3B
$GPRMC,011748,A,4817.9297,N,442.7505,W,10.00,243.31,161215,,*38
$GPRMC,011748,A,4817.9202,N,442.7786,W,10.00,243.31,161215,,*3D
$GPRMC,011748,A,4817.9108,N,442.8067,W,10.00,243.31,161215,,*33
$GPRMC,011748,A,4817.9013,N,442.8348,W,10.00,243.31,161215,,*36
$GPRMC,011748,A,4817.8919,N,442.8629,W,10.00,243.31,161215,,*36
$GPRMC,011748,A,4817.8824,N,442.8910,W,10.00,243.31,161215,,*3C
$GPRMC,011748,A,4817.8730,N,442.9191,W,10.00,243.31,161215,,*36
$GPRMC,011748,A,4817.8635,N,442.9472,W,10.00,243.31,161215,,*3A
$GPRMC,011748,A,4817.8541,N,442.9753,W,10.00,243.31,161215,,*3A
$GPRMC,011748,A,4817.8446,N,443.0034,W,10.00,243.31,161215,,*32
$GPRMC,011748,A,4817.8352,N,443.0315,W,10.00,243.31,161215,,*30
$GPRMC,011748,A,4817.8257,N,443.0596,W,10.00,243.31,161215,,*39
$GPRMC,011748,A,4817.8163,N,443.0877,W,10.00,243.31,161215,,*3F
$GPRMC,011748,A,4817.8068,N,443.1158,W,10.00,243.31,161215,,*30
$GPRMC,011748,A,4817.7974,N,443.1439,W,10.00,243.31,161215,,*39
$GPRMC,011748,A,4817.7879,N,443.1720,W,10.00,243.31,161215,,*3E
$GPRMC,011748,A,4817.7868,N,443.1753,W,10.00,211.27,161215,,*3A
$GPRMC,011748,A,4817.7507,N,443.2082,W,10.00,211.27,161215,,*36
$GPRMC,011748,A,4817.7146,N,443.2411,W,10.00,211.27,161215,,*39
$GPRMC,011748,A,4817.6784,N,443.2740,W,10.00,211.27,161215,,*37
$GPRMC,011748,A,4817.6423,N,443.3068,W,10.00,211.27,161215,,*35
$GPRMC,011748,A,4817.6061,N,443.3397,W,10.00,211.27,161215,,*34
$GPRMC,011748,A,4817.5700,N,443.3726,W,10.00,211.27,161215,,*39
$GPRMC,011748,A,4817.5338,N,443.4055,W,10.00,211.27,161215,,*32
$GPRMC,011748,A,4817.4977,N,443.4384,W,10.00,211.27,161215,,*3D
$GPRMC,011748,A,4817.4616,N,443.4713,W,10.00,211.27,161215,,*3F
$GPRMC,011748,A,4817.4254,N,443.5041,W,10.00,211.27,161215,,*3C
$GPRMC,011748,A,4817.3893,N,443.5370,W,10.00,211.27,161215,,*3B
$GPRMC,011748,A,4817.3531,N,443.5699,W,10.00,211.27,161215,,*3C
$GPRMC,011748,A,4817.3170,N,443.6028,W,10.00,211.27,161215,,*32
$GPRMC,011748,A,4817.2808,N,443.6357,W,10.00,211.27,161215,,*3E
$GPRMC,011748,A,4817.2447,N,443.6685,W,10.00,211.27,161215,,*33
$GPRMC,011748,A,4817.2085,N,443.7014,W,10.00,211.27,161215,,*36
$GPRMC,011748,A,4817.1724,N,443.7343,W,10.00,211.27,161215,,*38
$GPRMC,011748,A,4817.1362,N,443.7672,W,10.00,211.27,161215,,*39
$GPRMC,011748,A,4817.1001,N,443.8000,W,10.00,211.27,161215,,*33
$GPRMC,011748,A,4817.0640,N,443.8329,W,10.00,211.27,161215,,*39
$GPRMC,011748,A,4817.0278,N,443.8658,W,10.00,211.27,161215,,*35
$GPRMC,011748,A,4816.9917,N,443.8987,W,10.00,211.27,161215,,*32
$GPRMC,011748,A,4816.9555,N,443.9315,W,10.00,211.27,161215,,*38
$GPRMC,011748,A,4816.9194,N,443.9644,W,10.00,211.27,161215,,*30
$GPRMC,011748,A,4816.8832,N,443.9973,W,10.00,211.27,161215,,*3F
$GPRMC,011748,A,4816.8471,N,444.0301,W,10.00,211.27,161215,,*35
$GPRMC,011748,A,4816.8109,N,444.0630,W,10.00,211.27,161215,,*38
$GPRMC,011748,A,4816.7748,N,444.0959,W,10.00,211.27,161215,,*34
$GPRMC,011748,A,4816.7386,N,444.1288,W,10.00,211.27,161215,,*34
$GPRMC,011748,A,4816.7025,N,444.1616,W,10.00,211.27,161215,,*3D
$GPRMC,011748,A,4816.6663,N,444.1945,W,10.00,211.27,161215,,*31
$GPRMC,011748,A,4816.6302,N,444.2273,W,10.00,211.27,161215,,*3E
$GPRMC,011748,A,4816.5940,N,444.2602,W,10.00,211.27,161215,,*33
$GPRMC,011748,A,4816.5579,N,444.2931,W,10.00,211.27,161215,,*3A
$GPRMC,011748,A,4816.5217,N,444.3259,W,10.00,211.27,161215,,*31
$GPRMC,011748,A,4816.4856,N,444.3588,W,10.00,211.27,161215,,*34
$GPRMC,011748,A,4816.4494,N,444.3917,W,10.00,211.27,161215,,*3C
$GPRMC,011748,A,4816.4133,N,444.4245,W,10.00,211.27,161215,,*3F
$GPRMC,011748,A,4816.3771,N,444.4574,W,10.00,211.27,161215,,*3D
$GPRMC,011748,A,4816.3410,N,444.4902,W,10.00,211.27,161215,,*34
