$GPRMC,011845,A,4822.0605,N,429.3128,W,10.00,163.28,171115,,*33
$GPRMC,011845,A,4821.8617,N,429.2232,W,10.00,250.53,171115,,*3D
$GPRMC,011845,A,4821.8555,N,429.2495,W,10.00,250.53,171115,,*33
$GPRMC,011845,A,4821.8493,N,429.2759,W,10.00,250.53,171115,,*3B
$GPRMC,011845,A,4821.8431,N,429.3022,W,10.00,250.53,171115,,*39
$GPRMC,011845,A,4821.8369,N,429.3285,W,10.00,250.53,171115,,*3C
$GPRMC,011845,A,4821.8307,N,429.3549,W,10.00,250.53,171115,,*33
$GPRMC,011845,A,4821.8245,N,429.3812,W,10.00,250.53,171115,,*37
$GPRMC,011845,A,4821.8183,N,429.4075,W,10.00,250.53,171115,,*30
$GPRMC,011845,A,4821.8121,N,429.4339,W,10.00,250.53,171115,,*33
$GPRMC,011845,A,4821.8059,N,429.4602,W,10.00,250.53,171115,,*30
$GPRMC,011845,A,4821.7997,N,429.4865,W,10.00,250.53,171115,,*3B
$GPRMC,011845,A,4821.7935,N,429.5129,W,10.00,250.53,171115,,*33
$GPRMC,011845,A,4821.7873,N,429.5392,W,10.00,250.53,171115,,*32
$GPRMC,011845,A,4821.7811,N,429.5656,W,10.00,250.53,171115,,*3B
$GPRMC,011845,A,4821.7749,N,429.5919,W,10.00,250.53,171115,,*3D
$GPRMC,011845,A,4821.7687,N,429.6182,W,10.00,250.53,171115,,*37
$GPRMC,011845,A,4821.7625,N,429.6446,W,10.00,250.53,171115,,*32
$GPRMC,011845,A,4821.7563,N,429.6709,W,10.00,250.53,171115,,*3B
$GPRMC,011845,A,4821.7501,N,429.6972,W,10.00,250.53,171115,,*3D
$GPRMC,011845,A,4821.7439,N,429.7236,W,10.00,250.53,171115,,*3D
$GPRMC,011845,A,4821.7376,N,429.7499,W,10.00,250.53,171115,,*32
$GPRMC,011845,A,4821.7314,N,429.7762,W,10.00,250.53,171115,,*31
$GPRMC,011845,A,4821.7252,N,429.8026,W,10.00,250.53,171115,,*3A
$GPRMC,011845,A,4821.7190,N,429.8289,W,10.00,250.53,171115,,*30
$GPRMC,011845,A,4821.7128,N,429.8552,W,10.00,250.53,171115,,*32
$GPRMC,011845,A,4821.7066,N,429.8816,W,10.00,250.53,171115,,*34
$GPRMC,011845,A,4821.7004,N,429.9079,W,10.00,250.53,171115,,*30
$GPRMC,011845,A,4821.6942,N,429.9342,W,10.00,250.53,171115,,*31
$GPRMC,011845,A,4821.6880,N,429.9606,W,10.00,250.53,171115,,*3B
$GPRMC,011845,A,4821.6818,N,429.9869,W,10.00,250.53,171115,,*3D
$GPRMC,011845,A,4821.6756,N,430.0132,W,10.00,250.53,171115,,*3E
$GPRMC,011845,A,4821.6694,N,430.0396,W,10.00,250.53,171115,,*3D
$GPRMC,011845,A,4821.6632,N,430.0659,W,10.00,250.53,171115,,*37
$GPRMC,011845,A,4821.6570,N,430.0922,W,10.00,250.53,171115,,*31
$GPRMC,011845,A,4821.6508,N,430.1186,W,10.00,250.53,171115,,*39
$GPRMC,011845,A,4821.6446,N,430.1449,W,10.00,250.53,171115,,*34
$GPRMC,011845,A,4821.6383,N,430.1712,W,10.00,250.53,171115,,*37
$GPRMC,011845,A,4821.6321,N,430.1976,W,10.00,250.53,171115,,*33
$GPRMC,011845,A,4821.6259,N,430.2239,W,10.00,250.53,171115,,*3E
$GPRMC,011845,A,4821.6197,N,430.2502,W,10.00,250.53,171115,,*30
$GPRMC,011845,A,4821.6135,N,430.2765,W,10.00,250.53,171115,,*3B
$GPRMC,011845,A,4821.6073,N,430.3029,W,10.00,250.53,171115,,*36
$GPRMC,011845,A,4821.6011,N,430.3292,W,10.00,250.53,171115,,*30
$GPRMC,011845,A,4821.5949,N,430.3555,W,10.00,250.53,171115,,*3B
$GPRMC,011845,A,4821.5887,N,430.3819,W,10.00,250.53,171115,,*3D
$GPRMC,011845,A,4821.5825,N,430.4082,W,10.00,250.53,171115,,*38
$GPRMC,011845,A,4821.5763,N,430.4345,W,10.00,250.53,171115,,*3D
$GPRMC,011845,A,4821.5701,N,430.4609,W,10.00,250.53,171115,,*34
$GPRMC,011845,A,4821.5639,N,430.4872,W,10.00,250.53,171115,,*3C
$GPRMC,011845,A,4821.5576,N,430.5135,W,10.00,250.53,171115,,*3F
$GPRMC,011845,A,4821.5514,N,430.5399,W,10.00,250.53,171115,,*3F
$GPRMC,011845,A,4821.5452,N,430.5662,W,10.00,250.53,171115,,*3D
$GPRMC,011845,A,4821.5390,N,430.5925,W,10.00,250.53,171115,,*38
$GPRMC,011845,A,4821.5328,N,430.6189,W,10.00,250.53,171115,,*36
$GPRMC,011845,A,4821.5266,N,430.6452,W,10.00,250.53,171115,,*3E
$GPRMC,011845,A,4821.5204,N,430.6715,W,10.00,250.53,171115,,*3A
$GPRMC,011845,A,4821.5142,N,430.6978,W,10.00,250.53,171115,,*3E
$GPRMC,011845,A,4821.5080,N,430.7242,W,10.00,250.53,171115,,*32
$GPRMC,011845,A,4821.5018,N,430.7505,W,10.00,250.53,171115,,*37
$GPRMC,011845,A,4821.4956,N,430.7768,W,10.00,250.53,171115,,*3C
$GPRMC,011845,A,4821.4894,N,430.8032,W,10.00,250.53,171115,,*34
$GPRMC,011845,A,4821.4831,N,430.8295,W,10.00,250.53,171115,,*34
$GPRMC,011845,A,4821.4769,N,430.8558,W,10.00,250.53,171115,,*30
$GPRMC,011845,A,4821.4707,N,430.8822,W,10.00,250.53,171115,,*38
$GPRMC,011845,A,4821.4645,N,430.9085,W,10.00,250.53,171115,,*3B
$GPRMC,011845,A,4821.4583,N,430.9348,W,10.00,250.53,171115,,*30
$GPRMC,011845,A,4821.4521,N,430.9611,W,10.00,250.53,171115,,*31
$GPRMC,011845,A,4821.4459,N,430.9875,W,10.00,250.53,171115,,*33
$GPRMC,011845,A,4821.4397,N,431.0138,W,10.00,250.53,171115,,*3E
$GPRMC,011845,A,4821.4335,N,431.0401,W,10.00,250.53,171115,,*39
$GPRMC,011845,A,4821.4273,N,431.0665,W,10.00,250.53,171115,,*3A
$GPRMC,011845,A,4821.4210,N,431.0928,W,10.00,250.53,171115,,*39
$GPRMC,011845,A,4821.4148,N,431.1191,W,10.00,250.53,171115,,*3C
$GPRMC,011845,A,4821.4086,N,431.1454,W,10.00,250.53,171115,,*33
$GPRMC,011845,A,4821.4024,N,431.1718,W,10.00,250.53,171115,,*30
$GPRMC,011845,A,4821.3962,N,431.1981,W,10.00,250.53,171115,,*32
$GPRMC,011845,A,4821.3900,N,431.2244,W,10.00,250.53,171115,,*37
$GPRMC,011845,A,4821.3838,N,431.2508,W,10.00,250.53,171115,,*32
$GPRMC,011845,A,4821.3776,N,431.2771,W,10.00,250.53,171115,,*3B
$GPRMC,011845,A,4821.3714,N,431.3034,W,10.00,250.53,171115,,*38
$GPRMC,011845,A,4821.3651,N,431.3297,W,10.00,250.53,171115,,*33
$GPRMC,011845,A,4821.3589,N,431.3561,W,10.00,250.53,171115,,*3B
$GPRMC,011845,A,4821.3527,N,431.3824,W,10.00,250.53,171115,,*33
$GPRMC,011845,A,4821.3465,N,431.4087,W,10.00,250.53,171115,,*32
$GPRMC,011845,A,4821.3403,N,431.4350,W,10.00,250.53,171115,,*3B
$GPRMC,011845,A,4821.3341,N,431.4614,W,10.00,250.53,171115,,*3F
$GPRMC,011845,A,4821.3279,N,431.4877,W,10.00,250.53,171115,,*3E
$GPRMC,011845,A,4821.3217,N,431.5140,W,10.00,250.53,171115,,*3A
$GPRMC,011845,A,4821.3154,N,431.5404,W,10.00,250.53,171115,,*3B
$GPRMC,011845,A,4821.3092,N,431.5667,W,10.00,250.53,171115,,*37
$GPRMC,011845,A,4821.3030,N,431.5930,W,10.00,250.53,171115,,*32
$GPRMC,011845,A,4821.2968,N,431.6193,W,10.00,250.53,171115,,*35
$GPRMC,011845,A,4821.2906,N,431.6457,W,10.00,250.53,171115,,*30
$GPRMC,011845,A,4821.2844,N,431.6720,W,10.00,250.53,171115,,*34
$GPRMC,011845,A,4821.2782,N,431.6983,W,10.00,250.53,171115,,*36
$GPRMC,011845,A,4821.2720,N,431.7246,W,10.00,250.53,171115,,*3D
$GPRMC,011845,A,4821.2657,N,431.7510,W,10.00,250.53,171115,,*38
$GPRMC,011845,A,4821.2595,N,431.7773,W,10.00,250.53,171115,,*32
$GPRMC,011845,A,4821.2533,N,431.8036,W,10.00,250.53,171115,,*37
$GPRMC,011845,A,4821.2471,N,431.8299,W,10.00,250.53,171115,,*37
$GPRMC,011845,A,4821.2409,N,431.8563,W,10.00,250.53,171115,,*3A
$GPRMC,011845,A,4821.2347,N,431.8826,W,10.00,250.53,171115,,*3B
$GPRMC,011845,A,4821.2285,N,431.9089,W,10.00,250.53,171115,,*38
$GPRMC,011845,A,4821.2223,N,431.9352,W,10.00,250.53,171115,,*31
$GPRMC,011845,A,4821.2160,N,431.9616,W,10.00,250.53,171115,,*30
$GPRMC,011845,A,4821.2098,N,431.9879,W,10.00,250.53,171115,,*31
$GPRMC,011845,A,4821.2036,N,432.0142,W,10.00,250.53,171115,,*3E
$GPRMC,011845,A,4821.1974,N,432.0405,W,10.00,250.53,171115,,*34
$GPRMC,011845,A,4821.1912,N,432.0669,W,10.00,250.53,171115,,*3C
$GPRMC,011845,A,4821.1850,N,432.0932,W,10.00,250.53,171115,,*3A
$GPRMC,011845,A,4821.1788,N,432.1195,W,10.00,250.53,171115,,*34
$GPRMC,011845,A,4821.1725,N,432.1458,W,10.00,250.53,171115,,*37
$GPRMC,011845,A,4821.1663,N,432.1722,W,10.00,250.53,171115,,*3A
$GPRMC,011845,A,4821.1601,N,432.1985,W,10.00,250.53,171115,,*3D
$GPRMC,011845,A,4821.1539,N,432.2248,W,10.00,250.53,171115,,*3C
$GPRMC,011845,A,4821.1477,N,432.2511,W,10.00,250.53,171115,,*3C
$GPRMC,011845,A,4821.1415,N,432.2775,W,10.00,250.53,171115,,*38
$GPRMC,011845,A,4821.1353,N,432.3038,W,10.00,250.53,171115,,*32
$GPRMC,011845,A,4821.1290,N,432.3301,W,10.00,250.53,171115,,*35
$GPRMC,011845,A,4821.1228,N,432.3564,W,10.00,250.53,171115,,*33
$GPRMC,011845,A,4821.1166,N,432.3827,W,10.00,250.53,171115,,*30
$GPRMC,011845,A,4821.1104,N,432.4091,W,10.00,250.53,171115,,*36
$GPRMC,011845,A,4821.1042,N,432.4354,W,10.00,250.53,171115,,*3F
$GPRMC,011845,A,4821.0980,N,432.4617,W,10.00,250.53,171115,,*3B
$GPRMC,011845,A,4821.0917,N,432.4880,W,10.00,250.53,171115,,*35
$GPRMC,011845,A,4821.0855,N,432.5144,W,10.00,250.53,171115,,*32
$GPRMC,011845,A,4821.0793,N,432.5407,W,10.00,250.53,171115,,*35
$GPRMC,011845,A,4821.0731,N,432.5670,W,10.00,250.53,171115,,*3F
$GPRMC,011845,A,4821.0669,N,432.5933,W,10.00,250.53,171115,,*3B
$GPRMC,011845,A,4821.0607,N,432.6197,W,10.00,250.53,171115,,*36
$GPRMC,011845,A,4821.0544,N,432.6460,W,10.00,250.53,171115,,*3F
$GPRMC,011845,A,4821.0482,N,432.6723,W,10.00,250.53,171115,,*30
$GPRMC,011845,A,4821.0420,N,432.6986,W,10.00,250.53,171115,,*39
$GPRMC,011845,A,4821.0358,N,432.7249,W,10.00,250.53,171115,,*38
$GPRMC,011845,A,4821.0296,N,432.7513,W,10.00,250.53,171115,,*33
$GPRMC,011845,A,4821.0234,N,432.7776,W,10.00,250.53,171115,,*3A
$GPRMC,011845,A,4821.0171,N,432.8039,W,10.00,250.53,171115,,*3B
$GPRMC,011845,A,4821.0109,N,432.8302,W,10.00,250.53,171115,,*3F
$GPRMC,011845,A,4821.0047,N,432.8565,W,10.00,250.53,171115,,*33
$GPRMC,011845,A,4820.9985,N,432.8829,W,10.00,250.53,171115,,*39
$GPRMC,011845,A,4820.9923,N,432.9092,W,10.00,250.53,171115,,*3C
$GPRMC,011845,A,4820.9861,N,432.9355,W,10.00,250.53,171115,,*33
$GPRMC,011845,A,4820.9798,N,432.9618,W,10.00,250.53,171115,,*36
$GPRMC,011845,A,4820.9736,N,432.9882,W,10.00,250.53,171115,,*3F
$GPRMC,011845,A,4820.9674,N,433.0145,W,10.00,250.53,171115,,*32
$GPRMC,011845,A,4820.9612,N,433.0408,W,10.00,250.53,171115,,*3E
$GPRMC,011845,A,4820.9550,N,433.0671,W,10.00,250.53,171115,,*37
$GPRMC,011845,A,4820.9488,N,433.0934,W,10.00,250.53,171115,,*3D
$GPRMC,011845,A,4820.9425,N,433.1198,W,10.00,250.53,171115,,*35
$GPRMC,011845,A,4820.9363,N,433.1461,W,10.00,250.53,171115,,*33
$GPRMC,011845,A,4820.9301,N,433.1724,W,10.00,250.53,171115,,*35
$GPRMC,011845,A,4820.9239,N,433.1987,W,10.00,250.53,171115,,*38
$GPRMC,011845,A,4820.9177,N,433.2250,W,10.00,250.53,171115,,*33
$GPRMC,011845,A,4820.9114,N,433.2514,W,10.00,250.53,171115,,*31
$GPRMC,011845,A,4820.9052,N,433.2777,W,10.00,250.53,171115,,*35
$GPRMC,011845,A,4820.8990,N,433.3040,W,10.00,250.53,171115,,*31
$GPRMC,011845,A,4820.8928,N,433.3303,W,10.00,250.53,171115,,*36
$GPRMC,011845,A,4820.8866,N,433.3566,W,10.00,250.53,171115,,*38
$GPRMC,011845,A,4820.8804,N,433.3830,W,10.00,250.53,171115,,*32
$GPRMC,011845,A,4820.8741,N,433.4093,W,10.00,250.53,171115,,*3A
$GPRMC,011845,A,4820.8679,N,433.4356,W,10.00,250.53,171115,,*3A
$GPRMC,011845,A,4820.8617,N,433.4619,W,10.00,250.53,171115,,*3C
$GPRMC,011845,A,4820.8555,N,433.4882,W,10.00,250.53,171115,,*35
$GPRMC,011845,A,4820.8493,N,433.5145,W,10.00,250.53,171115,,*3D
$GPRMC,011845,A,4820.8430,N,433.5409,W,10.00,250.53,171115,,*39
$GPRMC,011845,A,4820.8368,N,433.5672,W,10.00,250.53,171115,,*3D
$GPRMC,011845,A,4820.8306,N,433.5935,W,10.00,250.53,171115,,*39
$GPRMC,011845,A,4820.8244,N,433.6198,W,10.00,250.53,171115,,*32
$GPRMC,011845,A,4820.8182,N,433.6461,W,10.00,250.53,171115,,*38
$GPRMC,011845,A,4820.8119,N,433.6725,W,10.00,250.53,171115,,*39
$GPRMC,011845,A,4820.8057,N,433.6988,W,10.00,250.53,171115,,*3B
$GPRMC,011845,A,4820.7995,N,433.7251,W,10.00,250.53,171115,,*3D
$GPRMC,011845,A,4820.7933,N,433.7514,W,10.00,250.53,171115,,*37
$GPRMC,011845,A,4820.7871,N,433.7777,W,10.00,250.53,171115,,*37
$GPRMC,011845,A,4820.7808,N,433.8040,W,10.00,250.53,171115,,*35
$GPRMC,011845,A,4820.7746,N,433.8304,W,10.00,250.53,171115,,*33
$GPRMC,011845,A,4820.7684,N,433.8567,W,10.00,250.53,171115,,*3F
$GPRMC,011845,A,4820.7622,N,433.8830,W,10.00,250.53,171115,,*3C
$GPRMC,011845,A,4820.7559,N,433.9093,W,10.00,250.53,171115,,*33
$GPRMC,011845,A,4820.7497,N,433.9356,W,10.00,250.53,171115,,*3A
$GPRMC,011845,A,4820.7435,N,433.9619,W,10.00,250.53,171115,,*3C
$GPRMC,011845,A,4820.7373,N,433.9883,W,10.00,250.53,171115,,*34
$GPRMC,011845,A,4820.7311,N,434.0146,W,10.00,250.53,171115,,*3E
$GPRMC,011845,A,4820.7248,N,434.0409,W,10.00,250.53,171115,,*3D
$GPRMC,011845,A,4820.7186,N,434.0672,W,10.00,250.53,171115,,*32
$GPRMC,011845,A,4820.7124,N,434.0935,W,10.00,250.53,171115,,*36
$GPRMC,011845,A,4820.7062,N,434.1198,W,10.00,250.53,171115,,*3B
$GPRMC,011845,A,4820.7000,N,434.1462,W,10.00,250.53,171115,,*3F
$GPRMC,011845,A,4820.6937,N,434.1725,W,10.00,250.53,171115,,*33
$GPRMC,011845,A,4820.6875,N,434.1988,W,10.00,250.53,171115,,*3D
$GPRMC,011845,A,4820.6813,N,434.2251,W,10.00,250.53,171115,,*31
$GPRMC,011845,A,4820.6751,N,434.2514,W,10.00,250.53,171115,,*3E
$GPRMC,011845,A,4820.6688,N,434.2777,W,10.00,250.53,171115,,*3C
$GPRMC,011845,A,4820.6626,N,434.3041,W,10.00,250.53,171115,,*3B
$GPRMC,011845,A,4820.6564,N,434.3304,W,10.00,250.53,171115,,*3C
$GPRMC,011845,A,4820.6502,N,434.3567,W,10.00,250.53,171115,,*3F
$GPRMC,011845,A,4820.6439,N,434.3830,W,10.00,250.53,171115,,*39
$GPRMC,011845,A,4820.6377,N,434.4093,W,10.00,250.53,171115,,*32
$GPRMC,011845,A,4820.6315,N,434.4356,W,10.00,250.53,171115,,*3C
$GPRMC,011845,A,4820.6253,N,434.4619,W,10.00,250.53,171115,,*31
$GPRMC,011845,A,4820.6191,N,434.4883,W,10.00,250.53,171115,,*31
$GPRMC,011845,A,4820.6128,N,434.5146,W,10.00,250.53,171115,,*32
$GPRMC,011845,A,4820.6066,N,434.5409,W,10.00,250.53,171115,,*37
$GPRMC,011845,A,4820.6004,N,434.5672,W,10.00,250.53,171115,,*3D
$GPRMC,011845,A,4820.5942,N,434.5935,W,10.00,250.53,171115,,*39
$GPRMC,011845,A,4820.5879,N,434.6198,W,10.00,250.53,171115,,*3C
$GPRMC,011845,A,4820.5817,N,434.6461,W,10.00,250.53,171115,,*37
$GPRMC,011845,A,4820.5755,N,434.6725,W,10.00,250.53,171115,,*3D
$GPRMC,011845,A,4820.5693,N,434.6988,W,10.00,250.53,171115,,*3F
$GPRMC,011845,A,4820.5630,N,434.7251,W,10.00,250.53,171115,,*38
$GPRMC,011845,A,4820.5568,N,434.7514,W,10.00,250.53,171115,,*30
$GPRMC,011845,A,4820.5563,N,434.7536,W,10.00,239.19,171115,,*3A
$GPRMC,011845,A,4820.5205,N,434.8436,W,10.00,239.19,171115,,*33
$GPRMC,011845,A,4820.4848,N,434.9335,W,10.00,239.19,171115,,*34
$GPRMC,011845,A,4820.4490,N,435.0235,W,10.00,239.19,171115,,*34
$GPRMC,011845,A,4820.4132,N,435.1134,W,10.00,239.19,171115,,*3A
$GPRMC,011845,A,4820.3775,N,435.2033,W,10.00,239.19,171115,,*3D
$GPRMC,011845,A,4820.3417,N,435.2933,W,10.00,239.19,171115,,*33
$GPRMC,011845,A,4820.3059,N,435.3832,W,10.00,239.19,171115,,*3C
$GPRMC,011845,A,4820.2701,N,435.4731,W,10.00,239.19,171115,,*3C
$GPRMC,011845,A,4820.2344,N,435.5631,W,10.00,239.19,171115,,*39
$GPRMC,011845,A,4820.1986,N,435.6530,W,10.00,239.19,171115,,*3F
$GPRMC,011845,A,4820.1628,N,435.7429,W,10.00,239.19,171115,,*3C
$GPRMC,011845,A,4820.1270,N,435.8328,W,10.00,239.19,171115,,*3C
$GPRMC,011845,A,4820.0913,N,435.9228,W,10.00,239.19,171115,,*33
$GPRMC,011845,A,4820.0555,N,436.0127,W,10.00,239.19,171115,,*3B
$GPRMC,011845,A,4820.0221,N,436.0965,W,10.00,254.84,171115,,*3E
$GPRMC,011845,A,4820.0158,N,436.1315,W,10.00,254.84,171115,,*3F
$GPRMC,011845,A,4820.0095,N,436.1665,W,10.00,254.84,171115,,*3D
$GPRMC,011845,A,4820.0031,N,436.2016,W,10.00,254.84,171115,,*32
$GPRMC,011845,A,4819.9968,N,436.2366,W,10.00,254.84,171115,,*30
$GPRMC,011845,A,4819.9905,N,436.2716,W,10.00,254.84,171115,,*38
$GPRMC,011845,A,4819.9841,N,436.3067,W,10.00,254.84,171115,,*39
$GPRMC,011845,A,4819.9778,N,436.3417,W,10.00,254.84,171115,,*3F
$GPRMC,011845,A,4819.9715,N,436.3767,W,10.00,254.84,171115,,*30
$GPRMC,011845,A,4819.9652,N,436.4118,W,10.00,254.84,171115,,*3B
$GPRMC,011845,A,4819.9588,N,436.4468,W,10.00,254.84,171115,,*3D
$GPRMC,011845,A,4819.9525,N,436.4818,W,10.00,254.84,171115,,*31
$GPRMC,011845,A,4819.9462,N,436.5169,W,10.00,254.84,171115,,*3D
$GPRMC,011845,A,4819.9398,N,436.5519,W,10.00,254.84,171115,,*3C
$GPRMC,011845,A,4819.9335,N,436.5869,W,10.00,254.84,171115,,*31
$GPRMC,011845,A,4819.9272,N,436.6220,W,10.00,254.84,171115,,*37
$GPRMC,011845,A,4819.9208,N,436.6570,W,10.00,254.84,171115,,*38
$GPRMC,011845,A,4819.9145,N,436.6921,W,10.00,254.84,171115,,*3A
$GPRMC,011845,A,4819.9082,N,436.7271,W,10.00,254.84,171115,,*3F
$GPRMC,011845,A,4819.9018,N,436.7621,W,10.00,254.84,171115,,*3D
$GPRMC,011845,A,4819.8955,N,436.7972,W,10.00,254.84,171115,,*35
$GPRMC,011845,A,4819.8892,N,436.8322,W,10.00,254.84,171115,,*3F
$GPRMC,011845,A,4819.8828,N,436.8672,W,10.00,254.84,171115,,*3E
$GPRMC,011845,A,4819.8765,N,436.9023,W,10.00,254.84,171115,,*3B
$GPRMC,011845,A,4819.8702,N,436.9373,W,10.00,254.84,171115,,*3C
$GPRMC,011845,A,4819.8638,N,436.9723,W,10.00,254.84,171115,,*35
$GPRMC,011845,A,4819.8575,N,437.0074,W,10.00,254.84,171115,,*32
$GPRMC,011845,A,4819.8512,N,437.0424,W,10.00,254.84,171115,,*32
$GPRMC,011845,A,4819.8448,N,437.0774,W,10.00,254.84,171115,,*3A
$GPRMC,011845,A,4819.8385,N,437.1125,W,10.00,254.84,171115,,*3F
$GPRMC,011845,A,4819.8322,N,437.1475,W,10.00,254.84,171115,,*32
$GPRMC,011845,A,4819.8258,N,437.1825,W,10.00,254.84,171115,,*37
$GPRMC,011845,A,4819.8195,N,437.2175,W,10.00,254.84,171115,,*3A
$GPRMC,011845,A,4819.8132,N,437.2526,W,10.00,254.84,171115,,*35
$GPRMC,011845,A,4819.8068,N,437.2876,W,10.00,254.84,171115,,*33
$GPRMC,011845,A,4819.8005,N,437.3226,W,10.00,254.84,171115,,*36
$GPRMC,011845,A,4819.7942,N,437.3577,W,10.00,254.84,171115,,*30
$GPRMC,011845,A,4819.7878,N,437.3927,W,10.00,254.84,171115,,*31
$GPRMC,011845,A,4819.7815,N,437.4277,W,10.00,254.84,171115,,*33
$GPRMC,011845,A,4819.7751,N,437.4628,W,10.00,254.84,171115,,*32
$GPRMC,011845,A,4819.7688,N,437.4978,W,10.00,254.84,171115,,*3D
$GPRMC,011845,A,4819.7625,N,437.5328,W,10.00,254.84,171115,,*34
$GPRMC,011845,A,4819.7561,N,437.5679,W,10.00,254.84,171115,,*36
$GPRMC,011845,A,4819.7498,N,437.6029,W,10.00,254.84,171115,,*31
$GPRMC,011845,A,4819.7435,N,437.6379,W,10.00,254.84,171115,,*30
$GPRMC,011845,A,4819.7371,N,437.6730,W,10.00,254.84,171115,,*3E
$GPRMC,011845,A,4819.7308,N,437.7080,W,10.00,254.84,171115,,*3D
$GPRMC,011845,A,4819.7245,N,437.7430,W,10.00,254.84,171115,,*3A
$GPRMC,011845,A,4819.7181,N,437.7780,W,10.00,254.84,171115,,*39
$GPRMC,011845,A,4819.7118,N,437.8131,W,10.00,254.84,171115,,*3A
$GPRMC,011845,A,4819.7054,N,437.8481,W,10.00,254.84,171115,,*3D
$GPRMC,011845,A,4819.6991,N,437.8831,W,10.00,254.84,171115,,*3B
$GPRMC,011845,A,4819.6928,N,437.9182,W,10.00,254.84,171115,,*39
$GPRMC,011845,A,4819.6864,N,437.9532,W,10.00,254.84,171115,,*3F
$GPRMC,011845,A,4819.6801,N,437.9882,W,10.00,254.84,171115,,*3A
$GPRMC,011845,A,4819.6737,N,438.0232,W,10.00,254.84,171115,,*37
$GPRMC,011845,A,4819.6674,N,438.0583,W,10.00,254.84,171115,,*3C
$GPRMC,011845,A,4819.6611,N,438.0933,W,10.00,254.84,171115,,*38
$GPRMC,011845,A,4819.6547,N,438.1283,W,10.00,254.84,171115,,*39
$GPRMC,011845,A,4819.6484,N,438.1634,W,10.00,254.84,171115,,*3F
$GPRMC,011845,A,4819.6420,N,438.1984,W,10.00,254.84,171115,,*35
$GPRMC,011845,A,4819.6357,N,438.2334,W,10.00,254.84,171115,,*30
$GPRMC,011845,A,4819.6294,N,438.2684,W,10.00,254.84,171115,,*30
$GPRMC,011845,A,4819.6230,N,438.3035,W,10.00,254.84,171115,,*33
$GPRMC,011845,A,4819.6167,N,438.3385,W,10.00,254.84,171115,,*3A
$GPRMC,011845,A,4819.6103,N,438.3735,W,10.00,254.84,171115,,*37
$GPRMC,011845,A,4819.6040,N,438.4086,W,10.00,254.84,171115,,*39
$GPRMC,011845,A,4819.5977,N,438.4436,W,10.00,254.84,171115,,*38
$GPRMC,011845,A,4819.5913,N,438.4786,W,10.00,254.84,171115,,*32
$GPRMC,011845,A,4819.5850,N,438.5136,W,10.00,254.84,171115,,*38
$GPRMC,011845,A,4819.5786,N,438.5487,W,10.00,254.84,171115,,*33
$GPRMC,011845,A,4819.5723,N,438.5837,W,10.00,254.84,171115,,*3B
$GPRMC,011845,A,4819.5660,N,438.6187,W,10.00,254.84,171115,,*3C
$GPRMC,011845,A,4819.5596,N,438.6537,W,10.00,254.84,171115,,*39
$GPRMC,011845,A,4819.5533,N,438.6888,W,10.00,254.84,171115,,*3F
$GPRMC,011845,A,4819.5469,N,438.7238,W,10.00,254.84,171115,,*31
$GPRMC,011845,A,4819.5406,N,438.7588,W,10.00,254.84,171115,,*34
$GPRMC,011845,A,4819.5342,N,438.7938,W,10.00,254.84,171115,,*34
$GPRMC,011845,A,4819.5279,N,438.8289,W,10.00,254.84,171115,,*33
$GPRMC,011845,A,4819.5216,N,438.8639,W,10.00,254.84,171115,,*35
$GPRMC,011845,A,4819.5152,N,438.8989,W,10.00,254.84,171115,,*32
$GPRMC,011845,A,4819.5089,N,438.9339,W,10.00,254.84,171115,,*35
$GPRMC,011845,A,4819.5025,N,438.9690,W,10.00,254.84,171115,,*35
$GPRMC,011845,A,4819.4962,N,439.0040,W,10.00,254.84,171115,,*3D
$GPRMC,011845,A,4819.4898,N,439.0390,W,10.00,254.84,171115,,*37
$GPRMC,011845,A,4819.4835,N,439.0740,W,10.00,254.84,171115,,*39
$GPRMC,011845,A,4819.4771,N,439.1091,W,10.00,254.84,171115,,*3C
$GPRMC,011845,A,4819.4708,N,439.1441,W,10.00,254.84,171115,,*3B
$GPRMC,011845,A,4819.4645,N,439.1791,W,10.00,254.84,171115,,*3D
$GPRMC,011845,A,4819.4581,N,439.2141,W,10.00,254.84,171115,,*3E
$GPRMC,011845,A,4819.4518,N,439.2492,W,10.00,254.84,171115,,*35
$GPRMC,011845,A,4819.4454,N,439.2842,W,10.00,254.84,171115,,*3D
$GPRMC,011845,A,4819.4391,N,439.3192,W,10.00,254.84,171115,,*36
$GPRMC,011845,A,4819.4327,N,439.3542,W,10.00,254.84,171115,,*32
$GPRMC,011845,A,4819.4264,N,439.3893,W,10.00,254.84,171115,,*35
$GPRMC,011845,A,4819.4200,N,439.4243,W,10.00,254.84,171115,,*37
$GPRMC,011845,A,4819.4137,N,439.4593,W,10.00,254.84,171115,,*3A
$GPRMC,011845,A,4819.4073,N,439.4943,W,10.00,254.84,171115,,*3A
$GPRMC,011845,A,4819.4010,N,439.5293,W,10.00,254.84,171115,,*38
$GPRMC,011845,A,4819.3946,N,439.5644,W,10.00,254.84,171115,,*3B
$GPRMC,011845,A,4819.3883,N,439.5994,W,10.00,254.84,171115,,*31
$GPRMC,011845,A,4819.3820,N,439.6344,W,10.00,254.84,171115,,*3C
$GPRMC,011845,A,4819.3756,N,439.6694,W,10.00,254.84,171115,,*3A
$GPRMC,011845,A,4819.3693,N,439.7045,W,10.00,254.84,171115,,*39
$GPRMC,011845,A,4819.3629,N,439.7395,W,10.00,254.84,171115,,*36
$GPRMC,011845,A,4819.3566,N,439.7745,W,10.00,254.84,171115,,*37
$GPRMC,011845,A,4819.3502,N,439.8095,W,10.00,254.84,171115,,*30
$GPRMC,011845,A,4819.3439,N,439.8445,W,10.00,254.84,171115,,*30
$GPRMC,011845,A,4819.3375,N,439.8796,W,10.00,254.84,171115,,*32
$GPRMC,011845,A,4819.3312,N,439.9146,W,10.00,254.84,171115,,*39
$GPRMC,011845,A,4819.3248,N,439.9496,W,10.00,254.84,171115,,*3F
$GPRMC,011845,A,4819.3185,N,439.9846,W,10.00,254.84,171115,,*3C
$GPRMC,011845,A,4819.3121,N,440.0196,W,10.00,254.84,171115,,*31
$GPRMC,011845,A,4819.3058,N,440.0547,W,10.00,254.84,171115,,*36
$GPRMC,011845,A,4819.2994,N,440.0897,W,10.00,254.84,171115,,*3E
$GPRMC,011845,A,4819.2931,N,440.1247,W,10.00,254.84,171115,,*37
$GPRMC,011845,A,4819.2867,N,440.1597,W,10.00,254.84,171115,,*3F
$GPRMC,011845,A,4819.2804,N,440.1947,W,10.00,254.84,171115,,*3B
$GPRMC,011845,A,4819.2740,N,440.2298,W,10.00,254.84,171115,,*3E
$GPRMC,011845,A,4819.2677,N,440.2648,W,10.00,254.84,171115,,*32
$GPRMC,011845,A,4819.2613,N,440.2998,W,10.00,254.84,171115,,*32
$GPRMC,011845,A,4819.2550,N,440.3348,W,10.00,254.84,171115,,*30
$GPRMC,011845,A,4819.2486,N,440.3698,W,10.00,254.84,171115,,*32
$GPRMC,011845,A,4819.2423,N,440.4049,W,10.00,254.84,171115,,*30
$GPRMC,011845,A,4819.2359,N,440.4399,W,10.00,254.84,171115,,*34
$GPRMC,011845,A,4819.2343,N,440.4486,W,10.00,248.00,171115,,*37
$GPRMC,011845,A,4819.2145,N,440.5221,W,10.00,248.00,171115,,*39
$GPRMC,011845,A,4819.1947,N,440.5957,W,10.00,248.00,171115,,*3A
$GPRMC,011845,A,4819.1749,N,440.6692,W,10.00,248.00,171115,,*3F
$GPRMC,011845,A,4819.1551,N,440.7427,W,10.00,248.00,171115,,*39
$GPRMC,011845,A,4819.1353,N,440.8162,W,10.00,248.00,171115,,*36
$GPRMC,011845,A,4819.1155,N,440.8897,W,10.00,248.00,171115,,*31
$GPRMC,011845,A,4819.0956,N,440.9632,W,10.00,248.00,171115,,*3B
$GPRMC,011845,A,4819.0758,N,441.0367,W,10.00,248.00,171115,,*36
$GPRMC,011845,A,4819.0560,N,441.1102,W,10.00,248.00,171115,,*3F
$GPRMC,011845,A,4819.0362,N,441.1837,W,10.00,248.00,171115,,*34
$GPRMC,011845,A,4819.0164,N,441.2572,W,10.00,248.00,171115,,*3F
$GPRMC,011845,A,4818.9965,N,441.3307,W,10.00,248.00,171115,,*3B
$GPRMC,011845,A,4818.9767,N,441.4042,W,10.00,248.00,171115,,*32
$GPRMC,011845,A,4818.9569,N,441.4777,W,10.00,248.00,171115,,*3F
$GPRMC,011845,A,4818.9371,N,441.5512,W,10.00,248.00,171115,,*30
$GPRMC,011845,A,4818.9173,N,441.6247,W,10.00,248.00,171115,,*34
$GPRMC,011845,A,4818.8974,N,441.6982,W,10.00,248.00,171115,,*38
$GPRMC,011845,A,4818.8776,N,441.7717,W,10.00,248.00,171115,,*37
$GPRMC,011845,A,4818.8578,N,441.8452,W,10.00,248.00,171115,,*36
$GPRMC,011845,A,4818.8380,N,441.9187,W,10.00,248.00,171115,,*3B
$GPRMC,011845,A,4818.8181,N,441.9922,W,10.00,248.00,171115,,*3F
$GPRMC,011845,A,4818.7983,N,442.0657,W,10.00,248.00,171115,,*3D
$GPRMC,011845,A,4818.7785,N,442.1392,W,10.00,248.00,171115,,*38
$GPRMC,011845,A,4818.7586,N,442.2127,W,10.00,248.00,171115,,*36
$GPRMC,011845,A,4818.7388,N,442.2862,W,10.00,248.00,171115,,*36
$GPRMC,011845,A,4818.7190,N,442.3597,W,10.00,248.00,171115,,*3B
$GPRMC,011845,A,4818.7184,N,442.3619,W,10.00,274.44,171115,,*34
$GPRMC,011845,A,4818.7202,N,442.3972,W,10.00,274.44,171115,,*3B
$GPRMC,011845,A,4818.7221,N,442.4325,W,10.00,274.44,171115,,*35
$GPRMC,011845,A,4818.7239,N,442.4678,W,10.00,274.44,171115,,*31
$GPRMC,011845,A,4818.7257,N,442.5032,W,10.00,274.44,171115,,*30
$GPRMC,011845,A,4818.7275,N,442.5385,W,10.00,274.44,171115,,*3F
$GPRMC,011845,A,4818.7294,N,442.5738,W,10.00,274.44,171115,,*32
$GPRMC,011845,A,4818.7312,N,442.6092,W,10.00,274.44,171115,,*39
$GPRMC,011845,A,4818.7330,N,442.6445,W,10.00,274.44,171115,,*37
$GPRMC,011845,A,4818.7349,N,442.6798,W,10.00,274.44,171115,,*3A
$GPRMC,011845,A,4818.7367,N,442.7152,W,10.00,274.44,171115,,*37
$GPRMC,011845,A,4818.7385,N,442.7505,W,10.00,274.44,171115,,*3D
$GPRMC,011845,A,4818.7403,N,442.7858,W,10.00,274.44,171115,,*31
$GPRMC,011845,A,4818.7422,N,442.8212,W,10.00,274.44,171115,,*39
$GPRMC,011845,A,4818.7440,N,442.8565,W,10.00,274.44,171115,,*3A
$GPRMC,011845,A,4818.7458,N,442.8918,W,10.00,274.44,171115,,*35
$GPRMC,011845,A,4818.7476,N,442.9272,W,10.00,274.44,171115,,*3F
$GPRMC,011845,A,4818.7495,N,442.9625,W,10.00,274.44,171115,,*34
$GPRMC,011845,A,4818.7513,N,442.9978,W,10.00,274.44,171115,,*3C
$GPRMC,011845,A,4818.7531,N,443.0332,W,10.00,274.44,171115,,*30
$GPRMC,011845,A,4818.7549,N,443.0685,W,10.00,274.44,171115,,*36
$GPRMC,011845,A,4818.7568,N,443.1038,W,10.00,274.44,171115,,*34
$GPRMC,011845,A,4818.7586,N,443.1392,W,10.00,274.44,171115,,*37
$GPRMC,011845,A,4818.7604,N,443.1745,W,10.00,274.44,171115,,*30
$GPRMC,011845,A,4818.7622,N,443.2098,W,10.00,274.44,171115,,*30
$GPRMC,011845,A,4818.7641,N,443.2452,W,10.00,274.44,171115,,*37
$GPRMC,011845,A,4818.7659,N,443.2805,W,10.00,274.44,171115,,*30
$GPRMC,011845,A,4818.7677,N,443.3158,W,10.00,274.44,171115,,*3C
$GPRMC,011845,A,4818.7695,N,443.3512,W,10.00,274.44,171115,,*3A
$GPRMC,011845,A,4818.7714,N,443.3865,W,10.00,274.44,171115,,*3F
$GPRMC,011845,A,4818.7732,N,443.4218,W,10.00,274.44,171115,,*3C
$GPRMC,011845,A,4818.7750,N,443.4572,W,10.00,274.44,171115,,*33
$GPRMC,011845,A,4818.7768,N,443.4925,W,10.00,274.44,171115,,*36
$GPRMC,011845,A,4818.7787,N,443.5278,W,10.00,274.44,171115,,*35
$GPRMC,011845,A,4818.7805,N,443.5632,W,10.00,274.44,171115,,*3A
$GPRMC,011845,A,4818.7823,N,443.5985,W,10.00,274.44,171115,,*3D
$GPRMC,011845,A,4818.7841,N,443.6338,W,10.00,274.44,171115,,*36
$GPRMC,011845,A,4818.7860,N,443.6692,W,10.00,274.44,171115,,*30
$GPRMC,011845,A,4818.7878,N,443.7045,W,10.00,274.44,171115,,*34
$GPRMC,011845,A,4818.7896,N,443.7398,W,10.00,274.44,171115,,*37
$GPRMC,011845,A,4818.7914,N,443.7752,W,10.00,274.44,171115,,*3E
$GPRMC,011845,A,4818.7932,N,443.8105,W,10.00,274.44,171115,,*31
$GPRMC,011845,A,4818.7951,N,443.8458,W,10.00,274.44,171115,,*39
$GPRMC,011845,A,4818.7969,N,443.8812,W,10.00,274.44,171115,,*30
$GPRMC,011845,A,4818.7987,N,443.9165,W,10.00,274.44,171115,,*38
$GPRMC,011845,A,4818.8005,N,443.9518,W,10.00,274.44,171115,,*3A
$GPRMC,011845,A,4818.8024,N,443.9872,W,10.00,274.44,171115,,*38
$GPRMC,011845,A,4818.8042,N,444.0225,W,10.00,274.44,171115,,*3E
$GPRMC,011845,A,4818.8060,N,444.0578,W,10.00,274.44,171115,,*31
$GPRMC,011845,A,4818.8078,N,444.0932,W,10.00,274.44,171115,,*3A
$GPRMC,011845,A,4818.8096,N,444.1285,W,10.00,274.44,171115,,*3C
$GPRMC,011845,A,4818.8115,N,444.1638,W,10.00,274.44,171115,,*34
$GPRMC,011845,A,4818.8133,N,444.1992,W,10.00,274.44,171115,,*3F
$GPRMC,011845,A,4818.8151,N,444.2345,W,10.00,274.44,171115,,*38
$GPRMC,011845,A,4818.8169,N,444.2699,W,10.00,274.44,171115,,*37
$GPRMC,011845,A,4818.8187,N,444.3052,W,10.00,274.44,171115,,*37
$GPRMC,011845,A,4818.8206,N,444.3405,W,10.00,274.44,171115,,*3B
$GPRMC,011845,A,4818.8224,N,444.3759,W,10.00,274.44,171115,,*31
$GPRMC,011845,A,4818.8242,N,444.4112,W,10.00,274.44,171115,,*3F
$GPRMC,011845,A,4818.8260,N,444.4465,W,10.00,274.44,171115,,*3A
$GPRMC,011845,A,4818.8278,N,444.4819,W,10.00,274.44,171115,,*34
$GPRMC,011845,A,4818.8297,N,444.5172,W,10.00,274.44,171115,,*30
$GPRMC,011845,A,4818.8315,N,444.5525,W,10.00,274.44,171115,,*3D
$GPRMC,011845,A,4818.8333,N,444.5879,W,10.00,274.44,171115,,*3D
$GPRMC,011845,A,4818.8351,N,444.6232,W,10.00,274.44,171115,,*3F
$GPRMC,011845,A,4818.8369,N,444.6585,W,10.00,274.44,171115,,*3F
$GPRMC,011845,A,4818.8387,N,444.6939,W,10.00,274.44,171115,,*34
$GPRMC,011845,A,4818.8406,N,444.7292,W,10.00,274.44,171115,,*31
$GPRMC,011845,A,4818.8424,N,444.7645,W,10.00,274.44,171115,,*3F
$GPRMC,011845,A,4818.8442,N,444.7999,W,10.00,274.44,171115,,*31
$GPRMC,011845,A,4818.8460,N,444.8352,W,10.00,274.44,171115,,*33
$GPRMC,011845,A,4818.8478,N,444.8705,W,10.00,274.44,171115,,*3C
$GPRMC,011845,A,4818.8496,N,444.9059,W,10.00,274.44,171115,,*33
$GPRMC,011845,A,4818.8515,N,444.9412,W,10.00,274.44,171115,,*32
$GPRMC,011845,A,4818.8533,N,444.9765,W,10.00,274.44,171115,,*35
$GPRMC,011845,A,4818.8551,N,445.0119,W,10.00,274.44,171115,,*34
$GPRMC,011845,A,4818.8569,N,445.0472,W,10.00,274.44,171115,,*37
$GPRMC,011845,A,4818.8587,N,445.0826,W,10.00,274.44,171115,,*3A
$GPRMC,011845,A,4818.8605,N,445.1179,W,10.00,274.44,171115,,*31
$GPRMC,011845,A,4818.8624,N,445.1532,W,10.00,274.44,171115,,*39
$GPRMC,011845,A,4818.8642,N,445.1886,W,10.00,274.44,171115,,*3B
$GPRMC,011845,A,4818.8660,N,445.2239,W,10.00,274.44,171115,,*36
$GPRMC,011845,A,4818.8678,N,445.2592,W,10.00,274.44,171115,,*39
$GPRMC,011845,A,4818.8696,N,445.2946,W,10.00,274.44,171115,,*3C
$GPRMC,011845,A,4818.8714,N,445.3299,W,10.00,274.44,171115,,*3F
$GPRMC,011845,A,4818.8732,N,445.3652,W,10.00,274.44,171115,,*38
$GPRMC,011845,A,4818.8751,N,445.4006,W,10.00,274.44,171115,,*3D
$GPRMC,011845,A,4818.8769,N,445.4359,W,10.00,274.44,171115,,*3F
$GPRMC,011845,A,4818.8787,N,445.4712,W,10.00,274.44,171115,,*34
$GPRMC,011845,A,4818.8805,N,445.5066,W,10.00,274.44,171115,,*34
$GPRMC,011845,A,4818.8823,N,445.5419,W,10.00,274.44,171115,,*3C
$GPRMC,011845,A,4818.8841,N,445.5773,W,10.00,274.44,171115,,*37
$GPRMC,011845,A,4818.8859,N,445.6126,W,10.00,274.44,171115,,*3B
$GPRMC,011845,A,4818.8877,N,445.6479,W,10.00,274.44,171115,,*38
$GPRMC,011845,A,4818.8896,N,445.6833,W,10.00,274.44,171115,,*35
$GPRMC,011845,A,4818.8914,N,445.7186,W,10.00,274.44,171115,,*38
$GPRMC,011845,A,4818.8932,N,445.7539,W,10.00,274.44,171115,,*3C
$GPRMC,011845,A,4818.8950,N,445.7893,W,10.00,274.44,171115,,*35
$GPRMC,011845,A,4818.8968,N,445.8246,W,10.00,274.44,171115,,*33
$GPRMC,011845,A,4818.8986,N,445.8599,W,10.00,274.44,171115,,*36
$GPRMC,011845,A,4818.9004,N,445.8953,W,10.00,274.44,171115,,*3E
$GPRMC,011845,A,4818.9022,N,445.9306,W,10.00,274.44,171115,,*31
$GPRMC,011845,A,4818.9041,N,445.9660,W,10.00,274.44,171115,,*31
$GPRMC,011845,A,4818.9059,N,446.0013,W,10.00,274.44,171115,,*30
$GPRMC,011845,A,4818.9077,N,446.0366,W,10.00,274.44,171115,,*3D
$GPRMC,011845,A,4818.9095,N,446.0720,W,10.00,274.44,171115,,*37
$GPRMC,011845,A,4818.9113,N,446.1073,W,10.00,274.44,171115,,*38
$GPRMC,011845,A,4818.9131,N,446.1426,W,10.00,274.44,171115,,*3C
$GPRMC,011845,A,4818.9149,N,446.1780,W,10.00,274.44,171115,,*3C
$GPRMC,011845,A,4818.9167,N,446.2133,W,10.00,274.44,171115,,*3D
$GPRMC,011845,A,4818.9185,N,446.2486,W,10.00,274.44,171115,,*3A
$GPRMC,011845,A,4818.9203,N,446.2840,W,10.00,274.44,171115,,*31
$GPRMC,011845,A,4818.9222,N,446.3193,W,10.00,274.44,171115,,*34
$GPRMC,011845,A,4818.9240,N,446.3547,W,10.00,274.44,171115,,*3D
$GPRMC,011845,A,4818.9258,N,446.3900,W,10.00,274.44,171115,,*3B
$GPRMC,011845,A,4818.9276,N,446.4253,W,10.00,274.44,171115,,*3D
$GPRMC,011845,A,4818.9294,N,446.4607,W,10.00,274.44,171115,,*34
$GPRMC,011845,A,4818.9312,N,446.4960,W,10.00,274.44,171115,,*35
$GPRMC,011845,A,4818.9330,N,446.5313,W,10.00,274.44,171115,,*3A
$GPRMC,011845,A,4818.9348,N,446.5667,W,10.00,274.44,171115,,*33
$GPRMC,011845,A,4818.9366,N,446.6020,W,10.00,274.44,171115,,*39
$GPRMC,011845,A,4818.9384,N,446.6374,W,10.00,274.44,171115,,*37
$GPRMC,011845,A,4818.9402,N,446.6727,W,10.00,274.44,171115,,*3C
$GPRMC,011845,A,4818.9420,N,446.7080,W,10.00,274.44,171115,,*37
$GPRMC,011845,A,4818.9439,N,446.7434,W,10.00,274.44,171115,,*34
$GPRMC,011845,A,4818.9457,N,446.7787,W,10.00,274.44,171115,,*37
$GPRMC,011845,A,4818.9475,N,446.8140,W,10.00,274.44,171115,,*35
$GPRMC,011845,A,4818.9493,N,446.8494,W,10.00,274.44,171115,,*31
$GPRMC,011845,A,4818.9511,N,446.8847,W,10.00,274.44,171115,,*38
$GPRMC,011845,A,4818.9529,N,446.9201,W,10.00,274.44,171115,,*3A
$GPRMC,011845,A,4818.9547,N,446.9554,W,10.00,274.44,171115,,*35
$GPRMC,011845,A,4818.9551,N,446.9643,W,10.00,325.69,171115,,*3D
$GPRMC,011845,A,4819.0189,N,447.0295,W,10.00,325.69,171115,,*33
$GPRMC,011845,A,4819.0826,N,447.0947,W,10.00,325.69,171115,,*3B
$GPRMC,011845,A,4819.1463,N,447.1599,W,10.00,325.69,171115,,*39
$GPRMC,011845,A,4819.2100,N,447.2251,W,10.00,325.69,171115,,*3A
$GPRMC,011845,A,4819.2737,N,447.2903,W,10.00,325.69,171115,,*34
$GPRMC,011845,A,4819.3374,N,447.3555,W,10.00,325.69,171115,,*38
$GPRMC,011845,A,4819.4011,N,447.4207,W,10.00,325.69,171115,,*38
$GPRMC,011845,A,4819.4649,N,447.4859,W,10.00,325.69,171115,,*32
$GPRMC,011845,A,4819.5286,N,447.5512,W,10.00,325.69,171115,,*37
$GPRMC,011845,A,4819.5923,N,447.6164,W,10.00,325.69,171115,,*35
$GPRMC,011845,A,4819.6560,N,447.6816,W,10.00,325.69,171115,,*31
$GPRMC,011845,A,4819.7197,N,447.7468,W,10.00,325.69,171115,,*38
$GPRMC,011845,A,4819.7345,N,447.7619,W,10.00,2.96,171115,,*37
$GPRMC,011845,A,4819.8306,N,447.7545,W,10.00,2.96,171115,,*35
$GPRMC,011845,A,4819.9268,N,447.7470,W,10.00,2.96,171115,,*3A
$GPRMC,011845,A,4820.0229,N,447.7396,W,10.00,2.96,171115,,*33
$GPRMC,011845,A,4820.1191,N,447.7321,W,10.00,2.96,171115,,*3E
$GPRMC,011845,A,4820.2153,N,447.7246,W,10.00,2.96,171115,,*33
$GPRMC,011845,A,4820.3114,N,447.7172,W,10.00,2.96,171115,,*35
$GPRMC,011845,A,4820.4076,N,447.7097,W,10.00,2.96,171115,,*3D
$GPRMC,011845,A,4820.4894,N,447.7034,W,10.00,4.93,171115,,*33
$GPRMC,011845,A,4820.5818,N,447.6914,W,10.00,4.93,171115,,*3C
$GPRMC,011845,A,4820.6742,N,447.6795,W,10.00,4.93,171115,,*38
$GPRMC,011845,A,4820.7667,N,447.6675,W,10.00,4.93,171115,,*30
$GPRMC,011845,A,4820.8591,N,447.6556,W,10.00,4.93,171115,,*37
$GPRMC,011845,A,4820.9515,N,447.6436,W,10.00,4.93,171115,,*3D
$GPRMC,011845,A,4821.0439,N,447.6317,W,10.00,4.93,171115,,*3E
$GPRMC,011845,A,4821.1363,N,447.6197,W,10.00,4.93,171115,,*3D
$GPRMC,011845,A,4821.2287,N,447.6078,W,10.00,4.93,171115,,*35
$GPRMC,011845,A,4821.2712,N,447.6023,W,10.00,57.25,171115,,*09
$GPRMC,011845,A,4821.3478,N,447.4235,W,10.00,57.25,171115,,*00
$GPRMC,011845,A,4821.4244,N,447.2448,W,10.00,57.25,171115,,*04
$GPRMC,011845,A,4821.5010,N,447.0661,W,10.00,57.25,171115,,*0D
