$GPRMC,124028,A,4821.6635,N,427.7157,W,10.00,252.17,110517,,*3F
$GPRMC,124028,A,4821.6631,N,427.7178,W,10.00,252.17,110517,,*36
$GPRMC,124028,A,4821.6626,N,427.7200,W,10.00,252.17,110517,,*3C
$GPRMC,124028,A,4821.6621,N,427.7221,W,10.00,252.17,110517,,*38
$GPRMC,124028,A,4821.6617,N,427.7243,W,10.00,252.17,110517,,*39
$GPRMC,124028,A,4821.6612,N,427.7264,W,10.00,252.17,110517,,*39
$GPRMC,124028,A,4821.6608,N,427.7286,W,10.00,252.17,110517,,*3E
$GPRMC,124028,A,4821.6603,N,427.7307,W,10.00,252.17,110517,,*3D
$GPRMC,124028,A,4821.6598,N,427.7329,W,10.00,252.17,110517,,*30
$GPRMC,124028,A,4821.6594,N,427.7350,W,10.00,252.17,110517,,*32
$GPRMC,124028,A,4821.6589,N,427.7372,W,10.00,252.17,110517,,*3E
$GPRMC,124028,A,4821.6584,N,427.7393,W,10.00,252.17,110517,,*3C
$GPRMC,124028,A,4821.6580,N,427.7415,W,10.00,252.17,110517,,*31
$GPRMC,124028,A,4821.6575,N,427.7437,W,10.00,252.17,110517,,*3B
$GPRMC,124028,A,4821.6571,N,427.7458,W,10.00,252.17,110517,,*36
$GPRMC,124028,A,4821.6566,N,427.7480,W,10.00,252.17,110517,,*35
$GPRMC,124028,A,4821.6561,N,427.7501,W,10.00,252.17,110517,,*3A
$GPRMC,124028,A,4821.6557,N,427.7523,W,10.00,252.17,110517,,*3F
$GPRMC,124028,A,4821.6552,N,427.7544,W,10.00,252.17,110517,,*3B
$GPRMC,124028,A,4821.6547,N,427.7566,W,10.00,252.17,110517,,*3F
$GPRMC,124028,A,4821.6543,N,427.7587,W,10.00,252.17,110517,,*34
$GPRMC,124028,A,4821.6538,N,427.7609,W,10.00,252.17,110517,,*3D
$GPRMC,124028,A,4821.6534,N,427.7630,W,10.00,252.17,110517,,*3B
$GPRMC,124028,A,4821.6529,N,427.7652,W,10.00,252.17,110517,,*33
$GPRMC,124028,A,4821.6524,N,427.7674,W,10.00,252.17,110517,,*3A
$GPRMC,124028,A,4821.6520,N,427.7695,W,10.00,252.17,110517,,*31
$GPRMC,124028,A,4821.6515,N,427.7717,W,10.00,252.17,110517,,*3C
$GPRMC,124028,A,4821.6511,N,427.7738,W,10.00,252.17,110517,,*35
$GPRMC,124028,A,4821.6506,N,427.7760,W,10.00,252.17,110517,,*3E
$GPRMC,124028,A,4821.6501,N,427.7781,W,10.00,252.17,110517,,*36
$GPRMC,124028,A,4821.6497,N,427.7803,W,10.00,252.17,110517,,*3D
$GPRMC,124028,A,4821.6492,N,427.7824,W,10.00,252.17,110517,,*3D
$GPRMC,124028,A,4821.6487,N,427.7846,W,10.00,252.17,110517,,*3D
$GPRMC,124028,A,4821.6483,N,427.7867,W,10.00,252.17,110517,,*3A
$GPRMC,124028,A,4821.6478,N,427.7889,W,10.00,252.17,110517,,*3E
$GPRMC,124028,A,4821.6474,N,427.7910,W,10.00,252.17,110517,,*33
$GPRMC,124028,A,4821.6469,N,427.7932,W,10.00,252.17,110517,,*3F
$GPRMC,124028,A,4821.6464,N,427.7954,W,10.00,252.17,110517,,*32
$GPRMC,124028,A,4821.6460,N,427.7975,W,10.00,252.17,110517,,*35
$GPRMC,124028,A,4821.6455,N,427.7997,W,10.00,252.17,110517,,*3F
$GPRMC,124028,A,4821.6451,N,427.8018,W,10.00,252.17,110517,,*3A
$GPRMC,124028,A,4821.6446,N,427.8040,W,10.00,252.17,110517,,*31
$GPRMC,124028,A,4821.6441,N,427.8061,W,10.00,252.17,110517,,*35
$GPRMC,124028,A,4821.6437,N,427.8083,W,10.00,252.17,110517,,*38
$GPRMC,124028,A,4821.6432,N,427.8104,W,10.00,252.17,110517,,*33
$GPRMC,124028,A,4821.6427,N,427.8126,W,10.00,252.17,110517,,*37
$GPRMC,124028,A,4821.6423,N,427.8147,W,10.00,252.17,110517,,*34
$GPRMC,124028,A,4821.6418,N,427.8169,W,10.00,252.17,110517,,*30
$GPRMC,124028,A,4821.6414,N,427.8190,W,10.00,252.17,110517,,*3A
$GPRMC,124028,A,4821.6409,N,427.8212,W,10.00,252.17,110517,,*3F
$GPRMC,124028,A,4821.6404,N,427.8234,W,10.00,252.17,110517,,*36
$GPRMC,124028,A,4821.6400,N,427.8255,W,10.00,252.17,110517,,*35
$GPRMC,124028,A,4821.6395,N,427.8277,W,10.00,252.17,110517,,*3E
$GPRMC,124028,A,4821.6390,N,427.8298,W,10.00,252.17,110517,,*3A
$GPRMC,124028,A,4821.6386,N,427.8320,W,10.00,252.17,110517,,*3F
$GPRMC,124028,A,4821.6381,N,427.8341,W,10.00,252.17,110517,,*3F
$GPRMC,124028,A,4821.6377,N,427.8363,W,10.00,252.17,110517,,*36
$GPRMC,124028,A,4821.6372,N,427.8384,W,10.00,252.17,110517,,*3A
$GPRMC,124028,A,4821.6367,N,427.8406,W,10.00,252.17,110517,,*33
$GPRMC,124028,A,4821.6363,N,427.8427,W,10.00,252.17,110517,,*34
$GPRMC,124028,A,4821.6358,N,427.8449,W,10.00,252.17,110517,,*34
$GPRMC,124028,A,4821.6354,N,427.8470,W,10.00,252.17,110517,,*32
$GPRMC,124028,A,4821.6349,N,427.8492,W,10.00,252.17,110517,,*32
$GPRMC,124028,A,4821.6344,N,427.8514,W,10.00,252.17,110517,,*30
$GPRMC,124028,A,4821.6340,N,427.8535,W,10.00,252.17,110517,,*37
$GPRMC,124028,A,4821.6335,N,427.8557,W,10.00,252.17,110517,,*31
$GPRMC,124028,A,4821.6330,N,427.8578,W,10.00,252.17,110517,,*39
$GPRMC,124028,A,4821.6326,N,427.8600,W,10.00,252.17,110517,,*32
$GPRMC,124028,A,4821.6321,N,427.8621,W,10.00,252.17,110517,,*36
$GPRMC,124028,A,4821.6317,N,427.8643,W,10.00,252.17,110517,,*37
$GPRMC,124028,A,4821.6312,N,427.8664,W,10.00,252.17,110517,,*37
$GPRMC,124028,A,4821.6307,N,427.8686,W,10.00,252.17,110517,,*3F
$GPRMC,124028,A,4821.6303,N,427.8707,W,10.00,252.17,110517,,*33
$GPRMC,124028,A,4821.6298,N,427.8729,W,10.00,252.17,110517,,*3C
$GPRMC,124028,A,4821.6293,N,427.8750,W,10.00,252.17,110517,,*39
$GPRMC,124028,A,4821.6289,N,427.8772,W,10.00,252.17,110517,,*32
$GPRMC,124028,A,4821.6284,N,427.8794,W,10.00,252.17,110517,,*37
$GPRMC,124028,A,4821.6280,N,427.8815,W,10.00,252.17,110517,,*35
$GPRMC,124028,A,4821.6275,N,427.8837,W,10.00,252.17,110517,,*3F
$GPRMC,124028,A,4821.6270,N,427.8858,W,10.00,252.17,110517,,*33
$GPRMC,124028,A,4821.6266,N,427.8880,W,10.00,252.17,110517,,*31
$GPRMC,124028,A,4821.6261,N,427.8901,W,10.00,252.17,110517,,*3E
$GPRMC,124028,A,4821.6257,N,427.8923,W,10.00,252.17,110517,,*3B
$GPRMC,124028,A,4821.6252,N,427.8944,W,10.00,252.17,110517,,*3F
$GPRMC,124028,A,4821.6247,N,427.8966,W,10.00,252.17,110517,,*3B
$GPRMC,124028,A,4821.6243,N,427.8987,W,10.00,252.17,110517,,*30
$GPRMC,124028,A,4821.6238,N,427.9009,W,10.00,252.17,110517,,*32
$GPRMC,124028,A,4821.6233,N,427.9030,W,10.00,252.17,110517,,*33
$GPRMC,124028,A,4821.6229,N,427.9052,W,10.00,252.17,110517,,*3C
$GPRMC,124028,A,4821.6224,N,427.9074,W,10.00,252.17,110517,,*35
$GPRMC,124028,A,4821.6220,N,427.9095,W,10.00,252.17,110517,,*3E
$GPRMC,124028,A,4821.6215,N,427.9117,W,10.00,252.17,110517,,*33
$GPRMC,124028,A,4821.6210,N,427.9138,W,10.00,252.17,110517,,*3B
$GPRMC,124028,A,4821.6206,N,427.9160,W,10.00,252.17,110517,,*31
$GPRMC,124028,A,4821.6201,N,427.9181,W,10.00,252.17,110517,,*39
$GPRMC,124028,A,4821.6197,N,427.9203,W,10.00,252.17,110517,,*3C
$GPRMC,124028,A,4821.6192,N,427.9224,W,10.00,252.17,110517,,*3C
$GPRMC,124028,A,4821.6187,N,427.9246,W,10.00,252.17,110517,,*3C
$GPRMC,124028,A,4821.6183,N,427.9267,W,10.00,252.17,110517,,*3B
$GPRMC,124028,A,4821.6178,N,427.9289,W,10.00,252.17,110517,,*3F
$GPRMC,124028,A,4821.6173,N,427.9310,W,10.00,252.17,110517,,*35
$GPRMC,124028,A,4821.6169,N,427.9332,W,10.00,252.17,110517,,*3E
$GPRMC,124028,A,4821.6164,N,427.9354,W,10.00,252.17,110517,,*33
$GPRMC,124028,A,4821.6160,N,427.9375,W,10.00,252.17,110517,,*34
$GPRMC,124028,A,4821.6155,N,427.9397,W,10.00,252.17,110517,,*3E
$GPRMC,124028,A,4821.6150,N,427.9418,W,10.00,252.17,110517,,*3B
$GPRMC,124028,A,4821.6146,N,427.9440,W,10.00,252.17,110517,,*31
$GPRMC,124028,A,4821.6141,N,427.9461,W,10.00,252.17,110517,,*35
$GPRMC,124028,A,4821.6136,N,427.9483,W,10.00,252.17,110517,,*39
$GPRMC,124028,A,4821.6132,N,427.9504,W,10.00,252.17,110517,,*33
$GPRMC,124028,A,4821.6127,N,427.9526,W,10.00,252.17,110517,,*37
$GPRMC,124028,A,4821.6123,N,427.9547,W,10.00,252.17,110517,,*34
$GPRMC,124028,A,4821.6118,N,427.9569,W,10.00,252.17,110517,,*30
$GPRMC,124028,A,4821.6113,N,427.9590,W,10.00,252.17,110517,,*3D
$GPRMC,124028,A,4821.6109,N,427.9612,W,10.00,252.17,110517,,*3F
$GPRMC,124028,A,4821.6104,N,427.9634,W,10.00,252.17,110517,,*36
$GPRMC,124028,A,4821.6100,N,427.9655,W,10.00,252.17,110517,,*35
$GPRMC,124028,A,4821.6095,N,427.9677,W,10.00,252.17,110517,,*38
$GPRMC,124028,A,4821.6090,N,427.9698,W,10.00,252.17,110517,,*3C
$GPRMC,124028,A,4821.6086,N,427.9720,W,10.00,252.17,110517,,*39
$GPRMC,124028,A,4821.6081,N,427.9741,W,10.00,252.17,110517,,*39
$GPRMC,124028,A,4821.6076,N,427.9763,W,10.00,252.17,110517,,*31
$GPRMC,124028,A,4821.6072,N,427.9784,W,10.00,252.17,110517,,*3C
$GPRMC,124028,A,4821.6067,N,427.9806,W,10.00,252.17,110517,,*3D
$GPRMC,124028,A,4821.6063,N,427.9827,W,10.00,252.17,110517,,*3A
$GPRMC,124028,A,4821.6058,N,427.9849,W,10.00,252.17,110517,,*3A
$GPRMC,124028,A,4821.6053,N,427.9870,W,10.00,252.17,110517,,*3B
$GPRMC,124028,A,4821.6049,N,427.9892,W,10.00,252.17,110517,,*3C
$GPRMC,124028,A,4821.6044,N,427.9914,W,10.00,252.17,110517,,*3E
$GPRMC,124028,A,4821.6039,N,427.9935,W,10.00,252.17,110517,,*37
$GPRMC,124028,A,4821.6035,N,427.9957,W,10.00,252.17,110517,,*3F
$GPRMC,124028,A,4821.6030,N,427.9978,W,10.00,252.17,110517,,*37
$GPRMC,124028,A,4821.6026,N,428.0000,W,10.00,252.17,110517,,*30
$GPRMC,124028,A,4821.6021,N,428.0021,W,10.00,252.17,110517,,*34
$GPRMC,124028,A,4821.6016,N,428.0043,W,10.00,252.17,110517,,*34
$GPRMC,124028,A,4821.6012,N,428.0064,W,10.00,252.17,110517,,*35
$GPRMC,124028,A,4821.6007,N,428.0086,W,10.00,252.17,110517,,*3D
$GPRMC,124028,A,4821.6003,N,428.0107,W,10.00,252.17,110517,,*31
$GPRMC,124028,A,4821.5998,N,428.0129,W,10.00,252.17,110517,,*35
$GPRMC,124028,A,4821.5993,N,428.0150,W,10.00,252.17,110517,,*30
$GPRMC,124028,A,4821.5989,N,428.0172,W,10.00,252.17,110517,,*3B
$GPRMC,124028,A,4821.5984,N,428.0194,W,10.00,252.17,110517,,*3E
$GPRMC,124028,A,4821.5979,N,428.0215,W,10.00,252.17,110517,,*36
$GPRMC,124028,A,4821.5975,N,428.0237,W,10.00,252.17,110517,,*3A
$GPRMC,124028,A,4821.5970,N,428.0258,W,10.00,252.17,110517,,*36
$GPRMC,124028,A,4821.5966,N,428.0280,W,10.00,252.17,110517,,*34
$GPRMC,124028,A,4821.5961,N,428.0301,W,10.00,252.17,110517,,*3B
$GPRMC,124028,A,4821.5956,N,428.0323,W,10.00,252.17,110517,,*3F
$GPRMC,124028,A,4821.5952,N,428.0344,W,10.00,252.17,110517,,*3A
$GPRMC,124028,A,4821.5947,N,428.0366,W,10.00,252.17,110517,,*3E
$GPRMC,124028,A,4821.5942,N,428.0387,W,10.00,252.17,110517,,*34
$GPRMC,124028,A,4821.5938,N,428.0409,W,10.00,252.17,110517,,*38
$GPRMC,124028,A,4821.5933,N,428.0430,W,10.00,252.17,110517,,*39
$GPRMC,124028,A,4821.5929,N,428.0452,W,10.00,252.17,110517,,*36
$GPRMC,124028,A,4821.5924,N,428.0474,W,10.00,252.17,110517,,*3F
$GPRMC,124028,A,4821.5919,N,428.0495,W,10.00,252.17,110517,,*3E
$GPRMC,124028,A,4821.5915,N,428.0517,W,10.00,252.17,110517,,*39
$GPRMC,124028,A,4821.5910,N,428.0538,W,10.00,252.17,110517,,*31
$GPRMC,124028,A,4821.5906,N,428.0560,W,10.00,252.17,110517,,*3B
$GPRMC,124028,A,4821.5901,N,428.0581,W,10.00,252.17,110517,,*33
$GPRMC,124028,A,4821.5896,N,428.0603,W,10.00,252.17,110517,,*35
$GPRMC,124028,A,4821.5892,N,428.0624,W,10.00,252.17,110517,,*34
$GPRMC,124028,A,4821.5887,N,428.0646,W,10.00,252.17,110517,,*34
$GPRMC,124028,A,4821.5882,N,428.0667,W,10.00,252.17,110517,,*32
$GPRMC,124028,A,4821.5878,N,428.0689,W,10.00,252.17,110517,,*37
$GPRMC,124028,A,4821.5873,N,428.0710,W,10.00,252.17,110517,,*3D
$GPRMC,124028,A,4821.5869,N,428.0732,W,10.00,252.17,110517,,*36
$GPRMC,124028,A,4821.5864,N,428.0754,W,10.00,252.17,110517,,*3B
$GPRMC,124028,A,4821.5859,N,428.0775,W,10.00,252.17,110517,,*36
$GPRMC,124028,A,4821.5855,N,428.0797,W,10.00,252.17,110517,,*36
$GPRMC,124028,A,4821.5850,N,428.0818,W,10.00,252.17,110517,,*3B
$GPRMC,124028,A,4821.5845,N,428.0840,W,10.00,252.17,110517,,*32
$GPRMC,124028,A,4821.5841,N,428.0861,W,10.00,252.17,110517,,*35
$GPRMC,124028,A,4821.5836,N,428.0883,W,10.00,252.17,110517,,*39
$GPRMC,124028,A,4821.5832,N,428.0904,W,10.00,252.17,110517,,*33
$GPRMC,124028,A,4821.5827,N,428.0926,W,10.00,252.17,110517,,*37
$GPRMC,124028,A,4821.5822,N,428.0947,W,10.00,252.17,110517,,*35
$GPRMC,124028,A,4821.5818,N,428.0969,W,10.00,252.17,110517,,*30
$GPRMC,124028,A,4821.5813,N,428.0990,W,10.00,252.17,110517,,*3D
$GPRMC,124028,A,4821.5809,N,428.1012,W,10.00,252.17,110517,,*34
$GPRMC,124028,A,4821.5804,N,428.1034,W,10.00,252.17,110517,,*3D
$GPRMC,124028,A,4821.5799,N,428.1055,W,10.00,252.17,110517,,*31
$GPRMC,124028,A,4821.5795,N,428.1077,W,10.00,252.17,110517,,*3D
$GPRMC,124028,A,4821.5790,N,428.1098,W,10.00,252.17,110517,,*39
$GPRMC,124028,A,4821.5785,N,428.1120,W,10.00,252.17,110517,,*3F
$GPRMC,124028,A,4821.5781,N,428.1141,W,10.00,252.17,110517,,*3C
$GPRMC,124028,A,4821.5776,N,428.1163,W,10.00,252.17,110517,,*34
$GPRMC,124028,A,4821.5772,N,428.1184,W,10.00,252.17,110517,,*39
$GPRMC,124028,A,4821.5767,N,428.1206,W,10.00,252.17,110517,,*34
$GPRMC,124028,A,4821.5762,N,428.1227,W,10.00,252.17,110517,,*32
$GPRMC,124028,A,4821.5758,N,428.1249,W,10.00,252.17,110517,,*33
$GPRMC,124028,A,4821.5753,N,428.1270,W,10.00,252.17,110517,,*32
$GPRMC,124028,A,4821.5748,N,428.1292,W,10.00,252.17,110517,,*34
$GPRMC,124028,A,4821.5744,N,428.1314,W,10.00,252.17,110517,,*37
$GPRMC,124028,A,4821.5739,N,428.1335,W,10.00,252.17,110517,,*3E
$GPRMC,124028,A,4821.5735,N,428.1357,W,10.00,252.17,110517,,*36
$GPRMC,124028,A,4821.5730,N,428.1378,W,10.00,252.17,110517,,*3E
$GPRMC,124028,A,4821.5725,N,428.1400,W,10.00,252.17,110517,,*32
$GPRMC,124028,A,4821.5721,N,428.1421,W,10.00,252.17,110517,,*35
$GPRMC,124028,A,4821.5716,N,428.1443,W,10.00,252.17,110517,,*35
$GPRMC,124028,A,4821.5712,N,428.1464,W,10.00,252.17,110517,,*34
$GPRMC,124028,A,4821.5707,N,428.1486,W,10.00,252.17,110517,,*3C
$GPRMC,124028,A,4821.5702,N,428.1507,W,10.00,252.17,110517,,*31
$GPRMC,124028,A,4821.5698,N,428.1529,W,10.00,252.17,110517,,*3F
$GPRMC,124028,A,4821.5693,N,428.1550,W,10.00,252.17,110517,,*3A
$GPRMC,124028,A,4821.5688,N,428.1572,W,10.00,252.17,110517,,*30
$GPRMC,124028,A,4821.5684,N,428.1594,W,10.00,252.17,110517,,*34
$GPRMC,124028,A,4821.5679,N,428.1615,W,10.00,252.17,110517,,*3C
$GPRMC,124028,A,4821.5675,N,428.1637,W,10.00,252.17,110517,,*30
$GPRMC,124028,A,4821.5670,N,428.1658,W,10.00,252.17,110517,,*3C
$GPRMC,124028,A,4821.5665,N,428.1680,W,10.00,252.17,110517,,*3D
$GPRMC,124028,A,4821.5661,N,428.1701,W,10.00,252.17,110517,,*31
$GPRMC,124028,A,4821.5656,N,428.1723,W,10.00,252.17,110517,,*35
$GPRMC,124028,A,4821.5651,N,428.1744,W,10.00,252.17,110517,,*33
$GPRMC,124028,A,4821.5647,N,428.1766,W,10.00,252.17,110517,,*34
$GPRMC,124028,A,4821.5642,N,428.1787,W,10.00,252.17,110517,,*3E
$GPRMC,124028,A,4821.5638,N,428.1809,W,10.00,252.17,110517,,*3A
$GPRMC,124028,A,4821.5633,N,428.1830,W,10.00,252.17,110517,,*3B
$GPRMC,124028,A,4821.5628,N,428.1852,W,10.00,252.17,110517,,*35
$GPRMC,124028,A,4821.5624,N,428.1874,W,10.00,252.17,110517,,*3D
$GPRMC,124028,A,4821.5619,N,428.1895,W,10.00,252.17,110517,,*3C
$GPRMC,124028,A,4821.5615,N,428.1917,W,10.00,252.17,110517,,*3B
$GPRMC,124028,A,4821.5610,N,428.1938,W,10.00,252.17,110517,,*33
$GPRMC,124028,A,4821.5605,N,428.1960,W,10.00,252.17,110517,,*3A
$GPRMC,124028,A,4821.5601,N,428.1981,W,10.00,252.17,110517,,*31
$GPRMC,124028,A,4821.5596,N,428.2003,W,10.00,252.17,110517,,*3C
$GPRMC,124028,A,4821.5591,N,428.2024,W,10.00,252.17,110517,,*3E
$GPRMC,124028,A,4821.5587,N,428.2046,W,10.00,252.17,110517,,*3D
$GPRMC,124028,A,4821.5582,N,428.2067,W,10.00,252.17,110517,,*3B
$GPRMC,124028,A,4821.5578,N,428.2089,W,10.00,252.17,110517,,*3E
$GPRMC,124028,A,4821.5573,N,428.2110,W,10.00,252.17,110517,,*34
$GPRMC,124028,A,4821.5568,N,428.2132,W,10.00,252.17,110517,,*3E
$GPRMC,124028,A,4821.5564,N,428.2154,W,10.00,252.17,110517,,*32
$GPRMC,124028,A,4821.5559,N,428.2175,W,10.00,252.17,110517,,*3F
$GPRMC,124028,A,4821.5554,N,428.2197,W,10.00,252.17,110517,,*3E
$GPRMC,124028,A,4821.5550,N,428.2218,W,10.00,252.17,110517,,*3E
$GPRMC,124028,A,4821.5545,N,428.2240,W,10.00,252.17,110517,,*37
$GPRMC,124028,A,4821.5541,N,428.2261,W,10.00,252.17,110517,,*30
$GPRMC,124028,A,4821.5536,N,428.2283,W,10.00,252.17,110517,,*3C
$GPRMC,124028,A,4821.5531,N,428.2304,W,10.00,252.17,110517,,*35
$GPRMC,124028,A,4821.5527,N,428.2326,W,10.00,252.17,110517,,*32
$GPRMC,124028,A,4821.5522,N,428.2347,W,10.00,252.17,110517,,*30
$GPRMC,124028,A,4821.5518,N,428.2369,W,10.00,252.17,110517,,*35
$GPRMC,124028,A,4821.5513,N,428.2390,W,10.00,252.17,110517,,*38
$GPRMC,124028,A,4821.5508,N,428.2412,W,10.00,252.17,110517,,*3F
$GPRMC,124028,A,4821.5504,N,428.2434,W,10.00,252.17,110517,,*37
$GPRMC,124028,A,4821.5499,N,428.2455,W,10.00,252.17,110517,,*35
$GPRMC,124028,A,4821.5494,N,428.2477,W,10.00,252.17,110517,,*38
$GPRMC,124028,A,4821.5490,N,428.2498,W,10.00,252.17,110517,,*3D
$GPRMC,124028,A,4821.5485,N,428.2520,W,10.00,252.17,110517,,*3B
$GPRMC,124028,A,4821.5481,N,428.2541,W,10.00,252.17,110517,,*38
$GPRMC,124028,A,4821.5476,N,428.2563,W,10.00,252.17,110517,,*30
$GPRMC,124028,A,4821.5471,N,428.2584,W,10.00,252.17,110517,,*3E
$GPRMC,124028,A,4821.5467,N,428.2606,W,10.00,252.17,110517,,*30
$GPRMC,124028,A,4821.5462,N,428.2627,W,10.00,252.17,110517,,*36
$GPRMC,124028,A,4821.5457,N,428.2649,W,10.00,252.17,110517,,*38
$GPRMC,124028,A,4821.5453,N,428.2670,W,10.00,252.17,110517,,*36
$GPRMC,124028,A,4821.5448,N,428.2692,W,10.00,252.17,110517,,*30
$GPRMC,124028,A,4821.5444,N,428.2714,W,10.00,252.17,110517,,*33
$GPRMC,124028,A,4821.5439,N,428.2735,W,10.00,252.17,110517,,*3A
$GPRMC,124028,A,4821.5434,N,428.2757,W,10.00,252.17,110517,,*33
$GPRMC,124028,A,4821.5430,N,428.2778,W,10.00,252.17,110517,,*3A
$GPRMC,124028,A,4821.5425,N,428.2800,W,10.00,252.17,110517,,*3E
$GPRMC,124028,A,4821.5421,N,428.2821,W,10.00,252.17,110517,,*39
$GPRMC,124028,A,4821.5416,N,428.2843,W,10.00,252.17,110517,,*39
$GPRMC,124028,A,4821.5411,N,428.2864,W,10.00,252.17,110517,,*3B
$GPRMC,124028,A,4821.5407,N,428.2886,W,10.00,252.17,110517,,*30
$GPRMC,124028,A,4821.5402,N,428.2907,W,10.00,252.17,110517,,*3D
$GPRMC,124028,A,4821.5397,N,428.2929,W,10.00,252.17,110517,,*3A
$GPRMC,124028,A,4821.5393,N,428.2950,W,10.00,252.17,110517,,*30
$GPRMC,124028,A,4821.5388,N,428.2972,W,10.00,252.17,110517,,*3A
$GPRMC,124028,A,4821.5384,N,428.2994,W,10.00,252.17,110517,,*3E
$GPRMC,124028,A,4821.5379,N,428.3015,W,10.00,252.17,110517,,*3D
$GPRMC,124028,A,4821.5374,N,428.3037,W,10.00,252.17,110517,,*30
$GPRMC,124028,A,4821.5370,N,428.3058,W,10.00,252.17,110517,,*3D
$GPRMC,124028,A,4821.5365,N,428.3080,W,10.00,252.17,110517,,*3C
$GPRMC,124028,A,4821.5360,N,428.3101,W,10.00,252.17,110517,,*31
$GPRMC,124028,A,4821.5356,N,428.3123,W,10.00,252.17,110517,,*34
$GPRMC,124028,A,4821.5351,N,428.3144,W,10.00,252.17,110517,,*32
$GPRMC,124028,A,4821.5347,N,428.3166,W,10.00,252.17,110517,,*35
$GPRMC,124028,A,4821.5342,N,428.3187,W,10.00,252.17,110517,,*3F
$GPRMC,124028,A,4821.5337,N,428.3209,W,10.00,252.17,110517,,*38
$GPRMC,124028,A,4821.5333,N,428.3230,W,10.00,252.17,110517,,*36
$GPRMC,124028,A,4821.5328,N,428.3252,W,10.00,252.17,110517,,*38
$GPRMC,124028,A,4821.5324,N,428.3274,W,10.00,252.17,110517,,*30
$GPRMC,124028,A,4821.5319,N,428.3295,W,10.00,252.17,110517,,*31
$GPRMC,124028,A,4821.5314,N,428.3317,W,10.00,252.17,110517,,*37
$GPRMC,124028,A,4821.5310,N,428.3338,W,10.00,252.17,110517,,*3E
$GPRMC,124028,A,4821.5305,N,428.3360,W,10.00,252.17,110517,,*37
$GPRMC,124028,A,4821.5300,N,428.3381,W,10.00,252.17,110517,,*3D
$GPRMC,124028,A,4821.5296,N,428.3403,W,10.00,252.17,110517,,*3E
$GPRMC,124028,A,4821.5291,N,428.3424,W,10.00,252.17,110517,,*3C
$GPRMC,124028,A,4821.5287,N,428.3446,W,10.00,252.17,110517,,*3F
$GPRMC,124028,A,4821.5282,N,428.3467,W,10.00,252.17,110517,,*39
$GPRMC,124028,A,4821.5277,N,428.3489,W,10.00,252.17,110517,,*33
$GPRMC,124028,A,4821.5273,N,428.3510,W,10.00,252.17,110517,,*36
$GPRMC,124028,A,4821.5268,N,428.3532,W,10.00,252.17,110517,,*3C
$GPRMC,124028,A,4821.5263,N,428.3553,W,10.00,252.17,110517,,*30
$GPRMC,124028,A,4821.5259,N,428.3575,W,10.00,252.17,110517,,*3D
$GPRMC,124028,A,4821.5254,N,428.3597,W,10.00,252.17,110517,,*3C
$GPRMC,124028,A,4821.5250,N,428.3618,W,10.00,252.17,110517,,*3C
$GPRMC,124028,A,4821.5245,N,428.3640,W,10.00,252.17,110517,,*35
$GPRMC,124028,A,4821.5240,N,428.3661,W,10.00,252.17,110517,,*33
$GPRMC,124028,A,4821.5236,N,428.3683,W,10.00,252.17,110517,,*3E
$GPRMC,124028,A,4821.5231,N,428.3704,W,10.00,252.17,110517,,*37
$GPRMC,124028,A,4821.5227,N,428.3726,W,10.00,252.17,110517,,*30
$GPRMC,124028,A,4821.5222,N,428.3747,W,10.00,252.17,110517,,*32
$GPRMC,124028,A,4821.5217,N,428.3769,W,10.00,252.17,110517,,*38
$GPRMC,124028,A,4821.5213,N,428.3790,W,10.00,252.17,110517,,*3A
$GPRMC,124028,A,4821.5208,N,428.3812,W,10.00,252.17,110517,,*35
$GPRMC,124028,A,4821.5203,N,428.3833,W,10.00,252.17,110517,,*3D
$GPRMC,124028,A,4821.5199,N,428.3855,W,10.00,252.17,110517,,*3D
$GPRMC,124028,A,4821.5194,N,428.3877,W,10.00,252.17,110517,,*30
$GPRMC,124028,A,4821.5190,N,428.3898,W,10.00,252.17,110517,,*35
$GPRMC,124028,A,4821.5185,N,428.3920,W,10.00,252.17,110517,,*33
$GPRMC,124028,A,4821.5180,N,428.3941,W,10.00,252.17,110517,,*31
$GPRMC,124028,A,4821.5176,N,428.3963,W,10.00,252.17,110517,,*38
$GPRMC,124028,A,4821.5171,N,428.3984,W,10.00,252.17,110517,,*36
$GPRMC,124028,A,4821.5166,N,428.4006,W,10.00,252.17,110517,,*34
$GPRMC,124028,A,4821.5162,N,428.4027,W,10.00,252.17,110517,,*33
$GPRMC,124028,A,4821.5157,N,428.4049,W,10.00,252.17,110517,,*3D
$GPRMC,124028,A,4821.5153,N,428.4070,W,10.00,252.17,110517,,*33
$GPRMC,124028,A,4821.5148,N,428.4092,W,10.00,252.17,110517,,*35
$GPRMC,124028,A,4821.5143,N,428.4113,W,10.00,252.17,110517,,*36
$GPRMC,124028,A,4821.5139,N,428.4135,W,10.00,252.17,110517,,*3F
$GPRMC,124028,A,4821.5134,N,428.4157,W,10.00,252.17,110517,,*36
$GPRMC,124028,A,4821.5129,N,428.4178,W,10.00,252.17,110517,,*37
$GPRMC,124028,A,4821.5125,N,428.4200,W,10.00,252.17,110517,,*37
$GPRMC,124028,A,4821.5120,N,428.4221,W,10.00,252.17,110517,,*31
$GPRMC,124028,A,4821.5116,N,428.4243,W,10.00,252.17,110517,,*30
$GPRMC,124028,A,4821.5111,N,428.4264,W,10.00,252.17,110517,,*32
$GPRMC,124028,A,4821.5106,N,428.4286,W,10.00,252.17,110517,,*38
$GPRMC,124028,A,4821.5102,N,428.4307,W,10.00,252.17,110517,,*34
$GPRMC,124028,A,4821.5097,N,428.4329,W,10.00,252.17,110517,,*35
$GPRMC,124028,A,4821.5093,N,428.4350,W,10.00,252.17,110517,,*3F
$GPRMC,124028,A,4821.5088,N,428.4372,W,10.00,252.17,110517,,*35
$GPRMC,124028,A,4821.5083,N,428.4393,W,10.00,252.17,110517,,*31
$GPRMC,124028,A,4821.5079,N,428.4415,W,10.00,252.17,110517,,*3D
$GPRMC,124028,A,4821.5074,N,428.4437,W,10.00,252.17,110517,,*30
$GPRMC,124028,A,4821.5069,N,428.4458,W,10.00,252.17,110517,,*35
$GPRMC,124028,A,4821.5065,N,428.4480,W,10.00,252.17,110517,,*3C
$GPRMC,124028,A,4821.5060,N,428.4501,W,10.00,252.17,110517,,*31
$GPRMC,124028,A,4821.5056,N,428.4523,W,10.00,252.17,110517,,*34
$GPRMC,124028,A,4821.5051,N,428.4544,W,10.00,252.17,110517,,*32
$GPRMC,124028,A,4821.5046,N,428.4566,W,10.00,252.17,110517,,*34
$GPRMC,124028,A,4821.5042,N,428.4587,W,10.00,252.17,110517,,*3F
$GPRMC,124028,A,4821.5037,N,428.4609,W,10.00,252.17,110517,,*38
$GPRMC,124028,A,4821.5032,N,428.4630,W,10.00,252.17,110517,,*37
$GPRMC,124028,A,4821.5028,N,428.4652,W,10.00,252.17,110517,,*38
$GPRMC,124028,A,4821.5023,N,428.4673,W,10.00,252.17,110517,,*30
$GPRMC,124028,A,4821.5019,N,428.4695,W,10.00,252.17,110517,,*31
$GPRMC,124028,A,4821.5014,N,428.4717,W,10.00,252.17,110517,,*37
$GPRMC,124028,A,4821.5009,N,428.4738,W,10.00,252.17,110517,,*36
$GPRMC,124028,A,4821.5005,N,428.4760,W,10.00,252.17,110517,,*37
$GPRMC,124028,A,4821.5000,N,428.4781,W,10.00,252.17,110517,,*3D
$GPRMC,124028,A,4821.4996,N,428.4803,W,10.00,252.17,110517,,*3F
$GPRMC,124028,A,4821.4991,N,428.4824,W,10.00,252.17,110517,,*3D
$GPRMC,124028,A,4821.4986,N,428.4846,W,10.00,252.17,110517,,*3F
$GPRMC,124028,A,4821.4982,N,428.4867,W,10.00,252.17,110517,,*38
$GPRMC,124028,A,4821.4977,N,428.4889,W,10.00,252.17,110517,,*32
$GPRMC,124028,A,4821.4972,N,428.4910,W,10.00,252.17,110517,,*36
$GPRMC,124028,A,4821.4968,N,428.4932,W,10.00,252.17,110517,,*3D
$GPRMC,124028,A,4821.4963,N,428.4953,W,10.00,252.17,110517,,*31
$GPRMC,124028,A,4821.4959,N,428.4975,W,10.00,252.17,110517,,*3C
$GPRMC,124028,A,4821.4954,N,428.4997,W,10.00,252.17,110517,,*3D
$GPRMC,124028,A,4821.4949,N,428.5018,W,10.00,252.17,110517,,*3E
$GPRMC,124028,A,4821.4945,N,428.5040,W,10.00,252.17,110517,,*3F
$GPRMC,124028,A,4821.4940,N,428.5061,W,10.00,252.17,110517,,*39
$GPRMC,124028,A,4821.4935,N,428.5083,W,10.00,252.17,110517,,*37
$GPRMC,124028,A,4821.4931,N,428.5104,W,10.00,252.17,110517,,*3D
$GPRMC,124028,A,4821.4926,N,428.5126,W,10.00,252.17,110517,,*3B
$GPRMC,124028,A,4821.4922,N,428.5147,W,10.00,252.17,110517,,*38
$GPRMC,124028,A,4821.4917,N,428.5169,W,10.00,252.17,110517,,*32
$GPRMC,124028,A,4821.4912,N,428.5190,W,10.00,252.17,110517,,*31
$GPRMC,124028,A,4821.4908,N,428.5212,W,10.00,252.17,110517,,*33
$GPRMC,124028,A,4821.4903,N,428.5233,W,10.00,252.17,110517,,*3B
$GPRMC,124028,A,4821.4898,N,428.5255,W,10.00,252.17,110517,,*38
$GPRMC,124028,A,4821.4894,N,428.5276,W,10.00,252.17,110517,,*35
$GPRMC,124028,A,4821.4889,N,428.5298,W,10.00,252.17,110517,,*39
$GPRMC,124028,A,4821.4885,N,428.5320,W,10.00,252.17,110517,,*37
$GPRMC,124028,A,4821.4880,N,428.5341,W,10.00,252.17,110517,,*35
$GPRMC,124028,A,4821.4875,N,428.5363,W,10.00,252.17,110517,,*3F
$GPRMC,124028,A,4821.4871,N,428.5384,W,10.00,252.17,110517,,*32
$GPRMC,124028,A,4821.4866,N,428.5406,W,10.00,252.17,110517,,*39
$GPRMC,124028,A,4821.4862,N,428.5427,W,10.00,252.17,110517,,*3E
$GPRMC,124028,A,4821.4857,N,428.5449,W,10.00,252.17,110517,,*30
$GPRMC,124028,A,4821.4852,N,428.5470,W,10.00,252.17,110517,,*3F
$GPRMC,124028,A,4821.4848,N,428.5492,W,10.00,252.17,110517,,*38
$GPRMC,124028,A,4821.4843,N,428.5513,W,10.00,252.17,110517,,*3B
$GPRMC,124028,A,4821.4838,N,428.5535,W,10.00,252.17,110517,,*33
$GPRMC,124028,A,4821.4834,N,428.5556,W,10.00,252.17,110517,,*3A
$GPRMC,124028,A,4821.4829,N,428.5578,W,10.00,252.17,110517,,*3A
$GPRMC,124028,A,4821.4825,N,428.5600,W,10.00,252.17,110517,,*3A
$GPRMC,124028,A,4821.4820,N,428.5621,W,10.00,252.17,110517,,*3C
$GPRMC,124028,A,4821.4815,N,428.5643,W,10.00,252.17,110517,,*3E
$GPRMC,124028,A,4821.4811,N,428.5664,W,10.00,252.17,110517,,*3F
$GPRMC,124028,A,4821.4806,N,428.5686,W,10.00,252.17,110517,,*35
$GPRMC,124028,A,4821.4801,N,428.5707,W,10.00,252.17,110517,,*3A
$GPRMC,124028,A,4821.4797,N,428.5729,W,10.00,252.17,110517,,*36
$GPRMC,124028,A,4821.4792,N,428.5750,W,10.00,252.17,110517,,*3D
$GPRMC,124028,A,4821.4788,N,428.5772,W,10.00,252.17,110517,,*36
$GPRMC,124028,A,4821.4783,N,428.5793,W,10.00,252.17,110517,,*32
$GPRMC,124028,A,4821.4778,N,428.5815,W,10.00,252.17,110517,,*37
$GPRMC,124028,A,4821.4774,N,428.5836,W,10.00,252.17,110517,,*3A
$GPRMC,124028,A,4821.4769,N,428.5858,W,10.00,252.17,110517,,*3E
$GPRMC,124028,A,4821.4765,N,428.5880,W,10.00,252.17,110517,,*37
$GPRMC,124028,A,4821.4760,N,428.5901,W,10.00,252.17,110517,,*3A
$GPRMC,124028,A,4821.4755,N,428.5923,W,10.00,252.17,110517,,*3C
$GPRMC,124028,A,4821.4751,N,428.5944,W,10.00,252.17,110517,,*39
$GPRMC,124028,A,4821.4746,N,428.5966,W,10.00,252.17,110517,,*3F
$GPRMC,124028,A,4821.4741,N,428.5987,W,10.00,252.17,110517,,*37
$GPRMC,124028,A,4821.4737,N,428.6009,W,10.00,252.17,110517,,*3A
$GPRMC,124028,A,4821.4732,N,428.6030,W,10.00,252.17,110517,,*35
$GPRMC,124028,A,4821.4728,N,428.6052,W,10.00,252.17,110517,,*3A
$GPRMC,124028,A,4821.4723,N,428.6073,W,10.00,252.17,110517,,*32
$GPRMC,124028,A,4821.4718,N,428.6095,W,10.00,252.17,110517,,*32
$GPRMC,124028,A,4821.4714,N,428.6116,W,10.00,252.17,110517,,*34
$GPRMC,124028,A,4821.4709,N,428.6138,W,10.00,252.17,110517,,*34
$GPRMC,124028,A,4821.4704,N,428.6159,W,10.00,252.17,110517,,*3E
$GPRMC,124028,A,4821.4700,N,428.6181,W,10.00,252.17,110517,,*3F
$GPRMC,124028,A,4821.4695,N,428.6203,W,10.00,252.17,110517,,*3B
$GPRMC,124028,A,4821.4691,N,428.6224,W,10.00,252.17,110517,,*3A
$GPRMC,124028,A,4821.4686,N,428.6246,W,10.00,252.17,110517,,*38
$GPRMC,124028,A,4821.4681,N,428.6267,W,10.00,252.17,110517,,*3C
$GPRMC,124028,A,4821.4677,N,428.6289,W,10.00,252.17,110517,,*35
$GPRMC,124028,A,4821.4672,N,428.6310,W,10.00,252.17,110517,,*31
$GPRMC,124028,A,4821.4667,N,428.6332,W,10.00,252.17,110517,,*35
$GPRMC,124028,A,4821.4663,N,428.6353,W,10.00,252.17,110517,,*36
$GPRMC,124028,A,4821.4658,N,428.6375,W,10.00,252.17,110517,,*3A
$GPRMC,124028,A,4821.4654,N,428.6396,W,10.00,252.17,110517,,*3B
$GPRMC,124028,A,4821.4649,N,428.6418,W,10.00,252.17,110517,,*36
$GPRMC,124028,A,4821.4644,N,428.6439,W,10.00,252.17,110517,,*38
$GPRMC,124028,A,4821.4640,N,428.6461,W,10.00,252.17,110517,,*31
$GPRMC,124028,A,4821.4635,N,428.6483,W,10.00,252.17,110517,,*3F
$GPRMC,124028,A,4821.4631,N,428.6504,W,10.00,252.17,110517,,*35
$GPRMC,124028,A,4821.4626,N,428.6526,W,10.00,252.17,110517,,*33
$GPRMC,124028,A,4821.4621,N,428.6547,W,10.00,252.17,110517,,*33
$GPRMC,124028,A,4821.4617,N,428.6569,W,10.00,252.17,110517,,*3A
$GPRMC,124028,A,4821.4612,N,428.6590,W,10.00,252.17,110517,,*39
$GPRMC,124028,A,4821.4607,N,428.6612,W,10.00,252.17,110517,,*34
$GPRMC,124028,A,4821.4603,N,428.6633,W,10.00,252.17,110517,,*33
$GPRMC,124028,A,4821.4598,N,428.6655,W,10.00,252.17,110517,,*32
$GPRMC,124028,A,4821.4594,N,428.6676,W,10.00,252.17,110517,,*3F
$GPRMC,124028,A,4821.4589,N,428.6698,W,10.00,252.17,110517,,*33
$GPRMC,124028,A,4821.4584,N,428.6719,W,10.00,252.17,110517,,*36
$GPRMC,124028,A,4821.4580,N,428.6741,W,10.00,252.17,110517,,*3F
$GPRMC,124028,A,4821.4575,N,428.6763,W,10.00,252.17,110517,,*35
$GPRMC,124028,A,4821.4570,N,428.6784,W,10.00,252.17,110517,,*39
$GPRMC,124028,A,4821.4566,N,428.6806,W,10.00,252.17,110517,,*3B
$GPRMC,124028,A,4821.4561,N,428.6827,W,10.00,252.17,110517,,*3F
$GPRMC,124028,A,4821.4557,N,428.6849,W,10.00,252.17,110517,,*32
$GPRMC,124028,A,4821.4552,N,428.6870,W,10.00,252.17,110517,,*3D
$GPRMC,124028,A,4821.4547,N,428.6892,W,10.00,252.17,110517,,*35
$GPRMC,124028,A,4821.4543,N,428.6913,W,10.00,252.17,110517,,*39
$GPRMC,124028,A,4821.4538,N,428.6935,W,10.00,252.17,110517,,*31
$GPRMC,124028,A,4821.4533,N,428.6956,W,10.00,252.17,110517,,*3F
$GPRMC,124028,A,4821.4529,N,428.6978,W,10.00,252.17,110517,,*38
$GPRMC,124028,A,4821.4524,N,428.6999,W,10.00,252.17,110517,,*3A
$GPRMC,124028,A,4821.4520,N,428.7021,W,10.00,252.17,110517,,*35
$GPRMC,124028,A,4821.4515,N,428.7042,W,10.00,252.17,110517,,*36
$GPRMC,124028,A,4821.4510,N,428.7064,W,10.00,252.17,110517,,*37
$GPRMC,124028,A,4821.4506,N,428.7086,W,10.00,252.17,110517,,*3C
$GPRMC,124028,A,4821.4501,N,428.7107,W,10.00,252.17,110517,,*33
$GPRMC,124028,A,4821.4497,N,428.7129,W,10.00,252.17,110517,,*31
$GPRMC,124028,A,4821.4492,N,428.7150,W,10.00,252.17,110517,,*3A
$GPRMC,124028,A,4821.4487,N,428.7172,W,10.00,252.17,110517,,*3E
$GPRMC,124028,A,4821.4483,N,428.7193,W,10.00,252.17,110517,,*35
$GPRMC,124028,A,4821.4478,N,428.7215,W,10.00,252.17,110517,,*3C
$GPRMC,124028,A,4821.4473,N,428.7236,W,10.00,252.17,110517,,*36
$GPRMC,124028,A,4821.4469,N,428.7258,W,10.00,252.17,110517,,*35
$GPRMC,124028,A,4821.4464,N,428.7279,W,10.00,252.17,110517,,*3B
$GPRMC,124028,A,4821.4460,N,428.7301,W,10.00,252.17,110517,,*31
$GPRMC,124028,A,4821.4455,N,428.7322,W,10.00,252.17,110517,,*36
$GPRMC,124028,A,4821.4450,N,428.7344,W,10.00,252.17,110517,,*33
$GPRMC,124028,A,4821.4446,N,428.7366,W,10.00,252.17,110517,,*34
$GPRMC,124028,A,4821.4441,N,428.7387,W,10.00,252.17,110517,,*3C
$GPRMC,124028,A,4821.4436,N,428.7409,W,10.00,252.17,110517,,*3D
$GPRMC,124028,A,4821.4432,N,428.7430,W,10.00,252.17,110517,,*33
$GPRMC,124028,A,4821.4427,N,428.7452,W,10.00,252.17,110517,,*33
$GPRMC,124028,A,4821.4423,N,428.7473,W,10.00,252.17,110517,,*34
$GPRMC,124028,A,4821.4418,N,428.7495,W,10.00,252.17,110517,,*34
$GPRMC,124028,A,4821.4413,N,428.7516,W,10.00,252.17,110517,,*35
$GPRMC,124028,A,4821.4409,N,428.7538,W,10.00,252.17,110517,,*32
$GPRMC,124028,A,4821.4404,N,428.7559,W,10.00,252.17,110517,,*38
$GPRMC,124028,A,4821.4399,N,428.7581,W,10.00,252.17,110517,,*3E
$GPRMC,124028,A,4821.4395,N,428.7602,W,10.00,252.17,110517,,*3A
$GPRMC,124028,A,4821.4390,N,428.7624,W,10.00,252.17,110517,,*3B
$GPRMC,124028,A,4821.4386,N,428.7646,W,10.00,252.17,110517,,*38
$GPRMC,124028,A,4821.4381,N,428.7667,W,10.00,252.17,110517,,*3C
$GPRMC,124028,A,4821.4376,N,428.7689,W,10.00,252.17,110517,,*34
$GPRMC,124028,A,4821.4372,N,428.7710,W,10.00,252.17,110517,,*31
$GPRMC,124028,A,4821.4367,N,428.7732,W,10.00,252.17,110517,,*35
$GPRMC,124028,A,4821.4363,N,428.7753,W,10.00,252.17,110517,,*36
$GPRMC,124028,A,4821.4358,N,428.7775,W,10.00,252.17,110517,,*3A
$GPRMC,124028,A,4821.4353,N,428.7796,W,10.00,252.17,110517,,*3C
$GPRMC,124028,A,4821.4349,N,428.7818,W,10.00,252.17,110517,,*3E
$GPRMC,124028,A,4821.4344,N,428.7839,W,10.00,252.17,110517,,*30
$GPRMC,124028,A,4821.4339,N,428.7861,W,10.00,252.17,110517,,*37
$GPRMC,124028,A,4821.4335,N,428.7882,W,10.00,252.17,110517,,*36
$GPRMC,124028,A,4821.4330,N,428.7904,W,10.00,252.17,110517,,*3C
$GPRMC,124028,A,4821.4326,N,428.7925,W,10.00,252.17,110517,,*38
$GPRMC,124028,A,4821.4321,N,428.7947,W,10.00,252.17,110517,,*3B
$GPRMC,124028,A,4821.4316,N,428.7969,W,10.00,252.17,110517,,*33
$GPRMC,124028,A,4821.4312,N,428.7990,W,10.00,252.17,110517,,*31
$GPRMC,124028,A,4821.4307,N,428.8012,W,10.00,252.17,110517,,*39
$GPRMC,124028,A,4821.4302,N,428.8033,W,10.00,252.17,110517,,*3F
$GPRMC,124028,A,4821.4298,N,428.8055,W,10.00,252.17,110517,,*3D
$GPRMC,124028,A,4821.4293,N,428.8076,W,10.00,252.17,110517,,*37
$GPRMC,124028,A,4821.4289,N,428.8098,W,10.00,252.17,110517,,*3C
$GPRMC,124028,A,4821.4284,N,428.8119,W,10.00,252.17,110517,,*39
$GPRMC,124028,A,4821.4279,N,428.8141,W,10.00,252.17,110517,,*36
$GPRMC,124028,A,4821.4275,N,428.8162,W,10.00,252.17,110517,,*3B
$GPRMC,124028,A,4821.4270,N,428.8184,W,10.00,252.17,110517,,*36
$GPRMC,124028,A,4821.4265,N,428.8205,W,10.00,252.17,110517,,*38
$GPRMC,124028,A,4821.4261,N,428.8227,W,10.00,252.17,110517,,*3C
$GPRMC,124028,A,4821.4256,N,428.8249,W,10.00,252.17,110517,,*30
$GPRMC,124028,A,4821.4252,N,428.8270,W,10.00,252.17,110517,,*3E
$GPRMC,124028,A,4821.4247,N,428.8292,W,10.00,252.17,110517,,*36
$GPRMC,124028,A,4821.4242,N,428.8313,W,10.00,252.17,110517,,*3B
$GPRMC,124028,A,4821.4238,N,428.8335,W,10.00,252.17,110517,,*32
$GPRMC,124028,A,4821.4233,N,428.8356,W,10.00,252.17,110517,,*3C
$GPRMC,124028,A,4821.4228,N,428.8378,W,10.00,252.17,110517,,*3A
$GPRMC,124028,A,4821.4224,N,428.8399,W,10.00,252.17,110517,,*39
$GPRMC,124028,A,4821.4219,N,428.8421,W,10.00,252.17,110517,,*33
$GPRMC,124028,A,4821.4215,N,428.8442,W,10.00,252.17,110517,,*3A
$GPRMC,124028,A,4821.4210,N,428.8464,W,10.00,252.17,110517,,*3B
$GPRMC,124028,A,4821.4205,N,428.8485,W,10.00,252.17,110517,,*30
$GPRMC,124028,A,4821.4201,N,428.8507,W,10.00,252.17,110517,,*3F
$GPRMC,124028,A,4821.4196,N,428.8528,W,10.00,252.17,110517,,*3F
$GPRMC,124028,A,4821.4192,N,428.8550,W,10.00,252.17,110517,,*34
$GPRMC,124028,A,4821.4187,N,428.8572,W,10.00,252.17,110517,,*30
$GPRMC,124028,A,4821.4182,N,428.8593,W,10.00,252.17,110517,,*3A
$GPRMC,124028,A,4821.4178,N,428.8615,W,10.00,252.17,110517,,*32
$GPRMC,124028,A,4821.4173,N,428.8636,W,10.00,252.17,110517,,*38
$GPRMC,124028,A,4821.4168,N,428.8658,W,10.00,252.17,110517,,*3A
$GPRMC,124028,A,4821.4164,N,428.8679,W,10.00,252.17,110517,,*35
$GPRMC,124028,A,4821.4159,N,428.8701,W,10.00,252.17,110517,,*35
$GPRMC,124028,A,4821.4155,N,428.8722,W,10.00,252.17,110517,,*38
$GPRMC,124028,A,4821.4150,N,428.8744,W,10.00,252.17,110517,,*3D
$GPRMC,124028,A,4821.4145,N,428.8765,W,10.00,252.17,110517,,*3A
$GPRMC,124028,A,4821.4141,N,428.8787,W,10.00,252.17,110517,,*32
$GPRMC,124028,A,4821.4136,N,428.8808,W,10.00,252.17,110517,,*3A
$GPRMC,124028,A,4821.4131,N,428.8830,W,10.00,252.17,110517,,*36
$GPRMC,124028,A,4821.4127,N,428.8852,W,10.00,252.17,110517,,*35
$GPRMC,124028,A,4821.4122,N,428.8873,W,10.00,252.17,110517,,*33
$GPRMC,124028,A,4821.4118,N,428.8895,W,10.00,252.17,110517,,*32
$GPRMC,124028,A,4821.4113,N,428.8916,W,10.00,252.17,110517,,*33
$GPRMC,124028,A,4821.4108,N,428.8938,W,10.00,252.17,110517,,*35
$GPRMC,124028,A,4821.4104,N,428.8959,W,10.00,252.17,110517,,*3E
$GPRMC,124028,A,4821.4099,N,428.8981,W,10.00,252.17,110517,,*3E
$GPRMC,124028,A,4821.4094,N,428.9002,W,10.00,252.17,110517,,*30
$GPRMC,124028,A,4821.4090,N,428.9024,W,10.00,252.17,110517,,*30
$GPRMC,124028,A,4821.4085,N,428.9045,W,10.00,252.17,110517,,*33
$GPRMC,124028,A,4821.4081,N,428.9067,W,10.00,252.17,110517,,*37
$GPRMC,124028,A,4821.4076,N,428.9088,W,10.00,252.17,110517,,*3E
$GPRMC,124028,A,4821.4071,N,428.9110,W,10.00,252.17,110517,,*39
$GPRMC,124028,A,4821.4067,N,428.9132,W,10.00,252.17,110517,,*3E
$GPRMC,124028,A,4821.4062,N,428.9153,W,10.00,252.17,110517,,*3C
$GPRMC,124028,A,4821.4058,N,428.9175,W,10.00,252.17,110517,,*31
$GPRMC,124028,A,4821.4053,N,428.9196,W,10.00,252.17,110517,,*37
$GPRMC,124028,A,4821.4048,N,428.9218,W,10.00,252.17,110517,,*38
$GPRMC,124028,A,4821.4044,N,428.9239,W,10.00,252.17,110517,,*37
$GPRMC,124028,A,4821.4039,N,428.9261,W,10.00,252.17,110517,,*30
$GPRMC,124028,A,4821.4034,N,428.9282,W,10.00,252.17,110517,,*30
$GPRMC,124028,A,4821.4030,N,428.9304,W,10.00,252.17,110517,,*3B
$GPRMC,124028,A,4821.4025,N,428.9325,W,10.00,252.17,110517,,*3C
$GPRMC,124028,A,4821.4021,N,428.9347,W,10.00,252.17,110517,,*3C
$GPRMC,124028,A,4821.4016,N,428.9368,W,10.00,252.17,110517,,*35
$GPRMC,124028,A,4821.4011,N,428.9390,W,10.00,252.17,110517,,*35
$GPRMC,124028,A,4821.4007,N,428.9411,W,10.00,252.17,110517,,*3C
$GPRMC,124028,A,4821.4002,N,428.9433,W,10.00,252.17,110517,,*39
$GPRMC,124028,A,4821.3997,N,428.9455,W,10.00,252.17,110517,,*3B
$GPRMC,124028,A,4821.3993,N,428.9476,W,10.00,252.17,110517,,*3E
$GPRMC,124028,A,4821.3988,N,428.9498,W,10.00,252.17,110517,,*34
$GPRMC,124028,A,4821.3984,N,428.9519,W,10.00,252.17,110517,,*30
$GPRMC,124028,A,4821.3979,N,428.9541,W,10.00,252.17,110517,,*3F
$GPRMC,124028,A,4821.3974,N,428.9562,W,10.00,252.17,110517,,*33
$GPRMC,124028,A,4821.3970,N,428.9584,W,10.00,252.17,110517,,*3F
$GPRMC,124028,A,4821.3965,N,428.9605,W,10.00,252.17,110517,,*31
$GPRMC,124028,A,4821.3960,N,428.9627,W,10.00,252.17,110517,,*34
$GPRMC,124028,A,4821.3956,N,428.9648,W,10.00,252.17,110517,,*38
$GPRMC,124028,A,4821.3951,N,428.9670,W,10.00,252.17,110517,,*34
$GPRMC,124028,A,4821.3947,N,428.9691,W,10.00,252.17,110517,,*3C
$GPRMC,124028,A,4821.3942,N,428.9713,W,10.00,252.17,110517,,*32
$GPRMC,124028,A,4821.3937,N,428.9735,W,10.00,252.17,110517,,*34
$GPRMC,124028,A,4821.3933,N,428.9756,W,10.00,252.17,110517,,*35
$GPRMC,124028,A,4821.3928,N,428.9778,W,10.00,252.17,110517,,*33
$GPRMC,124028,A,4821.3923,N,428.9799,W,10.00,252.17,110517,,*37
$GPRMC,124028,A,4821.3919,N,428.9821,W,10.00,252.17,110517,,*32
$GPRMC,124028,A,4821.3914,N,428.9842,W,10.00,252.17,110517,,*3A
$GPRMC,124028,A,4821.3910,N,428.9864,W,10.00,252.17,110517,,*3A
$GPRMC,124028,A,4821.3905,N,428.9885,W,10.00,252.17,110517,,*31
$GPRMC,124028,A,4821.3900,N,428.9907,W,10.00,252.17,110517,,*3F
$GPRMC,124028,A,4821.3896,N,428.9928,W,10.00,252.17,110517,,*3C
$GPRMC,124028,A,4821.3891,N,428.9950,W,10.00,252.17,110517,,*34
$GPRMC,124028,A,4821.3887,N,428.9971,W,10.00,252.17,110517,,*30
$GPRMC,124028,A,4821.3882,N,428.9993,W,10.00,252.17,110517,,*39
$GPRMC,124028,A,4821.3877,N,429.0014,W,10.00,252.17,110517,,*3D
$GPRMC,124028,A,4821.3873,N,429.0036,W,10.00,252.17,110517,,*39
$GPRMC,124028,A,4821.3868,N,429.0058,W,10.00,252.17,110517,,*3B
$GPRMC,124028,A,4821.3863,N,429.0079,W,10.00,252.17,110517,,*33
$GPRMC,124028,A,4821.3859,N,429.0101,W,10.00,252.17,110517,,*34
$GPRMC,124028,A,4821.3854,N,429.0122,W,10.00,252.17,110517,,*38
$GPRMC,124028,A,4821.3850,N,429.0144,W,10.00,252.17,110517,,*3C
$GPRMC,124028,A,4821.3845,N,429.0165,W,10.00,252.17,110517,,*3B
$GPRMC,124028,A,4821.3840,N,429.0187,W,10.00,252.17,110517,,*32
$GPRMC,124028,A,4821.3836,N,429.0208,W,10.00,252.17,110517,,*37
$GPRMC,124028,A,4821.3831,N,429.0230,W,10.00,252.17,110517,,*3B
$GPRMC,124028,A,4821.3826,N,429.0251,W,10.00,252.17,110517,,*3A
$GPRMC,124028,A,4821.3822,N,429.0273,W,10.00,252.17,110517,,*3E
$GPRMC,124028,A,4821.3817,N,429.0294,W,10.00,252.17,110517,,*31
$GPRMC,124028,A,4821.3813,N,429.0316,W,10.00,252.17,110517,,*3E
$GPRMC,124028,A,4821.3808,N,429.0338,W,10.00,252.17,110517,,*38
$GPRMC,124028,A,4821.3803,N,429.0359,W,10.00,252.17,110517,,*34
$GPRMC,124028,A,4821.3799,N,429.0381,W,10.00,252.17,110517,,*3D
$GPRMC,124028,A,4821.3794,N,429.0402,W,10.00,252.17,110517,,*3C
$GPRMC,124028,A,4821.3789,N,429.0424,W,10.00,252.17,110517,,*34
$GPRMC,124028,A,4821.3785,N,429.0445,W,10.00,252.17,110517,,*3F
$GPRMC,124028,A,4821.3780,N,429.0467,W,10.00,252.17,110517,,*3A
$GPRMC,124028,A,4821.3776,N,429.0488,W,10.00,252.17,110517,,*32
$GPRMC,124028,A,4821.3771,N,429.0510,W,10.00,252.17,110517,,*35
$GPRMC,124028,A,4821.3766,N,429.0531,W,10.00,252.17,110517,,*30
$GPRMC,124028,A,4821.3762,N,429.0553,W,10.00,252.17,110517,,*30
$GPRMC,124028,A,4821.3757,N,429.0574,W,10.00,252.17,110517,,*33
$GPRMC,124028,A,4821.3752,N,429.0596,W,10.00,252.17,110517,,*3A
$GPRMC,124028,A,4821.3748,N,429.0617,W,10.00,252.17,110517,,*3B
$GPRMC,124028,A,4821.3743,N,429.0639,W,10.00,252.17,110517,,*3C
$GPRMC,124028,A,4821.3739,N,429.0661,W,10.00,252.17,110517,,*3C
$GPRMC,124028,A,4821.3734,N,429.0682,W,10.00,252.17,110517,,*3C
$GPRMC,124028,A,4821.3729,N,429.0704,W,10.00,252.17,110517,,*3F
$GPRMC,124028,A,4821.3725,N,429.0725,W,10.00,252.17,110517,,*30
$GPRMC,124028,A,4821.3720,N,429.0747,W,10.00,252.17,110517,,*31
$GPRMC,124028,A,4821.3716,N,429.0768,W,10.00,252.17,110517,,*39
$GPRMC,124028,A,4821.3711,N,429.0790,W,10.00,252.17,110517,,*39
$GPRMC,124028,A,4821.3706,N,429.0811,W,10.00,252.17,110517,,*39
$GPRMC,124028,A,4821.3702,N,429.0833,W,10.00,252.17,110517,,*3D
$GPRMC,124028,A,4821.3697,N,429.0854,W,10.00,252.17,110517,,*31
$GPRMC,124028,A,4821.3692,N,429.0876,W,10.00,252.17,110517,,*34
$GPRMC,124028,A,4821.3688,N,429.0897,W,10.00,252.17,110517,,*30
$GPRMC,124028,A,4821.3683,N,429.0919,W,10.00,252.17,110517,,*3C
$GPRMC,124028,A,4821.3679,N,429.0940,W,10.00,252.17,110517,,*35
$GPRMC,124028,A,4821.3674,N,429.0962,W,10.00,252.17,110517,,*38
$GPRMC,124028,A,4821.3669,N,429.0984,W,10.00,252.17,110517,,*3C
$GPRMC,124028,A,4821.3665,N,429.1005,W,10.00,252.17,110517,,*31
$GPRMC,124028,A,4821.3660,N,429.1027,W,10.00,252.17,110517,,*34
$GPRMC,124028,A,4821.3655,N,429.1048,W,10.00,252.17,110517,,*3B
$GPRMC,124028,A,4821.3651,N,429.1070,W,10.00,252.17,110517,,*34
$GPRMC,124028,A,4821.3646,N,429.1091,W,10.00,252.17,110517,,*3D
$GPRMC,124028,A,4821.3642,N,429.1113,W,10.00,252.17,110517,,*32
$GPRMC,124028,A,4821.3637,N,429.1134,W,10.00,252.17,110517,,*35
$GPRMC,124028,A,4821.3632,N,429.1156,W,10.00,252.17,110517,,*34
$GPRMC,124028,A,4821.3628,N,429.1177,W,10.00,252.17,110517,,*3C
$GPRMC,124028,A,4821.3623,N,429.1199,W,10.00,252.17,110517,,*37
$GPRMC,124028,A,4821.3618,N,429.1220,W,10.00,252.17,110517,,*3E
$GPRMC,124028,A,4821.3614,N,429.1242,W,10.00,252.17,110517,,*36
$GPRMC,124028,A,4821.3609,N,429.1264,W,10.00,252.17,110517,,*3E
$GPRMC,124028,A,4821.3605,N,429.1285,W,10.00,252.17,110517,,*3D
$GPRMC,124028,A,4821.3600,N,429.1307,W,10.00,252.17,110517,,*33
$GPRMC,124028,A,4821.3595,N,429.1328,W,10.00,252.17,110517,,*31
$GPRMC,124028,A,4821.3591,N,429.1350,W,10.00,252.17,110517,,*3A
$GPRMC,124028,A,4821.3586,N,429.1371,W,10.00,252.17,110517,,*3F
$GPRMC,124028,A,4821.3581,N,429.1393,W,10.00,252.17,110517,,*34
$GPRMC,124028,A,4821.3577,N,429.1414,W,10.00,252.17,110517,,*35
$GPRMC,124028,A,4821.3572,N,429.1436,W,10.00,252.17,110517,,*30
$GPRMC,124028,A,4821.3568,N,429.1457,W,10.00,252.17,110517,,*3C
$GPRMC,124028,A,4821.3563,N,429.1479,W,10.00,252.17,110517,,*3B
$GPRMC,124028,A,4821.3558,N,429.1500,W,10.00,252.17,110517,,*3C
$GPRMC,124028,A,4821.3554,N,429.1522,W,10.00,252.17,110517,,*30
$GPRMC,124028,A,4821.3549,N,429.1543,W,10.00,252.17,110517,,*3B
$GPRMC,124028,A,4821.3544,N,429.1565,W,10.00,252.17,110517,,*32
$GPRMC,124028,A,4821.3540,N,429.1587,W,10.00,252.17,110517,,*3A
$GPRMC,124028,A,4821.3535,N,429.1608,W,10.00,252.17,110517,,*3C
$GPRMC,124028,A,4821.3531,N,429.1630,W,10.00,252.17,110517,,*33
$GPRMC,124028,A,4821.3526,N,429.1651,W,10.00,252.17,110517,,*32
$GPRMC,124028,A,4821.3521,N,429.1673,W,10.00,252.17,110517,,*35
$GPRMC,124028,A,4821.3517,N,429.1694,W,10.00,252.17,110517,,*39
$GPRMC,124028,A,4821.3512,N,429.1716,W,10.00,252.17,110517,,*37
$GPRMC,124028,A,4821.3508,N,429.1737,W,10.00,252.17,110517,,*3F
$GPRMC,124028,A,4821.3503,N,429.1759,W,10.00,252.17,110517,,*3C
$GPRMC,124028,A,4821.3498,N,429.1780,W,10.00,252.17,110517,,*3B
$GPRMC,124028,A,4821.3494,N,429.1802,W,10.00,252.17,110517,,*32
$GPRMC,124028,A,4821.3489,N,429.1823,W,10.00,252.17,110517,,*3D
$GPRMC,124028,A,4821.3484,N,429.1845,W,10.00,252.17,110517,,*30
$GPRMC,124028,A,4821.3480,N,429.1867,W,10.00,252.17,110517,,*34
$GPRMC,124028,A,4821.3475,N,429.1888,W,10.00,252.17,110517,,*3F
$GPRMC,124028,A,4821.3471,N,429.1910,W,10.00,252.17,110517,,*3B
$GPRMC,124028,A,4821.3466,N,429.1931,W,10.00,252.17,110517,,*3E
$GPRMC,124028,A,4821.3461,N,429.1953,W,10.00,252.17,110517,,*3D
$GPRMC,124028,A,4821.3457,N,429.1974,W,10.00,252.17,110517,,*3D
$GPRMC,124028,A,4821.3452,N,429.1996,W,10.00,252.17,110517,,*34
$GPRMC,124028,A,4821.3447,N,429.2017,W,10.00,252.17,110517,,*33
$GPRMC,124028,A,4821.3443,N,429.2039,W,10.00,252.17,110517,,*3B
$GPRMC,124028,A,4821.3438,N,429.2060,W,10.00,252.17,110517,,*3B
$GPRMC,124028,A,4821.3434,N,429.2082,W,10.00,252.17,110517,,*3B
$GPRMC,124028,A,4821.3429,N,429.2103,W,10.00,252.17,110517,,*3F
$GPRMC,124028,A,4821.3424,N,429.2125,W,10.00,252.17,110517,,*36
$GPRMC,124028,A,4821.3420,N,429.2146,W,10.00,252.17,110517,,*37
$GPRMC,124028,A,4821.3415,N,429.2168,W,10.00,252.17,110517,,*3D
$GPRMC,124028,A,4821.3410,N,429.2190,W,10.00,252.17,110517,,*3F
$GPRMC,124028,A,4821.3406,N,429.2211,W,10.00,252.17,110517,,*32
$GPRMC,124028,A,4821.3401,N,429.2233,W,10.00,252.17,110517,,*35
$GPRMC,124028,A,4821.3397,N,429.2254,W,10.00,252.17,110517,,*3C
$GPRMC,124028,A,4821.3392,N,429.2276,W,10.00,252.17,110517,,*39
$GPRMC,124028,A,4821.3387,N,429.2297,W,10.00,252.17,110517,,*32
$GPRMC,124028,A,4821.3383,N,429.2319,W,10.00,252.17,110517,,*31
$GPRMC,124028,A,4821.3378,N,429.2340,W,10.00,252.17,110517,,*39
$GPRMC,124028,A,4821.3373,N,429.2362,W,10.00,252.17,110517,,*32
$GPRMC,124028,A,4821.3369,N,429.2383,W,10.00,252.17,110517,,*36
$GPRMC,124028,A,4821.3364,N,429.2405,W,10.00,252.17,110517,,*32
$GPRMC,124028,A,4821.3360,N,429.2426,W,10.00,252.17,110517,,*37
$GPRMC,124028,A,4821.3355,N,429.2448,W,10.00,252.17,110517,,*39
$GPRMC,124028,A,4821.3350,N,429.2469,W,10.00,252.17,110517,,*3F
$GPRMC,124028,A,4821.3346,N,429.2491,W,10.00,252.17,110517,,*3F
$GPRMC,124028,A,4821.3341,N,429.2513,W,10.00,252.17,110517,,*33
$GPRMC,124028,A,4821.3336,N,429.2534,W,10.00,252.17,110517,,*36
$GPRMC,124028,A,4821.3332,N,429.2556,W,10.00,252.17,110517,,*36
$GPRMC,124028,A,4821.3327,N,429.2577,W,10.00,252.17,110517,,*31
$GPRMC,124028,A,4821.3323,N,429.2599,W,10.00,252.17,110517,,*35
$GPRMC,124028,A,4821.3318,N,429.2620,W,10.00,252.17,110517,,*3C
$GPRMC,124028,A,4821.3313,N,429.2642,W,10.00,252.17,110517,,*33
$GPRMC,124028,A,4821.3309,N,429.2663,W,10.00,252.17,110517,,*3B
$GPRMC,124028,A,4821.3304,N,429.2685,W,10.00,252.17,110517,,*3E
$GPRMC,124028,A,4821.3300,N,429.2706,W,10.00,252.17,110517,,*30
$GPRMC,124028,A,4821.3295,N,429.2728,W,10.00,252.17,110517,,*31
$GPRMC,124028,A,4821.3290,N,429.2749,W,10.00,252.17,110517,,*33
$GPRMC,124028,A,4821.3286,N,429.2771,W,10.00,252.17,110517,,*3F
$GPRMC,124028,A,4821.3281,N,429.2793,W,10.00,252.17,110517,,*34
$GPRMC,124028,A,4821.3276,N,429.2814,W,10.00,252.17,110517,,*3C
$GPRMC,124028,A,4821.3272,N,429.2836,W,10.00,252.17,110517,,*38
$GPRMC,124028,A,4821.3267,N,429.2857,W,10.00,252.17,110517,,*3B
$GPRMC,124028,A,4821.3263,N,429.2879,W,10.00,252.17,110517,,*33
$GPRMC,124028,A,4821.3258,N,429.2900,W,10.00,252.17,110517,,*34
$GPRMC,124028,A,4821.3253,N,429.2922,W,10.00,252.17,110517,,*3F
$GPRMC,124028,A,4821.3249,N,429.2943,W,10.00,252.17,110517,,*33
$GPRMC,124028,A,4821.3244,N,429.2965,W,10.00,252.17,110517,,*3A
$GPRMC,124028,A,4821.3239,N,429.2986,W,10.00,252.17,110517,,*3D
$GPRMC,124028,A,4821.3235,N,429.3008,W,10.00,252.17,110517,,*3F
$GPRMC,124028,A,4821.3230,N,429.3029,W,10.00,252.17,110517,,*39
$GPRMC,124028,A,4821.3226,N,429.3051,W,10.00,252.17,110517,,*31
$GPRMC,124028,A,4821.3221,N,429.3072,W,10.00,252.17,110517,,*37
$GPRMC,124028,A,4821.3216,N,429.3094,W,10.00,252.17,110517,,*3B
$GPRMC,124028,A,4821.3212,N,429.3116,W,10.00,252.17,110517,,*34
$GPRMC,124028,A,4821.3207,N,429.3137,W,10.00,252.17,110517,,*33
$GPRMC,124028,A,4821.3202,N,429.3159,W,10.00,252.17,110517,,*3E
$GPRMC,124028,A,4821.3198,N,429.3180,W,10.00,252.17,110517,,*3A
$GPRMC,124028,A,4821.3193,N,429.3202,W,10.00,252.17,110517,,*38
$GPRMC,124028,A,4821.3189,N,429.3223,W,10.00,252.17,110517,,*30
$GPRMC,124028,A,4821.3184,N,429.3245,W,10.00,252.17,110517,,*3D
$GPRMC,124028,A,4821.3179,N,429.3266,W,10.00,252.17,110517,,*3E
$GPRMC,124028,A,4821.3175,N,429.3288,W,10.00,252.17,110517,,*32
$GPRMC,124028,A,4821.3170,N,429.3309,W,10.00,252.17,110517,,*3F
$GPRMC,124028,A,4821.3165,N,429.3331,W,10.00,252.17,110517,,*30
$GPRMC,124028,A,4821.3161,N,429.3352,W,10.00,252.17,110517,,*31
$GPRMC,124028,A,4821.3156,N,429.3374,W,10.00,252.17,110517,,*31
$GPRMC,124028,A,4821.3152,N,429.3395,W,10.00,252.17,110517,,*3A
$GPRMC,124028,A,4821.3147,N,429.3417,W,10.00,252.17,110517,,*33
$GPRMC,124028,A,4821.3142,N,429.3439,W,10.00,252.17,110517,,*3A
$GPRMC,124028,A,4821.3138,N,429.3460,W,10.00,252.17,110517,,*3B
$GPRMC,124028,A,4821.3133,N,429.3482,W,10.00,252.17,110517,,*3C
$GPRMC,124028,A,4821.3128,N,429.3503,W,10.00,252.17,110517,,*3E
$GPRMC,124028,A,4821.3124,N,429.3525,W,10.00,252.17,110517,,*36
$GPRMC,124028,A,4821.3119,N,429.3546,W,10.00,252.17,110517,,*3D
$GPRMC,124028,A,4821.3115,N,429.3568,W,10.00,252.17,110517,,*3D
$GPRMC,124028,A,4821.3110,N,429.3589,W,10.00,252.17,110517,,*37
$GPRMC,124028,A,4821.3105,N,429.3611,W,10.00,252.17,110517,,*31
$GPRMC,124028,A,4821.3101,N,429.3632,W,10.00,252.17,110517,,*34
$GPRMC,124028,A,4821.3096,N,429.3654,W,10.00,252.17,110517,,*3B
$GPRMC,124028,A,4821.3091,N,429.3675,W,10.00,252.17,110517,,*3F
$GPRMC,124028,A,4821.3087,N,429.3697,W,10.00,252.17,110517,,*34
$GPRMC,124028,A,4821.3082,N,429.3718,W,10.00,252.17,110517,,*37
$GPRMC,124028,A,4821.3078,N,429.3740,W,10.00,252.17,110517,,*3F
$GPRMC,124028,A,4821.3073,N,429.3762,W,10.00,252.17,110517,,*34
$GPRMC,124028,A,4821.3068,N,429.3783,W,10.00,252.17,110517,,*31
$GPRMC,124028,A,4821.3064,N,429.3805,W,10.00,252.17,110517,,*3C
$GPRMC,124028,A,4821.3059,N,429.3826,W,10.00,252.17,110517,,*33
$GPRMC,124028,A,4821.3055,N,429.3848,W,10.00,252.17,110517,,*37
$GPRMC,124028,A,4821.3050,N,429.3869,W,10.00,252.17,110517,,*31
$GPRMC,124028,A,4821.3045,N,429.3891,W,10.00,252.17,110517,,*32
$GPRMC,124028,A,4821.3041,N,429.3912,W,10.00,252.17,110517,,*3C
$GPRMC,124028,A,4821.3036,N,429.3934,W,10.00,252.17,110517,,*38
$GPRMC,124028,A,4821.3031,N,429.3955,W,10.00,252.17,110517,,*38
$GPRMC,124028,A,4821.3027,N,429.3977,W,10.00,252.17,110517,,*3F
$GPRMC,124028,A,4821.3022,N,429.3998,W,10.00,252.17,110517,,*3B
$GPRMC,124028,A,4821.3018,N,429.4020,W,10.00,252.17,110517,,*3F
$GPRMC,124028,A,4821.3013,N,429.4042,W,10.00,252.17,110517,,*30
$GPRMC,124028,A,4821.3008,N,429.4063,W,10.00,252.17,110517,,*39
$GPRMC,124028,A,4821.3004,N,429.4085,W,10.00,252.17,110517,,*3D
$GPRMC,124028,A,4821.2999,N,429.4106,W,10.00,252.17,110517,,*3B
$GPRMC,124028,A,4821.2994,N,429.4128,W,10.00,252.17,110517,,*3A
$GPRMC,124028,A,4821.2990,N,429.4149,W,10.00,252.17,110517,,*39
$GPRMC,124028,A,4821.2985,N,429.4171,W,10.00,252.17,110517,,*36
$GPRMC,124028,A,4821.2981,N,429.4192,W,10.00,252.17,110517,,*3F
$GPRMC,124028,A,4821.2976,N,429.4214,W,10.00,252.17,110517,,*3A
$GPRMC,124028,A,4821.2971,N,429.4235,W,10.00,252.17,110517,,*3E
$GPRMC,124028,A,4821.2967,N,429.4257,W,10.00,252.17,110517,,*3D
$GPRMC,124028,A,4821.2962,N,429.4278,W,10.00,252.17,110517,,*35
$GPRMC,124028,A,4821.2957,N,429.4300,W,10.00,252.17,110517,,*3D
$GPRMC,124028,A,4821.2953,N,429.4321,W,10.00,252.17,110517,,*3A
$GPRMC,124028,A,4821.2948,N,429.4343,W,10.00,252.17,110517,,*34
$GPRMC,124028,A,4821.2944,N,429.4365,W,10.00,252.17,110517,,*3C
$GPRMC,124028,A,4821.2939,N,429.4386,W,10.00,252.17,110517,,*3B
$GPRMC,124028,A,4821.2934,N,429.4408,W,10.00,252.17,110517,,*37
$GPRMC,124028,A,4821.2930,N,429.4429,W,10.00,252.17,110517,,*30
$GPRMC,124028,A,4821.2925,N,429.4451,W,10.00,252.17,110517,,*3B
$GPRMC,124028,A,4821.2920,N,429.4472,W,10.00,252.17,110517,,*3F
$GPRMC,124028,A,4821.2916,N,429.4494,W,10.00,252.17,110517,,*32
$GPRMC,124028,A,4821.2911,N,429.4515,W,10.00,252.17,110517,,*3D
$GPRMC,124028,A,4821.2907,N,429.4537,W,10.00,252.17,110517,,*3A
$GPRMC,124028,A,4821.2902,N,429.4558,W,10.00,252.17,110517,,*36
$GPRMC,124028,A,4821.2897,N,429.4580,W,10.00,252.17,110517,,*3E
$GPRMC,124028,A,4821.2893,N,429.4601,W,10.00,252.17,110517,,*30
$GPRMC,124028,A,4821.2888,N,429.4623,W,10.00,252.17,110517,,*3A
$GPRMC,124028,A,4821.2883,N,429.4644,W,10.00,252.17,110517,,*30
$GPRMC,124028,A,4821.2879,N,429.4666,W,10.00,252.17,110517,,*35
$GPRMC,124028,A,4821.2874,N,429.4688,W,10.00,252.17,110517,,*38
$GPRMC,124028,A,4821.2870,N,429.4709,W,10.00,252.17,110517,,*34
$GPRMC,124028,A,4821.2865,N,429.4731,W,10.00,252.17,110517,,*3B
$GPRMC,124028,A,4821.2860,N,429.4752,W,10.00,252.17,110517,,*3B
$GPRMC,124028,A,4821.2856,N,429.4774,W,10.00,252.17,110517,,*3A
$GPRMC,124028,A,4821.2851,N,429.4795,W,10.00,252.17,110517,,*32
$GPRMC,124028,A,4821.2846,N,429.4817,W,10.00,252.17,110517,,*31
$GPRMC,124028,A,4821.2842,N,429.4838,W,10.00,252.17,110517,,*38
$GPRMC,124028,A,4821.2837,N,429.4860,W,10.00,252.17,110517,,*37
$GPRMC,124028,A,4821.2833,N,429.4881,W,10.00,252.17,110517,,*3C
$GPRMC,124028,A,4821.2828,N,429.4903,W,10.00,252.17,110517,,*3D
$GPRMC,124028,A,4821.2823,N,429.4924,W,10.00,252.17,110517,,*33
$GPRMC,124028,A,4821.2819,N,429.4946,W,10.00,252.17,110517,,*3E
$GPRMC,124028,A,4821.2814,N,429.4967,W,10.00,252.17,110517,,*30
$GPRMC,124028,A,4821.2809,N,429.4989,W,10.00,252.17,110517,,*3C
$GPRMC,124028,A,4821.2805,N,429.5011,W,10.00,252.17,110517,,*39
$GPRMC,124028,A,4821.2800,N,429.5032,W,10.00,252.17,110517,,*3D
$GPRMC,124028,A,4821.2796,N,429.5054,W,10.00,252.17,110517,,*3D
$GPRMC,124028,A,4821.2791,N,429.5075,W,10.00,252.17,110517,,*39
$GPRMC,124028,A,4821.2786,N,429.5097,W,10.00,252.17,110517,,*33
$GPRMC,124028,A,4821.2782,N,429.5118,W,10.00,252.17,110517,,*31
$GPRMC,124028,A,4821.2777,N,429.5140,W,10.00,252.17,110517,,*36
$GPRMC,124028,A,4821.2772,N,429.5161,W,10.00,252.17,110517,,*30
$GPRMC,124028,A,4821.2768,N,429.5183,W,10.00,252.17,110517,,*37
$GPRMC,124028,A,4821.2763,N,429.5204,W,10.00,252.17,110517,,*30
$GPRMC,124028,A,4821.2759,N,429.5226,W,10.00,252.17,110517,,*39
$GPRMC,124028,A,4821.2754,N,429.5247,W,10.00,252.17,110517,,*33
$GPRMC,124028,A,4821.2749,N,429.5269,W,10.00,252.17,110517,,*33
$GPRMC,124028,A,4821.2745,N,429.5290,W,10.00,252.17,110517,,*39
$GPRMC,124028,A,4821.2740,N,429.5312,W,10.00,252.17,110517,,*37
$GPRMC,124028,A,4821.2736,N,429.5334,W,10.00,252.17,110517,,*32
$GPRMC,124028,A,4821.2731,N,429.5355,W,10.00,252.17,110517,,*32
$GPRMC,124028,A,4821.2726,N,429.5377,W,10.00,252.17,110517,,*34
$GPRMC,124028,A,4821.2722,N,429.5398,W,10.00,252.17,110517,,*31
$GPRMC,124028,A,4821.2717,N,429.5420,W,10.00,252.17,110517,,*33
$GPRMC,124028,A,4821.2712,N,429.5441,W,10.00,252.17,110517,,*31
$GPRMC,124028,A,4821.2708,N,429.5463,W,10.00,252.17,110517,,*3A
$GPRMC,124028,A,4821.2703,N,429.5484,W,10.00,252.17,110517,,*38
$GPRMC,124028,A,4821.2699,N,429.5506,W,10.00,252.17,110517,,*31
$GPRMC,124028,A,4821.2694,N,429.5527,W,10.00,252.17,110517,,*3F
$GPRMC,124028,A,4821.2689,N,429.5549,W,10.00,252.17,110517,,*3B
$GPRMC,124028,A,4821.2685,N,429.5570,W,10.00,252.17,110517,,*3D
$GPRMC,124028,A,4821.2680,N,429.5592,W,10.00,252.17,110517,,*34
$GPRMC,124028,A,4821.2675,N,429.5614,W,10.00,252.17,110517,,*33
$GPRMC,124028,A,4821.2671,N,429.5635,W,10.00,252.17,110517,,*34
$GPRMC,124028,A,4821.2666,N,429.5657,W,10.00,252.17,110517,,*36
$GPRMC,124028,A,4821.2662,N,429.5678,W,10.00,252.17,110517,,*3F
$GPRMC,124028,A,4821.2657,N,429.5700,W,10.00,252.17,110517,,*37
$GPRMC,124028,A,4821.2652,N,429.5721,W,10.00,252.17,110517,,*31
$GPRMC,124028,A,4821.2648,N,429.5743,W,10.00,252.17,110517,,*3E
$GPRMC,124028,A,4821.2643,N,429.5764,W,10.00,252.17,110517,,*30
$GPRMC,124028,A,4821.2638,N,429.5786,W,10.00,252.17,110517,,*30
$GPRMC,124028,A,4821.2634,N,429.5807,W,10.00,252.17,110517,,*3A
$GPRMC,124028,A,4821.2629,N,429.5829,W,10.00,252.17,110517,,*3A
$GPRMC,124028,A,4821.2625,N,429.5850,W,10.00,252.17,110517,,*38
$GPRMC,124028,A,4821.2620,N,429.5872,W,10.00,252.17,110517,,*3D
$GPRMC,124028,A,4821.2615,N,429.5893,W,10.00,252.17,110517,,*34
$GPRMC,124028,A,4821.2611,N,429.5915,W,10.00,252.17,110517,,*3F
$GPRMC,124028,A,4821.2606,N,429.5937,W,10.00,252.17,110517,,*39
$GPRMC,124028,A,4821.2601,N,429.5958,W,10.00,252.17,110517,,*37
$GPRMC,124028,A,4821.2597,N,429.5980,W,10.00,252.17,110517,,*3E
$GPRMC,124028,A,4821.2592,N,429.6001,W,10.00,252.17,110517,,*38
$GPRMC,124028,A,4821.2588,N,429.6023,W,10.00,252.17,110517,,*33
$GPRMC,124028,A,4821.2583,N,429.6044,W,10.00,252.17,110517,,*39
$GPRMC,124028,A,4821.2578,N,429.6066,W,10.00,252.17,110517,,*3D
$GPRMC,124028,A,4821.2574,N,429.6087,W,10.00,252.17,110517,,*3E
$GPRMC,124028,A,4821.2569,N,429.6109,W,10.00,252.17,110517,,*35
$GPRMC,124028,A,4821.2564,N,429.6130,W,10.00,252.17,110517,,*32
$GPRMC,124028,A,4821.2560,N,429.6152,W,10.00,252.17,110517,,*32
$GPRMC,124028,A,4821.2555,N,429.6173,W,10.00,252.17,110517,,*37
$GPRMC,124028,A,4821.2551,N,429.6195,W,10.00,252.17,110517,,*3B
$GPRMC,124028,A,4821.2546,N,429.6216,W,10.00,252.17,110517,,*35
$GPRMC,124028,A,4821.2541,N,429.6238,W,10.00,252.17,110517,,*3E
$GPRMC,124028,A,4821.2537,N,429.6260,W,10.00,252.17,110517,,*32
$GPRMC,124028,A,4821.2532,N,429.6281,W,10.00,252.17,110517,,*38
$GPRMC,124028,A,4821.2527,N,429.6303,W,10.00,252.17,110517,,*37
$GPRMC,124028,A,4821.2523,N,429.6324,W,10.00,252.17,110517,,*36
$GPRMC,124028,A,4821.2518,N,429.6346,W,10.00,252.17,110517,,*3A
$GPRMC,124028,A,4821.2514,N,429.6367,W,10.00,252.17,110517,,*35
$GPRMC,124028,A,4821.2509,N,429.6389,W,10.00,252.17,110517,,*39
$GPRMC,124028,A,4821.2504,N,429.6410,W,10.00,252.17,110517,,*33
$GPRMC,124028,A,4821.2500,N,429.6432,W,10.00,252.17,110517,,*37
$GPRMC,124028,A,4821.2495,N,429.6453,W,10.00,252.17,110517,,*3D
$GPRMC,124028,A,4821.2490,N,429.6475,W,10.00,252.17,110517,,*3C
$GPRMC,124028,A,4821.2486,N,429.6496,W,10.00,252.17,110517,,*36
$GPRMC,124028,A,4821.2481,N,429.6518,W,10.00,252.17,110517,,*36
$GPRMC,124028,A,4821.2477,N,429.6539,W,10.00,252.17,110517,,*3C
$GPRMC,124028,A,4821.2472,N,429.6561,W,10.00,252.17,110517,,*34
$GPRMC,124028,A,4821.2467,N,429.6583,W,10.00,252.17,110517,,*3C
$GPRMC,124028,A,4821.2463,N,429.6604,W,10.00,252.17,110517,,*34
$GPRMC,124028,A,4821.2458,N,429.6626,W,10.00,252.17,110517,,*3C
$GPRMC,124028,A,4821.2453,N,429.6647,W,10.00,252.17,110517,,*30
$GPRMC,124028,A,4821.2449,N,429.6669,W,10.00,252.17,110517,,*37
$GPRMC,124028,A,4821.2444,N,429.6690,W,10.00,252.17,110517,,*3C
$GPRMC,124028,A,4821.2440,N,429.6712,W,10.00,252.17,110517,,*33
$GPRMC,124028,A,4821.2435,N,429.6733,W,10.00,252.17,110517,,*32
$GPRMC,124028,A,4821.2430,N,429.6755,W,10.00,252.17,110517,,*37
$GPRMC,124028,A,4821.2426,N,429.6776,W,10.00,252.17,110517,,*31
$GPRMC,124028,A,4821.2421,N,429.6798,W,10.00,252.17,110517,,*36
$GPRMC,124028,A,4821.2416,N,429.6819,W,10.00,252.17,110517,,*34
$GPRMC,124028,A,4821.2412,N,429.6841,W,10.00,252.17,110517,,*3D
$GPRMC,124028,A,4821.2407,N,429.6862,W,10.00,252.17,110517,,*38
$GPRMC,124028,A,4821.2403,N,429.6884,W,10.00,252.17,110517,,*34
$GPRMC,124028,A,4821.2398,N,429.6906,W,10.00,252.17,110517,,*3A
$GPRMC,124028,A,4821.2393,N,429.6927,W,10.00,252.17,110517,,*32
$GPRMC,124028,A,4821.2389,N,429.6949,W,10.00,252.17,110517,,*31
$GPRMC,124028,A,4821.2384,N,429.6970,W,10.00,252.17,110517,,*36
$GPRMC,124028,A,4821.2379,N,429.6992,W,10.00,252.17,110517,,*38
$GPRMC,124028,A,4821.2375,N,429.7013,W,10.00,252.17,110517,,*35
$GPRMC,124028,A,4821.2370,N,429.7035,W,10.00,252.17,110517,,*34
$GPRMC,124028,A,4821.2366,N,429.7056,W,10.00,252.17,110517,,*36
$GPRMC,124028,A,4821.2361,N,429.7078,W,10.00,252.17,110517,,*3D
$GPRMC,124028,A,4821.2356,N,429.7099,W,10.00,252.17,110517,,*36
$GPRMC,124028,A,4821.2352,N,429.7121,W,10.00,252.17,110517,,*30
$GPRMC,124028,A,4821.2347,N,429.7142,W,10.00,252.17,110517,,*31
$GPRMC,124028,A,4821.2343,N,429.7164,W,10.00,252.17,110517,,*31
$GPRMC,124028,A,4821.2338,N,429.7185,W,10.00,252.17,110517,,*32
$GPRMC,124028,A,4821.2333,N,429.7207,W,10.00,252.17,110517,,*30
$GPRMC,124028,A,4821.2329,N,429.7229,W,10.00,252.17,110517,,*37
$GPRMC,124028,A,4821.2324,N,429.7250,W,10.00,252.17,110517,,*34
$GPRMC,124028,A,4821.2319,N,429.7272,W,10.00,252.17,110517,,*3A
$GPRMC,124028,A,4821.2315,N,429.7293,W,10.00,252.17,110517,,*39
$GPRMC,124028,A,4821.2310,N,429.7315,W,10.00,252.17,110517,,*33
