$GPRMC,092113,A,4818.6726,N,442.1885,W,10.00,275.32,010217,,*34
$GPRMC,092113,A,4818.6728,N,442.1920,W,10.00,275.32,010217,,*34
$GPRMC,092113,A,4818.6730,N,442.1954,W,10.00,275.32,010217,,*3E
$GPRMC,092113,A,4818.6732,N,442.1989,W,10.00,275.32,010217,,*3C
$GPRMC,092113,A,4818.6734,N,442.2023,W,10.00,275.32,010217,,*30
$GPRMC,092113,A,4818.6737,N,442.2058,W,10.00,275.32,010217,,*3F
$GPRMC,092113,A,4818.6739,N,442.2092,W,10.00,275.32,010217,,*37
$GPRMC,092113,A,4818.6741,N,442.2127,W,10.00,275.32,010217,,*37
$GPRMC,092113,A,4818.6743,N,442.2161,W,10.00,275.32,010217,,*37
$GPRMC,092113,A,4818.6745,N,442.2196,W,10.00,275.32,010217,,*39
$GPRMC,092113,A,4818.6747,N,442.2230,W,10.00,275.32,010217,,*34
$GPRMC,092113,A,4818.6749,N,442.2265,W,10.00,275.32,010217,,*3A
$GPRMC,092113,A,4818.6752,N,442.2299,W,10.00,275.32,010217,,*33
$GPRMC,092113,A,4818.6754,N,442.2334,W,10.00,275.32,010217,,*33
$GPRMC,092113,A,4818.6756,N,442.2368,W,10.00,275.32,010217,,*38
$GPRMC,092113,A,4818.6758,N,442.2403,W,10.00,275.32,010217,,*3C
$GPRMC,092113,A,4818.6760,N,442.2437,W,10.00,275.32,010217,,*30
$GPRMC,092113,A,4818.6762,N,442.2471,W,10.00,275.32,010217,,*30
$GPRMC,092113,A,4818.6764,N,442.2506,W,10.00,275.32,010217,,*37
$GPRMC,092113,A,4818.6767,N,442.2540,W,10.00,275.32,010217,,*36
$GPRMC,092113,A,4818.6769,N,442.2575,W,10.00,275.32,010217,,*3E
$GPRMC,092113,A,4818.6771,N,442.2609,W,10.00,275.32,010217,,*3F
$GPRMC,092113,A,4818.6773,N,442.2644,W,10.00,275.32,010217,,*34
$GPRMC,092113,A,4818.6775,N,442.2678,W,10.00,275.32,010217,,*3D
$GPRMC,092113,A,4818.6777,N,442.2713,W,10.00,275.32,010217,,*33
$GPRMC,092113,A,4818.6779,N,442.2747,W,10.00,275.32,010217,,*3C
$GPRMC,092113,A,4818.6782,N,442.2782,W,10.00,275.32,010217,,*31
$GPRMC,092113,A,4818.6784,N,442.2816,W,10.00,275.32,010217,,*35
$GPRMC,092113,A,4818.6786,N,442.2851,W,10.00,275.32,010217,,*34
$GPRMC,092113,A,4818.6788,N,442.2885,W,10.00,275.32,010217,,*33
$GPRMC,092113,A,4818.6790,N,442.2920,W,10.00,275.32,010217,,*34
$GPRMC,092113,A,4818.6792,N,442.2954,W,10.00,275.32,010217,,*35
$GPRMC,092113,A,4818.6794,N,442.2989,W,10.00,275.32,010217,,*33
$GPRMC,092113,A,4818.6797,N,442.3023,W,10.00,275.32,010217,,*38
$GPRMC,092113,A,4818.6799,N,442.3058,W,10.00,275.32,010217,,*3A
$GPRMC,092113,A,4818.6801,N,442.3092,W,10.00,275.32,010217,,*32
$GPRMC,092113,A,4818.6803,N,442.3127,W,10.00,275.32,010217,,*3F
$GPRMC,092113,A,4818.6805,N,442.3161,W,10.00,275.32,010217,,*3B
$GPRMC,092113,A,4818.6807,N,442.3196,W,10.00,275.32,010217,,*31
$GPRMC,092113,A,4818.6809,N,442.3230,W,10.00,275.32,010217,,*30
$GPRMC,092113,A,4818.6812,N,442.3264,W,10.00,275.32,010217,,*3B
$GPRMC,092113,A,4818.6814,N,442.3299,W,10.00,275.32,010217,,*3F
$GPRMC,092113,A,4818.6816,N,442.3333,W,10.00,275.32,010217,,*3C
$GPRMC,092113,A,4818.6818,N,442.3368,W,10.00,275.32,010217,,*3C
$GPRMC,092113,A,4818.6820,N,442.3402,W,10.00,275.32,010217,,*3C
$GPRMC,092113,A,4818.6822,N,442.3437,W,10.00,275.32,010217,,*38
$GPRMC,092113,A,4818.6824,N,442.3471,W,10.00,275.32,010217,,*3C
$GPRMC,092113,A,4818.6827,N,442.3506,W,10.00,275.32,010217,,*3E
$GPRMC,092113,A,4818.6829,N,442.3540,W,10.00,275.32,010217,,*32
$GPRMC,092113,A,4818.6831,N,442.3575,W,10.00,275.32,010217,,*3D
$GPRMC,092113,A,4818.6833,N,442.3609,W,10.00,275.32,010217,,*37
$GPRMC,092113,A,4818.6835,N,442.3644,W,10.00,275.32,010217,,*38
$GPRMC,092113,A,4818.6837,N,442.3678,W,10.00,275.32,010217,,*35
$GPRMC,092113,A,4818.6839,N,442.3713,W,10.00,275.32,010217,,*37
$GPRMC,092113,A,4818.6842,N,442.3747,W,10.00,275.32,010217,,*3A
$GPRMC,092113,A,4818.6844,N,442.3782,W,10.00,275.32,010217,,*35
$GPRMC,092113,A,4818.6846,N,442.3816,W,10.00,275.32,010217,,*35
$GPRMC,092113,A,4818.6848,N,442.3851,W,10.00,275.32,010217,,*38
$GPRMC,092113,A,4818.6850,N,442.3885,W,10.00,275.32,010217,,*38
$GPRMC,092113,A,4818.6852,N,442.3920,W,10.00,275.32,010217,,*34
$GPRMC,092113,A,4818.6854,N,442.3954,W,10.00,275.32,010217,,*31
$GPRMC,092113,A,4818.6857,N,442.3988,W,10.00,275.32,010217,,*33
$GPRMC,092113,A,4818.6859,N,442.4023,W,10.00,275.32,010217,,*32
$GPRMC,092113,A,4818.6861,N,442.4057,W,10.00,275.32,010217,,*3A
$GPRMC,092113,A,4818.6863,N,442.4092,W,10.00,275.32,010217,,*31
$GPRMC,092113,A,4818.6865,N,442.4126,W,10.00,275.32,010217,,*39
$GPRMC,092113,A,4818.6867,N,442.4161,W,10.00,275.32,010217,,*38
$GPRMC,092113,A,4818.6869,N,442.4195,W,10.00,275.32,010217,,*3D
$GPRMC,092113,A,4818.6872,N,442.4230,W,10.00,275.32,010217,,*3B
$GPRMC,092113,A,4818.6874,N,442.4264,W,10.00,275.32,010217,,*3C
$GPRMC,092113,A,4818.6876,N,442.4299,W,10.00,275.32,010217,,*3C
$GPRMC,092113,A,4818.6878,N,442.4333,W,10.00,275.32,010217,,*33
$GPRMC,092113,A,4818.6880,N,442.4368,W,10.00,275.32,010217,,*3A
$GPRMC,092113,A,4818.6882,N,442.4402,W,10.00,275.32,010217,,*33
$GPRMC,092113,A,4818.6884,N,442.4437,W,10.00,275.32,010217,,*33
$GPRMC,092113,A,4818.6887,N,442.4471,W,10.00,275.32,010217,,*32
$GPRMC,092113,A,4818.6889,N,442.4506,W,10.00,275.32,010217,,*3D
$GPRMC,092113,A,4818.6891,N,442.4540,W,10.00,275.32,010217,,*36
$GPRMC,092113,A,4818.6893,N,442.4575,W,10.00,275.32,010217,,*32
$GPRMC,092113,A,4818.6895,N,442.4609,W,10.00,275.32,010217,,*3C
$GPRMC,092113,A,4818.6897,N,442.4644,W,10.00,275.32,010217,,*37
$GPRMC,092113,A,4818.6899,N,442.4678,W,10.00,275.32,010217,,*36
$GPRMC,092113,A,4818.6902,N,442.4712,W,10.00,275.32,010217,,*38
$GPRMC,092113,A,4818.6904,N,442.4747,W,10.00,275.32,010217,,*3E
$GPRMC,092113,A,4818.6906,N,442.4781,W,10.00,275.32,010217,,*36
$GPRMC,092113,A,4818.6908,N,442.4816,W,10.00,275.32,010217,,*39
$GPRMC,092113,A,4818.6910,N,442.4850,W,10.00,275.32,010217,,*32
$GPRMC,092113,A,4818.6912,N,442.4885,W,10.00,275.32,010217,,*38
$GPRMC,092113,A,4818.6914,N,442.4919,W,10.00,275.32,010217,,*3A
$GPRMC,092113,A,4818.6917,N,442.4954,W,10.00,275.32,010217,,*30
$GPRMC,092113,A,4818.6919,N,442.4988,W,10.00,275.32,010217,,*3F
$GPRMC,092113,A,4818.6921,N,442.5023,W,10.00,275.32,010217,,*3D
$GPRMC,092113,A,4818.6923,N,442.5057,W,10.00,275.32,010217,,*3C
$GPRMC,092113,A,4818.6925,N,442.5092,W,10.00,275.32,010217,,*33
$GPRMC,092113,A,4818.6927,N,442.5126,W,10.00,275.32,010217,,*3F
$GPRMC,092113,A,4818.6929,N,442.5161,W,10.00,275.32,010217,,*32
$GPRMC,092113,A,4818.6932,N,442.5195,W,10.00,275.32,010217,,*33
$GPRMC,092113,A,4818.6934,N,442.5230,W,10.00,275.32,010217,,*39
$GPRMC,092113,A,4818.6936,N,442.5264,W,10.00,275.32,010217,,*3A
$GPRMC,092113,A,4818.6938,N,442.5299,W,10.00,275.32,010217,,*36
$GPRMC,092113,A,4818.6940,N,442.5333,W,10.00,275.32,010217,,*38
$GPRMC,092113,A,4818.6942,N,442.5368,W,10.00,275.32,010217,,*34
$GPRMC,092113,A,4818.6944,N,442.5402,W,10.00,275.32,010217,,*39
$GPRMC,092113,A,4818.6947,N,442.5437,W,10.00,275.32,010217,,*3C
$GPRMC,092113,A,4818.6949,N,442.5471,W,10.00,275.32,010217,,*30
$GPRMC,092113,A,4818.6951,N,442.5505,W,10.00,275.32,010217,,*3B
$GPRMC,092113,A,4818.6953,N,442.5540,W,10.00,275.32,010217,,*38
$GPRMC,092113,A,4818.6955,N,442.5574,W,10.00,275.32,010217,,*39
$GPRMC,092113,A,4818.6957,N,442.5609,W,10.00,275.32,010217,,*32
$GPRMC,092113,A,4818.6959,N,442.5643,W,10.00,275.32,010217,,*32
$GPRMC,092113,A,4818.6961,N,442.5678,W,10.00,275.32,010217,,*31
$GPRMC,092113,A,4818.6964,N,442.5712,W,10.00,275.32,010217,,*39
$GPRMC,092113,A,4818.6966,N,442.5747,W,10.00,275.32,010217,,*3B
$GPRMC,092113,A,4818.6968,N,442.5781,W,10.00,275.32,010217,,*3F
$GPRMC,092113,A,4818.6970,N,442.5816,W,10.00,275.32,010217,,*37
$GPRMC,092113,A,4818.6972,N,442.5850,W,10.00,275.32,010217,,*37
$GPRMC,092113,A,4818.6974,N,442.5885,W,10.00,275.32,010217,,*39
$GPRMC,092113,A,4818.6976,N,442.5919,W,10.00,275.32,010217,,*3F
$GPRMC,092113,A,4818.6979,N,442.5954,W,10.00,275.32,010217,,*39
$GPRMC,092113,A,4818.6981,N,442.5988,W,10.00,275.32,010217,,*3F
$GPRMC,092113,A,4818.6983,N,442.6023,W,10.00,275.32,010217,,*36
$GPRMC,092113,A,4818.6985,N,442.6057,W,10.00,275.32,010217,,*33
$GPRMC,092113,A,4818.6987,N,442.6092,W,10.00,275.32,010217,,*38
$GPRMC,092113,A,4818.6989,N,442.6126,W,10.00,275.32,010217,,*38
$GPRMC,092113,A,4818.6991,N,442.6161,W,10.00,275.32,010217,,*32
$GPRMC,092113,A,4818.6994,N,442.6195,W,10.00,275.32,010217,,*3C
$GPRMC,092113,A,4818.6996,N,442.6230,W,10.00,275.32,010217,,*32
$GPRMC,092113,A,4818.6998,N,442.6264,W,10.00,275.32,010217,,*3D
$GPRMC,092113,A,4818.7000,N,442.6298,W,10.00,275.32,010217,,*37
$GPRMC,092113,A,4818.7002,N,442.6333,W,10.00,275.32,010217,,*35
$GPRMC,092113,A,4818.7004,N,442.6367,W,10.00,275.32,010217,,*32
$GPRMC,092113,A,4818.7006,N,442.6402,W,10.00,275.32,010217,,*34
$GPRMC,092113,A,4818.7009,N,442.6436,W,10.00,275.32,010217,,*3C
$GPRMC,092113,A,4818.7011,N,442.6471,W,10.00,275.32,010217,,*36
$GPRMC,092113,A,4818.7013,N,442.6505,W,10.00,275.32,010217,,*36
$GPRMC,092113,A,4818.7015,N,442.6540,W,10.00,275.32,010217,,*31
$GPRMC,092113,A,4818.7017,N,442.6574,W,10.00,275.32,010217,,*34
$GPRMC,092113,A,4818.7019,N,442.6609,W,10.00,275.32,010217,,*33
$GPRMC,092113,A,4818.7021,N,442.6643,W,10.00,275.32,010217,,*36
$GPRMC,092113,A,4818.7024,N,442.6678,W,10.00,275.32,010217,,*3B
$GPRMC,092113,A,4818.7026,N,442.6712,W,10.00,275.32,010217,,*34
$GPRMC,092113,A,4818.7028,N,442.6747,W,10.00,275.32,010217,,*3A
$GPRMC,092113,A,4818.7030,N,442.6781,W,10.00,275.32,010217,,*39
$GPRMC,092113,A,4818.7032,N,442.6816,W,10.00,275.32,010217,,*3A
$GPRMC,092113,A,4818.7034,N,442.6850,W,10.00,275.32,010217,,*3E
$GPRMC,092113,A,4818.7036,N,442.6885,W,10.00,275.32,010217,,*34
$GPRMC,092113,A,4818.7039,N,442.6919,W,10.00,275.32,010217,,*3F
$GPRMC,092113,A,4818.7041,N,442.6954,W,10.00,275.32,010217,,*39
$GPRMC,092113,A,4818.7043,N,442.6988,W,10.00,275.32,010217,,*3A
$GPRMC,092113,A,4818.7045,N,442.7022,W,10.00,275.32,010217,,*34
$GPRMC,092113,A,4818.7047,N,442.7057,W,10.00,275.32,010217,,*34
$GPRMC,092113,A,4818.7049,N,442.7091,W,10.00,275.32,010217,,*30
$GPRMC,092113,A,4818.7051,N,442.7126,W,10.00,275.32,010217,,*34
$GPRMC,092113,A,4818.7054,N,442.7160,W,10.00,275.32,010217,,*33
$GPRMC,092113,A,4818.7056,N,442.7195,W,10.00,275.32,010217,,*3B
$GPRMC,092113,A,4818.7058,N,442.7229,W,10.00,275.32,010217,,*31
$GPRMC,092113,A,4818.7060,N,442.7264,W,10.00,275.32,010217,,*33
$GPRMC,092113,A,4818.7062,N,442.7298,W,10.00,275.32,010217,,*32
$GPRMC,092113,A,4818.7064,N,442.7333,W,10.00,275.32,010217,,*34
$GPRMC,092113,A,4818.7066,N,442.7367,W,10.00,275.32,010217,,*37
$GPRMC,092113,A,4818.7069,N,442.7402,W,10.00,275.32,010217,,*3C
$GPRMC,092113,A,4818.7071,N,442.7436,W,10.00,275.32,010217,,*32
$GPRMC,092113,A,4818.7073,N,442.7471,W,10.00,275.32,010217,,*33
$GPRMC,092113,A,4818.7075,N,442.7505,W,10.00,275.32,010217,,*37
$GPRMC,092113,A,4818.7077,N,442.7540,W,10.00,275.32,010217,,*34
$GPRMC,092113,A,4818.7079,N,442.7574,W,10.00,275.32,010217,,*3D
$GPRMC,092113,A,4818.7081,N,442.7609,W,10.00,275.32,010217,,*33
$GPRMC,092113,A,4818.7084,N,442.7643,W,10.00,275.32,010217,,*38
$GPRMC,092113,A,4818.7086,N,442.7678,W,10.00,275.32,010217,,*32
$GPRMC,092113,A,4818.7088,N,442.7712,W,10.00,275.32,010217,,*31
$GPRMC,092113,A,4818.7090,N,442.7747,W,10.00,275.32,010217,,*38
$GPRMC,092113,A,4818.7092,N,442.7781,W,10.00,275.32,010217,,*30
$GPRMC,092113,A,4818.7094,N,442.7815,W,10.00,275.32,010217,,*34
$GPRMC,092113,A,4818.7096,N,442.7850,W,10.00,275.32,010217,,*37
$GPRMC,092113,A,4818.7099,N,442.7884,W,10.00,275.32,010217,,*31
$GPRMC,092113,A,4818.7101,N,442.7919,W,10.00,275.32,010217,,*34
$GPRMC,092113,A,4818.7103,N,442.7953,W,10.00,275.32,010217,,*38
$GPRMC,092113,A,4818.7105,N,442.7988,W,10.00,275.32,010217,,*38
$GPRMC,092113,A,4818.7107,N,442.8022,W,10.00,275.32,010217,,*3C
$GPRMC,092113,A,4818.7109,N,442.8057,W,10.00,275.32,010217,,*30
$GPRMC,092113,A,4818.7111,N,442.8091,W,10.00,275.32,010217,,*33
$GPRMC,092113,A,4818.7114,N,442.8126,W,10.00,275.32,010217,,*3B
$GPRMC,092113,A,4818.7116,N,442.8160,W,10.00,275.32,010217,,*3B
$GPRMC,092113,A,4818.7118,N,442.8195,W,10.00,275.32,010217,,*3F
$GPRMC,092113,A,4818.7120,N,442.8229,W,10.00,275.32,010217,,*30
$GPRMC,092113,A,4818.7122,N,442.8264,W,10.00,275.32,010217,,*3B
$GPRMC,092113,A,4818.7124,N,442.8298,W,10.00,275.32,010217,,*3E
$GPRMC,092113,A,4818.7126,N,442.8333,W,10.00,275.32,010217,,*3C
$GPRMC,092113,A,4818.7128,N,442.8367,W,10.00,275.32,010217,,*33
$GPRMC,092113,A,4818.7131,N,442.8402,W,10.00,275.32,010217,,*3F
$GPRMC,092113,A,4818.7133,N,442.8436,W,10.00,275.32,010217,,*3A
$GPRMC,092113,A,4818.7135,N,442.8471,W,10.00,275.32,010217,,*3F
$GPRMC,092113,A,4818.7137,N,442.8505,W,10.00,275.32,010217,,*3F
$GPRMC,092113,A,4818.7139,N,442.8540,W,10.00,275.32,010217,,*30
$GPRMC,092113,A,4818.7141,N,442.8574,W,10.00,275.32,010217,,*38
$GPRMC,092113,A,4818.7143,N,442.8608,W,10.00,275.32,010217,,*32
$GPRMC,092113,A,4818.7146,N,442.8643,W,10.00,275.32,010217,,*38
$GPRMC,092113,A,4818.7148,N,442.8677,W,10.00,275.32,010217,,*31
$GPRMC,092113,A,4818.7150,N,442.8712,W,10.00,275.32,010217,,*3A
$GPRMC,092113,A,4818.7152,N,442.8746,W,10.00,275.32,010217,,*39
$GPRMC,092113,A,4818.7154,N,442.8781,W,10.00,275.32,010217,,*34
$GPRMC,092113,A,4818.7156,N,442.8815,W,10.00,275.32,010217,,*34
$GPRMC,092113,A,4818.7158,N,442.8850,W,10.00,275.32,010217,,*3B
$GPRMC,092113,A,4818.7161,N,442.8884,W,10.00,275.32,010217,,*38
$GPRMC,092113,A,4818.7163,N,442.8919,W,10.00,275.32,010217,,*3F
$GPRMC,092113,A,4818.7165,N,442.8953,W,10.00,275.32,010217,,*37
$GPRMC,092113,A,4818.7167,N,442.8988,W,10.00,275.32,010217,,*33
$GPRMC,092113,A,4818.7169,N,442.9022,W,10.00,275.32,010217,,*35
$GPRMC,092113,A,4818.7171,N,442.9057,W,10.00,275.32,010217,,*3E
$GPRMC,092113,A,4818.7173,N,442.9091,W,10.00,275.32,010217,,*36
$GPRMC,092113,A,4818.7176,N,442.9126,W,10.00,275.32,010217,,*3E
$GPRMC,092113,A,4818.7178,N,442.9160,W,10.00,275.32,010217,,*32
$GPRMC,092113,A,4818.7180,N,442.9195,W,10.00,275.32,010217,,*3F
$GPRMC,092113,A,4818.7182,N,442.9229,W,10.00,275.32,010217,,*39
$GPRMC,092113,A,4818.7184,N,442.9264,W,10.00,275.32,010217,,*36
$GPRMC,092113,A,4818.7186,N,442.9298,W,10.00,275.32,010217,,*37
$GPRMC,092113,A,4818.7188,N,442.9332,W,10.00,275.32,010217,,*38
$GPRMC,092113,A,4818.7191,N,442.9367,W,10.00,275.32,010217,,*30
$GPRMC,092113,A,4818.7193,N,442.9401,W,10.00,275.32,010217,,*35
$GPRMC,092113,A,4818.7195,N,442.9436,W,10.00,275.32,010217,,*37
$GPRMC,092113,A,4818.7197,N,442.9470,W,10.00,275.32,010217,,*37
$GPRMC,092113,A,4818.7199,N,442.9505,W,10.00,275.32,010217,,*3A
$GPRMC,092113,A,4818.7201,N,442.9539,W,10.00,275.32,010217,,*37
$GPRMC,092113,A,4818.7203,N,442.9574,W,10.00,275.32,010217,,*3C
$GPRMC,092113,A,4818.7206,N,442.9608,W,10.00,275.32,010217,,*31
$GPRMC,092113,A,4818.7208,N,442.9643,W,10.00,275.32,010217,,*30
$GPRMC,092113,A,4818.7210,N,442.9677,W,10.00,275.32,010217,,*3E
$GPRMC,092113,A,4818.7212,N,442.9712,W,10.00,275.32,010217,,*3E
$GPRMC,092113,A,4818.7214,N,442.9746,W,10.00,275.32,010217,,*39
$GPRMC,092113,A,4818.7216,N,442.9781,W,10.00,275.32,010217,,*30
$GPRMC,092113,A,4818.7218,N,442.9815,W,10.00,275.32,010217,,*3C
$GPRMC,092113,A,4818.7221,N,442.9850,W,10.00,275.32,010217,,*37
$GPRMC,092113,A,4818.7223,N,442.9884,W,10.00,275.32,010217,,*3C
$GPRMC,092113,A,4818.7225,N,442.9919,W,10.00,275.32,010217,,*3F
$GPRMC,092113,A,4818.7227,N,442.9953,W,10.00,275.32,010217,,*33
$GPRMC,092113,A,4818.7229,N,442.9988,W,10.00,275.32,010217,,*3B
$GPRMC,092113,A,4818.7231,N,443.0022,W,10.00,275.32,010217,,*33
$GPRMC,092113,A,4818.7233,N,443.0057,W,10.00,275.32,010217,,*33
$GPRMC,092113,A,4818.7235,N,443.0091,W,10.00,275.32,010217,,*3F
$GPRMC,092113,A,4818.7238,N,443.0125,W,10.00,275.32,010217,,*3C
$GPRMC,092113,A,4818.7240,N,443.0160,W,10.00,275.32,010217,,*32
$GPRMC,092113,A,4818.7242,N,443.0194,W,10.00,275.32,010217,,*3B
$GPRMC,092113,A,4818.7244,N,443.0229,W,10.00,275.32,010217,,*38
$GPRMC,092113,A,4818.7246,N,443.0263,W,10.00,275.32,010217,,*34
$GPRMC,092113,A,4818.7248,N,443.0298,W,10.00,275.32,010217,,*3E
$GPRMC,092113,A,4818.7250,N,443.0332,W,10.00,275.32,010217,,*36
$GPRMC,092113,A,4818.7253,N,443.0367,W,10.00,275.32,010217,,*35
$GPRMC,092113,A,4818.7255,N,443.0401,W,10.00,275.32,010217,,*34
$GPRMC,092113,A,4818.7257,N,443.0436,W,10.00,275.32,010217,,*32
$GPRMC,092113,A,4818.7259,N,443.0470,W,10.00,275.32,010217,,*3E
$GPRMC,092113,A,4818.7261,N,443.0505,W,10.00,275.32,010217,,*36
$GPRMC,092113,A,4818.7263,N,443.0539,W,10.00,275.32,010217,,*3B
$GPRMC,092113,A,4818.7265,N,443.0574,W,10.00,275.32,010217,,*34
$GPRMC,092113,A,4818.7268,N,443.0608,W,10.00,275.32,010217,,*31
$GPRMC,092113,A,4818.7270,N,443.0643,W,10.00,275.32,010217,,*37
$GPRMC,092113,A,4818.7272,N,443.0677,W,10.00,275.32,010217,,*32
$GPRMC,092113,A,4818.7274,N,443.0712,W,10.00,275.32,010217,,*36
$GPRMC,092113,A,4818.7276,N,443.0746,W,10.00,275.32,010217,,*35
$GPRMC,092113,A,4818.7278,N,443.0781,W,10.00,275.32,010217,,*30
$GPRMC,092113,A,4818.7280,N,443.0815,W,10.00,275.32,010217,,*35
$GPRMC,092113,A,4818.7283,N,443.0850,W,10.00,275.32,010217,,*37
$GPRMC,092113,A,4818.7285,N,443.0884,W,10.00,275.32,010217,,*38
$GPRMC,092113,A,4818.7287,N,443.0918,W,10.00,275.32,010217,,*3E
$GPRMC,092113,A,4818.7289,N,443.0953,W,10.00,275.32,010217,,*3F
$GPRMC,092113,A,4818.7291,N,443.0987,W,10.00,275.32,010217,,*3F
$GPRMC,092113,A,4818.7293,N,443.1022,W,10.00,275.32,010217,,*3A
$GPRMC,092113,A,4818.7295,N,443.1056,W,10.00,275.32,010217,,*3F
$GPRMC,092113,A,4818.7298,N,443.1091,W,10.00,275.32,010217,,*39
$GPRMC,092113,A,4818.7300,N,443.1125,W,10.00,275.32,010217,,*37
$GPRMC,092113,A,4818.7302,N,443.1160,W,10.00,275.32,010217,,*34
$GPRMC,092113,A,4818.7304,N,443.1194,W,10.00,275.32,010217,,*39
$GPRMC,092113,A,4818.7306,N,443.1229,W,10.00,275.32,010217,,*3E
$GPRMC,092113,A,4818.7308,N,443.1263,W,10.00,275.32,010217,,*3E
$GPRMC,092113,A,4818.7310,N,443.1298,W,10.00,275.32,010217,,*33
$GPRMC,092113,A,4818.7312,N,443.1332,W,10.00,275.32,010217,,*30
$GPRMC,092113,A,4818.7315,N,443.1367,W,10.00,275.32,010217,,*37
$GPRMC,092113,A,4818.7317,N,443.1401,W,10.00,275.32,010217,,*32
$GPRMC,092113,A,4818.7319,N,443.1436,W,10.00,275.32,010217,,*38
$GPRMC,092113,A,4818.7321,N,443.1470,W,10.00,275.32,010217,,*31
$GPRMC,092113,A,4818.7323,N,443.1505,W,10.00,275.32,010217,,*30
$GPRMC,092113,A,4818.7325,N,443.1539,W,10.00,275.32,010217,,*39
$GPRMC,092113,A,4818.7327,N,443.1574,W,10.00,275.32,010217,,*32
$GPRMC,092113,A,4818.7330,N,443.1608,W,10.00,275.32,010217,,*3C
$GPRMC,092113,A,4818.7332,N,443.1643,W,10.00,275.32,010217,,*31
$GPRMC,092113,A,4818.7334,N,443.1677,W,10.00,275.32,010217,,*30
$GPRMC,092113,A,4818.7336,N,443.1711,W,10.00,275.32,010217,,*33
$GPRMC,092113,A,4818.7338,N,443.1746,W,10.00,275.32,010217,,*3F
$GPRMC,092113,A,4818.7340,N,443.1780,W,10.00,275.32,010217,,*3A
$GPRMC,092113,A,4818.7342,N,443.1815,W,10.00,275.32,010217,,*3B
$GPRMC,092113,A,4818.7345,N,443.1849,W,10.00,275.32,010217,,*35
$GPRMC,092113,A,4818.7347,N,443.1884,W,10.00,275.32,010217,,*36
$GPRMC,092113,A,4818.7349,N,443.1918,W,10.00,275.32,010217,,*3C
$GPRMC,092113,A,4818.7351,N,443.1953,W,10.00,275.32,010217,,*3A
$GPRMC,092113,A,4818.7353,N,443.1987,W,10.00,275.32,010217,,*31
$GPRMC,092113,A,4818.7355,N,443.2022,W,10.00,275.32,010217,,*32
$GPRMC,092113,A,4818.7357,N,443.2056,W,10.00,275.32,010217,,*33
$GPRMC,092113,A,4818.7360,N,443.2091,W,10.00,275.32,010217,,*3C
$GPRMC,092113,A,4818.7362,N,443.2125,W,10.00,275.32,010217,,*30
$GPRMC,092113,A,4818.7364,N,443.2160,W,10.00,275.32,010217,,*37
$GPRMC,092113,A,4818.7366,N,443.2194,W,10.00,275.32,010217,,*3E
$GPRMC,092113,A,4818.7368,N,443.2229,W,10.00,275.32,010217,,*35
$GPRMC,092113,A,4818.7370,N,443.2263,W,10.00,275.32,010217,,*32
$GPRMC,092113,A,4818.7372,N,443.2298,W,10.00,275.32,010217,,*34
$GPRMC,092113,A,4818.7375,N,443.2332,W,10.00,275.32,010217,,*32
$GPRMC,092113,A,4818.7377,N,443.2367,W,10.00,275.32,010217,,*30
$GPRMC,092113,A,4818.7379,N,443.2401,W,10.00,275.32,010217,,*39
$GPRMC,092113,A,4818.7381,N,443.2436,W,10.00,275.32,010217,,*3A
$GPRMC,092113,A,4818.7383,N,443.2470,W,10.00,275.32,010217,,*3A
$GPRMC,092113,A,4818.7385,N,443.2504,W,10.00,275.32,010217,,*3E
$GPRMC,092113,A,4818.7387,N,443.2539,W,10.00,275.32,010217,,*32
$GPRMC,092113,A,4818.7389,N,443.2573,W,10.00,275.32,010217,,*32
$GPRMC,092113,A,4818.7392,N,443.2608,W,10.00,275.32,010217,,*37
$GPRMC,092113,A,4818.7394,N,443.2642,W,10.00,275.32,010217,,*3F
$GPRMC,092113,A,4818.7396,N,443.2677,W,10.00,275.32,010217,,*3B
$GPRMC,092113,A,4818.7398,N,443.2711,W,10.00,275.32,010217,,*34
$GPRMC,092113,A,4818.7400,N,443.2746,W,10.00,275.32,010217,,*30
$GPRMC,092113,A,4818.7402,N,443.2780,W,10.00,275.32,010217,,*38
$GPRMC,092113,A,4818.7404,N,443.2815,W,10.00,275.32,010217,,*3D
$GPRMC,092113,A,4818.7407,N,443.2849,W,10.00,275.32,010217,,*37
$GPRMC,092113,A,4818.7409,N,443.2884,W,10.00,275.32,010217,,*38
$GPRMC,092113,A,4818.7411,N,443.2918,W,10.00,275.32,010217,,*35
$GPRMC,092113,A,4818.7413,N,443.2953,W,10.00,275.32,010217,,*38
$GPRMC,092113,A,4818.7415,N,443.2987,W,10.00,275.32,010217,,*37
$GPRMC,092113,A,4818.7417,N,443.3022,W,10.00,275.32,010217,,*32
$GPRMC,092113,A,4818.7419,N,443.3056,W,10.00,275.32,010217,,*3F
$GPRMC,092113,A,4818.7422,N,443.3091,W,10.00,275.32,010217,,*3C
$GPRMC,092113,A,4818.7424,N,443.3125,W,10.00,275.32,010217,,*34
$GPRMC,092113,A,4818.7426,N,443.3160,W,10.00,275.32,010217,,*37
$GPRMC,092113,A,4818.7428,N,443.3194,W,10.00,275.32,010217,,*32
$GPRMC,092113,A,4818.7430,N,443.3229,W,10.00,275.32,010217,,*3E
$GPRMC,092113,A,4818.7432,N,443.3263,W,10.00,275.32,010217,,*32
$GPRMC,092113,A,4818.7434,N,443.3297,W,10.00,275.32,010217,,*3F
$GPRMC,092113,A,4818.7437,N,443.3332,W,10.00,275.32,010217,,*32
$GPRMC,092113,A,4818.7439,N,443.3366,W,10.00,275.32,010217,,*3D
$GPRMC,092113,A,4818.7441,N,443.3401,W,10.00,275.32,010217,,*34
$GPRMC,092113,A,4818.7443,N,443.3435,W,10.00,275.32,010217,,*31
$GPRMC,092113,A,4818.7445,N,443.3470,W,10.00,275.32,010217,,*36
$GPRMC,092113,A,4818.7447,N,443.3504,W,10.00,275.32,010217,,*36
$GPRMC,092113,A,4818.7449,N,443.3539,W,10.00,275.32,010217,,*36
$GPRMC,092113,A,4818.7451,N,443.3573,W,10.00,275.32,010217,,*31
$GPRMC,092113,A,4818.7454,N,443.3608,W,10.00,275.32,010217,,*3B
$GPRMC,092113,A,4818.7456,N,443.3642,W,10.00,275.32,010217,,*37
$GPRMC,092113,A,4818.7458,N,443.3677,W,10.00,275.32,010217,,*3F
$GPRMC,092113,A,4818.7460,N,443.3711,W,10.00,275.32,010217,,*35
$GPRMC,092113,A,4818.7462,N,443.3746,W,10.00,275.32,010217,,*35
$GPRMC,092113,A,4818.7464,N,443.3780,W,10.00,275.32,010217,,*39
$GPRMC,092113,A,4818.7466,N,443.3815,W,10.00,275.32,010217,,*38
$GPRMC,092113,A,4818.7469,N,443.3849,W,10.00,275.32,010217,,*3E
$GPRMC,092113,A,4818.7471,N,443.3884,W,10.00,275.32,010217,,*36
$GPRMC,092113,A,4818.7473,N,443.3918,W,10.00,275.32,010217,,*30
$GPRMC,092113,A,4818.7475,N,443.3953,W,10.00,275.32,010217,,*39
$GPRMC,092113,A,4818.7477,N,443.3987,W,10.00,275.32,010217,,*32
$GPRMC,092113,A,4818.7479,N,443.4022,W,10.00,275.32,010217,,*3D
$GPRMC,092113,A,4818.7481,N,443.4056,W,10.00,275.32,010217,,*39
$GPRMC,092113,A,4818.7484,N,443.4090,W,10.00,275.32,010217,,*36
$GPRMC,092113,A,4818.7486,N,443.4125,W,10.00,275.32,010217,,*3B
$GPRMC,092113,A,4818.7488,N,443.4159,W,10.00,275.32,010217,,*3E
$GPRMC,092113,A,4818.7490,N,443.4194,W,10.00,275.32,010217,,*36
$GPRMC,092113,A,4818.7492,N,443.4228,W,10.00,275.32,010217,,*30
$GPRMC,092113,A,4818.7494,N,443.4263,W,10.00,275.32,010217,,*39
$GPRMC,092113,A,4818.7496,N,443.4297,W,10.00,275.32,010217,,*30
$GPRMC,092113,A,4818.7498,N,443.4332,W,10.00,275.32,010217,,*30
$GPRMC,092113,A,4818.7501,N,443.4366,W,10.00,275.32,010217,,*30
$GPRMC,092113,A,4818.7503,N,443.4401,W,10.00,275.32,010217,,*34
$GPRMC,092113,A,4818.7505,N,443.4435,W,10.00,275.32,010217,,*35
$GPRMC,092113,A,4818.7507,N,443.4470,W,10.00,275.32,010217,,*36
$GPRMC,092113,A,4818.7509,N,443.4504,W,10.00,275.32,010217,,*3A
$GPRMC,092113,A,4818.7511,N,443.4539,W,10.00,275.32,010217,,*3D
$GPRMC,092113,A,4818.7513,N,443.4573,W,10.00,275.32,010217,,*31
$GPRMC,092113,A,4818.7516,N,443.4608,W,10.00,275.32,010217,,*3B
$GPRMC,092113,A,4818.7518,N,443.4642,W,10.00,275.32,010217,,*3B
$GPRMC,092113,A,4818.7520,N,443.4677,W,10.00,275.32,010217,,*36
$GPRMC,092113,A,4818.7522,N,443.4711,W,10.00,275.32,010217,,*35
$GPRMC,092113,A,4818.7524,N,443.4746,W,10.00,275.32,010217,,*31
$GPRMC,092113,A,4818.7526,N,443.4780,W,10.00,275.32,010217,,*39
$GPRMC,092113,A,4818.7528,N,443.4815,W,10.00,275.32,010217,,*34
$GPRMC,092113,A,4818.7531,N,443.4849,W,10.00,275.32,010217,,*35
$GPRMC,092113,A,4818.7533,N,443.4884,W,10.00,275.32,010217,,*36
$GPRMC,092113,A,4818.7535,N,443.4918,W,10.00,275.32,010217,,*34
$GPRMC,092113,A,4818.7537,N,443.4952,W,10.00,275.32,010217,,*38
$GPRMC,092113,A,4818.7539,N,443.4987,W,10.00,275.32,010217,,*3E
$GPRMC,092113,A,4818.7541,N,443.5021,W,10.00,275.32,010217,,*35
$GPRMC,092113,A,4818.7543,N,443.5056,W,10.00,275.32,010217,,*37
$GPRMC,092113,A,4818.7546,N,443.5090,W,10.00,275.32,010217,,*38
$GPRMC,092113,A,4818.7548,N,443.5125,W,10.00,275.32,010217,,*39
$GPRMC,092113,A,4818.7550,N,443.5159,W,10.00,275.32,010217,,*3B
$GPRMC,092113,A,4818.7552,N,443.5194,W,10.00,275.32,010217,,*38
$GPRMC,092113,A,4818.7554,N,443.5228,W,10.00,275.32,010217,,*3A
$GPRMC,092113,A,4818.7556,N,443.5263,W,10.00,275.32,010217,,*37
$GPRMC,092113,A,4818.7558,N,443.5297,W,10.00,275.32,010217,,*32
$GPRMC,092113,A,4818.7560,N,443.5332,W,10.00,275.32,010217,,*37
$GPRMC,092113,A,4818.7563,N,443.5366,W,10.00,275.32,010217,,*35
$GPRMC,092113,A,4818.7565,N,443.5401,W,10.00,275.32,010217,,*35
$GPRMC,092113,A,4818.7567,N,443.5435,W,10.00,275.32,010217,,*30
$GPRMC,092113,A,4818.7569,N,443.5470,W,10.00,275.32,010217,,*3F
$GPRMC,092113,A,4818.7571,N,443.5504,W,10.00,275.32,010217,,*34
$GPRMC,092113,A,4818.7573,N,443.5539,W,10.00,275.32,010217,,*38
$GPRMC,092113,A,4818.7575,N,443.5573,W,10.00,275.32,010217,,*30
$GPRMC,092113,A,4818.7578,N,443.5608,W,10.00,275.32,010217,,*32
$GPRMC,092113,A,4818.7580,N,443.5642,W,10.00,275.32,010217,,*3B
$GPRMC,092113,A,4818.7582,N,443.5677,W,10.00,275.32,010217,,*3F
$GPRMC,092113,A,4818.7584,N,443.5711,W,10.00,275.32,010217,,*38
$GPRMC,092113,A,4818.7586,N,443.5745,W,10.00,275.32,010217,,*3B
$GPRMC,092113,A,4818.7588,N,443.5780,W,10.00,275.32,010217,,*3C
$GPRMC,092113,A,4818.7590,N,443.5814,W,10.00,275.32,010217,,*37
$GPRMC,092113,A,4818.7593,N,443.5849,W,10.00,275.32,010217,,*3C
$GPRMC,092113,A,4818.7595,N,443.5883,W,10.00,275.32,010217,,*3C
$GPRMC,092113,A,4818.7597,N,443.5918,W,10.00,275.32,010217,,*3D
$GPRMC,092113,A,4818.7599,N,443.5952,W,10.00,275.32,010217,,*3D
$GPRMC,092113,A,4818.7601,N,443.5987,W,10.00,275.32,010217,,*37
$GPRMC,092113,A,4818.7603,N,443.6021,W,10.00,275.32,010217,,*33
$GPRMC,092113,A,4818.7605,N,443.6056,W,10.00,275.32,010217,,*35
$GPRMC,092113,A,4818.7607,N,443.6090,W,10.00,275.32,010217,,*3D
$GPRMC,092113,A,4818.7610,N,443.6125,W,10.00,275.32,010217,,*34
$GPRMC,092113,A,4818.7612,N,443.6159,W,10.00,275.32,010217,,*3D
$GPRMC,092113,A,4818.7614,N,443.6194,W,10.00,275.32,010217,,*3A
$GPRMC,092113,A,4818.7616,N,443.6228,W,10.00,275.32,010217,,*3C
$GPRMC,092113,A,4818.7618,N,443.6263,W,10.00,275.32,010217,,*3D
$GPRMC,092113,A,4818.7620,N,443.6297,W,10.00,275.32,010217,,*3D
$GPRMC,092113,A,4818.7622,N,443.6332,W,10.00,275.32,010217,,*31
$GPRMC,092113,A,4818.7625,N,443.6366,W,10.00,275.32,010217,,*37
$GPRMC,092113,A,4818.7627,N,443.6401,W,10.00,275.32,010217,,*33
$GPRMC,092113,A,4818.7629,N,443.6435,W,10.00,275.32,010217,,*3A
$GPRMC,092113,A,4818.7631,N,443.6470,W,10.00,275.32,010217,,*32
$GPRMC,092113,A,4818.7633,N,443.6504,W,10.00,275.32,010217,,*32
$GPRMC,092113,A,4818.7635,N,443.6538,W,10.00,275.32,010217,,*3B
$GPRMC,092113,A,4818.7637,N,443.6573,W,10.00,275.32,010217,,*36
$GPRMC,092113,A,4818.7640,N,443.6607,W,10.00,275.32,010217,,*36
$GPRMC,092113,A,4818.7642,N,443.6642,W,10.00,275.32,010217,,*35
$GPRMC,092113,A,4818.7644,N,443.6676,W,10.00,275.32,010217,,*34
$GPRMC,092113,A,4818.7646,N,443.6711,W,10.00,275.32,010217,,*36
$GPRMC,092113,A,4818.7648,N,443.6745,W,10.00,275.32,010217,,*39
$GPRMC,092113,A,4818.7650,N,443.6780,W,10.00,275.32,010217,,*39
$GPRMC,092113,A,4818.7652,N,443.6814,W,10.00,275.32,010217,,*39
$GPRMC,092113,A,4818.7654,N,443.6849,W,10.00,275.32,010217,,*37
$GPRMC,092113,A,4818.7657,N,443.6883,W,10.00,275.32,010217,,*32
$GPRMC,092113,A,4818.7659,N,443.6918,W,10.00,275.32,010217,,*3F
$GPRMC,092113,A,4818.7661,N,443.6952,W,10.00,275.32,010217,,*3A
$GPRMC,092113,A,4818.7663,N,443.6987,W,10.00,275.32,010217,,*30
$GPRMC,092113,A,4818.7665,N,443.7021,W,10.00,275.32,010217,,*32
$GPRMC,092113,A,4818.7667,N,443.7056,W,10.00,275.32,010217,,*30
$GPRMC,092113,A,4818.7669,N,443.7090,W,10.00,275.32,010217,,*34
$GPRMC,092113,A,4818.7672,N,443.7125,W,10.00,275.32,010217,,*31
$GPRMC,092113,A,4818.7674,N,443.7159,W,10.00,275.32,010217,,*3C
$GPRMC,092113,A,4818.7676,N,443.7194,W,10.00,275.32,010217,,*3F
$GPRMC,092113,A,4818.7678,N,443.7228,W,10.00,275.32,010217,,*35
$GPRMC,092113,A,4818.7680,N,443.7263,W,10.00,275.32,010217,,*3D
$GPRMC,092113,A,4818.7682,N,443.7297,W,10.00,275.32,010217,,*34
$GPRMC,092113,A,4818.7684,N,443.7332,W,10.00,275.32,010217,,*3C
$GPRMC,092113,A,4818.7687,N,443.7366,W,10.00,275.32,010217,,*3E
$GPRMC,092113,A,4818.7689,N,443.7400,W,10.00,275.32,010217,,*37
$GPRMC,092113,A,4818.7691,N,443.7435,W,10.00,275.32,010217,,*38
$GPRMC,092113,A,4818.7693,N,443.7469,W,10.00,275.32,010217,,*33
$GPRMC,092113,A,4818.7695,N,443.7504,W,10.00,275.32,010217,,*3F
$GPRMC,092113,A,4818.7697,N,443.7538,W,10.00,275.32,010217,,*32
$GPRMC,092113,A,4818.7699,N,443.7573,W,10.00,275.32,010217,,*33
$GPRMC,092113,A,4818.7701,N,443.7607,W,10.00,275.32,010217,,*33
$GPRMC,092113,A,4818.7704,N,443.7642,W,10.00,275.32,010217,,*37
$GPRMC,092113,A,4818.7706,N,443.7676,W,10.00,275.32,010217,,*32
$GPRMC,092113,A,4818.7708,N,443.7711,W,10.00,275.32,010217,,*3C
$GPRMC,092113,A,4818.7710,N,443.7745,W,10.00,275.32,010217,,*34
$GPRMC,092113,A,4818.7712,N,443.7780,W,10.00,275.32,010217,,*3F
$GPRMC,092113,A,4818.7714,N,443.7814,W,10.00,275.32,010217,,*3B
$GPRMC,092113,A,4818.7716,N,443.7849,W,10.00,275.32,010217,,*31
$GPRMC,092113,A,4818.7719,N,443.7883,W,10.00,275.32,010217,,*38
$GPRMC,092113,A,4818.7721,N,443.7918,W,10.00,275.32,010217,,*30
$GPRMC,092113,A,4818.7723,N,443.7952,W,10.00,275.32,010217,,*3C
$GPRMC,092113,A,4818.7725,N,443.7987,W,10.00,275.32,010217,,*32
$GPRMC,092113,A,4818.7727,N,443.8021,W,10.00,275.32,010217,,*3A
$GPRMC,092113,A,4818.7729,N,443.8056,W,10.00,275.32,010217,,*34
$GPRMC,092113,A,4818.7731,N,443.8090,W,10.00,275.32,010217,,*37
$GPRMC,092113,A,4818.7733,N,443.8125,W,10.00,275.32,010217,,*3A
$GPRMC,092113,A,4818.7736,N,443.8159,W,10.00,275.32,010217,,*34
$GPRMC,092113,A,4818.7738,N,443.8193,W,10.00,275.32,010217,,*3C
$GPRMC,092113,A,4818.7740,N,443.8228,W,10.00,275.32,010217,,*30
$GPRMC,092113,A,4818.7742,N,443.8262,W,10.00,275.32,010217,,*3C
$GPRMC,092113,A,4818.7744,N,443.8297,W,10.00,275.32,010217,,*30
$GPRMC,092113,A,4818.7746,N,443.8331,W,10.00,275.32,010217,,*3F
$GPRMC,092113,A,4818.7748,N,443.8366,W,10.00,275.32,010217,,*33
$GPRMC,092113,A,4818.7751,N,443.8400,W,10.00,275.32,010217,,*3C
$GPRMC,092113,A,4818.7753,N,443.8435,W,10.00,275.32,010217,,*38
$GPRMC,092113,A,4818.7755,N,443.8469,W,10.00,275.32,010217,,*37
$GPRMC,092113,A,4818.7757,N,443.8504,W,10.00,275.32,010217,,*3F
$GPRMC,092113,A,4818.7759,N,443.8538,W,10.00,275.32,010217,,*3E
$GPRMC,092113,A,4818.7761,N,443.8573,W,10.00,275.32,010217,,*3A
$GPRMC,092113,A,4818.7763,N,443.8607,W,10.00,275.32,010217,,*38
$GPRMC,092113,A,4818.7766,N,443.8642,W,10.00,275.32,010217,,*3C
$GPRMC,092113,A,4818.7768,N,443.8676,W,10.00,275.32,010217,,*35
$GPRMC,092113,A,4818.7770,N,443.8711,W,10.00,275.32,010217,,*3C
$GPRMC,092113,A,4818.7772,N,443.8745,W,10.00,275.32,010217,,*3F
$GPRMC,092113,A,4818.7774,N,443.8780,W,10.00,275.32,010217,,*30
$GPRMC,092113,A,4818.7776,N,443.8814,W,10.00,275.32,010217,,*30
$GPRMC,092113,A,4818.7778,N,443.8849,W,10.00,275.32,010217,,*36
$GPRMC,092113,A,4818.7780,N,443.8883,W,10.00,275.32,010217,,*37
$GPRMC,092113,A,4818.7783,N,443.8918,W,10.00,275.32,010217,,*37
$GPRMC,092113,A,4818.7785,N,443.8952,W,10.00,275.32,010217,,*3F
$GPRMC,092113,A,4818.7787,N,443.8987,W,10.00,275.32,010217,,*35
$GPRMC,092113,A,4818.7789,N,443.9021,W,10.00,275.32,010217,,*3F
$GPRMC,092113,A,4818.7791,N,443.9055,W,10.00,275.32,010217,,*35
$GPRMC,092113,A,4818.7793,N,443.9090,W,10.00,275.32,010217,,*3E
$GPRMC,092113,A,4818.7795,N,443.9124,W,10.00,275.32,010217,,*36
$GPRMC,092113,A,4818.7798,N,443.9159,W,10.00,275.32,010217,,*31
$GPRMC,092113,A,4818.7800,N,443.9193,W,10.00,275.32,010217,,*39
$GPRMC,092113,A,4818.7802,N,443.9228,W,10.00,275.32,010217,,*38
$GPRMC,092113,A,4818.7804,N,443.9262,W,10.00,275.32,010217,,*30
$GPRMC,092113,A,4818.7806,N,443.9297,W,10.00,275.32,010217,,*38
$GPRMC,092113,A,4818.7808,N,443.9331,W,10.00,275.32,010217,,*3B
$GPRMC,092113,A,4818.7810,N,443.9366,W,10.00,275.32,010217,,*30
$GPRMC,092113,A,4818.7812,N,443.9400,W,10.00,275.32,010217,,*35
$GPRMC,092113,A,4818.7815,N,443.9435,W,10.00,275.32,010217,,*34
$GPRMC,092113,A,4818.7817,N,443.9469,W,10.00,275.32,010217,,*3F
$GPRMC,092113,A,4818.7819,N,443.9504,W,10.00,275.32,010217,,*3B
$GPRMC,092113,A,4818.7821,N,443.9538,W,10.00,275.32,010217,,*3F
$GPRMC,092113,A,4818.7823,N,443.9573,W,10.00,275.32,010217,,*32
$GPRMC,092113,A,4818.7825,N,443.9607,W,10.00,275.32,010217,,*34
$GPRMC,092113,A,4818.7827,N,443.9642,W,10.00,275.32,010217,,*37
$GPRMC,092113,A,4818.7830,N,443.9676,W,10.00,275.32,010217,,*36
$GPRMC,092113,A,4818.7832,N,443.9711,W,10.00,275.32,010217,,*34
$GPRMC,092113,A,4818.7834,N,443.9745,W,10.00,275.32,010217,,*33
$GPRMC,092113,A,4818.7836,N,443.9780,W,10.00,275.32,010217,,*38
$GPRMC,092113,A,4818.7838,N,443.9814,W,10.00,275.32,010217,,*34
$GPRMC,092113,A,4818.7840,N,443.9848,W,10.00,275.32,010217,,*32
$GPRMC,092113,A,4818.7842,N,443.9883,W,10.00,275.32,010217,,*37
$GPRMC,092113,A,4818.7845,N,443.9917,W,10.00,275.32,010217,,*3C
$GPRMC,092113,A,4818.7847,N,443.9952,W,10.00,275.32,010217,,*3F
$GPRMC,092113,A,4818.7849,N,443.9986,W,10.00,275.32,010217,,*38
$GPRMC,092113,A,4818.7851,N,444.0021,W,10.00,275.32,010217,,*3B
$GPRMC,092113,A,4818.7853,N,444.0055,W,10.00,275.32,010217,,*3A
$GPRMC,092113,A,4818.7855,N,444.0090,W,10.00,275.32,010217,,*35
$GPRMC,092113,A,4818.7857,N,444.0124,W,10.00,275.32,010217,,*39
$GPRMC,092113,A,4818.7859,N,444.0159,W,10.00,275.32,010217,,*3D
$GPRMC,092113,A,4818.7862,N,444.0193,W,10.00,275.32,010217,,*33
$GPRMC,092113,A,4818.7864,N,444.0228,W,10.00,275.32,010217,,*36
$GPRMC,092113,A,4818.7866,N,444.0262,W,10.00,275.32,010217,,*3A
$GPRMC,092113,A,4818.7868,N,444.0297,W,10.00,275.32,010217,,*3E
$GPRMC,092113,A,4818.7870,N,444.0331,W,10.00,275.32,010217,,*3A
$GPRMC,092113,A,4818.7872,N,444.0366,W,10.00,275.32,010217,,*3A
$GPRMC,092113,A,4818.7874,N,444.0400,W,10.00,275.32,010217,,*3B
$GPRMC,092113,A,4818.7877,N,444.0435,W,10.00,275.32,010217,,*3E
$GPRMC,092113,A,4818.7879,N,444.0469,W,10.00,275.32,010217,,*39
$GPRMC,092113,A,4818.7881,N,444.0504,W,10.00,275.32,010217,,*34
$GPRMC,092113,A,4818.7883,N,444.0538,W,10.00,275.32,010217,,*39
$GPRMC,092113,A,4818.7885,N,444.0573,W,10.00,275.32,010217,,*30
$GPRMC,092113,A,4818.7887,N,444.0607,W,10.00,275.32,010217,,*32
$GPRMC,092113,A,4818.7889,N,444.0642,W,10.00,275.32,010217,,*3D
$GPRMC,092113,A,4818.7891,N,444.0676,W,10.00,275.32,010217,,*33
$GPRMC,092113,A,4818.7894,N,444.0710,W,10.00,275.32,010217,,*37
$GPRMC,092113,A,4818.7896,N,444.0745,W,10.00,275.32,010217,,*35
$GPRMC,092113,A,4818.7898,N,444.0779,W,10.00,275.32,010217,,*34
$GPRMC,092113,A,4818.7900,N,444.0814,W,10.00,275.32,010217,,*30
$GPRMC,092113,A,4818.7902,N,444.0848,W,10.00,275.32,010217,,*3B
$GPRMC,092113,A,4818.7904,N,444.0883,W,10.00,275.32,010217,,*3A
$GPRMC,092113,A,4818.7906,N,444.0917,W,10.00,275.32,010217,,*34
$GPRMC,092113,A,4818.7909,N,444.0952,W,10.00,275.32,010217,,*3A
$GPRMC,092113,A,4818.7911,N,444.0986,W,10.00,275.32,010217,,*3A
$GPRMC,092113,A,4818.7913,N,444.1021,W,10.00,275.32,010217,,*3D
$GPRMC,092113,A,4818.7915,N,444.1055,W,10.00,275.32,010217,,*38
$GPRMC,092113,A,4818.7917,N,444.1090,W,10.00,275.32,010217,,*33
$GPRMC,092113,A,4818.7919,N,444.1124,W,10.00,275.32,010217,,*33
$GPRMC,092113,A,4818.7921,N,444.1159,W,10.00,275.32,010217,,*32
$GPRMC,092113,A,4818.7923,N,444.1193,W,10.00,275.32,010217,,*36
$GPRMC,092113,A,4818.7926,N,444.1228,W,10.00,275.32,010217,,*30
$GPRMC,092113,A,4818.7928,N,444.1262,W,10.00,275.32,010217,,*30
$GPRMC,092113,A,4818.7930,N,444.1297,W,10.00,275.32,010217,,*33
$GPRMC,092113,A,4818.7932,N,444.1331,W,10.00,275.32,010217,,*3C
$GPRMC,092113,A,4818.7934,N,444.1366,W,10.00,275.32,010217,,*38
$GPRMC,092113,A,4818.7936,N,444.1400,W,10.00,275.32,010217,,*3D
$GPRMC,092113,A,4818.7938,N,444.1435,W,10.00,275.32,010217,,*35
$GPRMC,092113,A,4818.7941,N,444.1469,W,10.00,275.32,010217,,*32
$GPRMC,092113,A,4818.7943,N,444.1504,W,10.00,275.32,010217,,*3A
$GPRMC,092113,A,4818.7945,N,444.1538,W,10.00,275.32,010217,,*33
$GPRMC,092113,A,4818.7947,N,444.1572,W,10.00,275.32,010217,,*3F
$GPRMC,092113,A,4818.7949,N,444.1607,W,10.00,275.32,010217,,*30
$GPRMC,092113,A,4818.7951,N,444.1641,W,10.00,275.32,010217,,*3B
$GPRMC,092113,A,4818.7953,N,444.1676,W,10.00,275.32,010217,,*3D
$GPRMC,092113,A,4818.7955,N,444.1710,W,10.00,275.32,010217,,*3A
$GPRMC,092113,A,4818.7958,N,444.1745,W,10.00,275.32,010217,,*37
$GPRMC,092113,A,4818.7960,N,444.1779,W,10.00,275.32,010217,,*33
$GPRMC,092113,A,4818.7962,N,444.1814,W,10.00,275.32,010217,,*35
$GPRMC,092113,A,4818.7964,N,444.1848,W,10.00,275.32,010217,,*3A
$GPRMC,092113,A,4818.7966,N,444.1883,W,10.00,275.32,010217,,*3F
$GPRMC,092113,A,4818.7968,N,444.1917,W,10.00,275.32,010217,,*3D
$GPRMC,092113,A,4818.7970,N,444.1952,W,10.00,275.32,010217,,*35
$GPRMC,092113,A,4818.7973,N,444.1986,W,10.00,275.32,010217,,*3F
$GPRMC,092113,A,4818.7975,N,444.2021,W,10.00,275.32,010217,,*3E
$GPRMC,092113,A,4818.7977,N,444.2055,W,10.00,275.32,010217,,*3F
$GPRMC,092113,A,4818.7979,N,444.2090,W,10.00,275.32,010217,,*38
$GPRMC,092113,A,4818.7981,N,444.2124,W,10.00,275.32,010217,,*31
$GPRMC,092113,A,4818.7983,N,444.2159,W,10.00,275.32,010217,,*39
$GPRMC,092113,A,4818.7985,N,444.2193,W,10.00,275.32,010217,,*39
$GPRMC,092113,A,4818.7987,N,444.2228,W,10.00,275.32,010217,,*38
$GPRMC,092113,A,4818.7990,N,444.2262,W,10.00,275.32,010217,,*30
$GPRMC,092113,A,4818.7992,N,444.2297,W,10.00,275.32,010217,,*38
$GPRMC,092113,A,4818.7994,N,444.2331,W,10.00,275.32,010217,,*33
$GPRMC,092113,A,4818.7996,N,444.2365,W,10.00,275.32,010217,,*30
$GPRMC,092113,A,4818.7998,N,444.2400,W,10.00,275.32,010217,,*3A
$GPRMC,092113,A,4818.8000,N,444.2434,W,10.00,275.32,010217,,*3A
$GPRMC,092113,A,4818.8002,N,444.2469,W,10.00,275.32,010217,,*30
$GPRMC,092113,A,4818.8005,N,444.2503,W,10.00,275.32,010217,,*3A
$GPRMC,092113,A,4818.8007,N,444.2538,W,10.00,275.32,010217,,*30
$GPRMC,092113,A,4818.8009,N,444.2572,W,10.00,275.32,010217,,*30
$GPRMC,092113,A,4818.8011,N,444.2607,W,10.00,275.32,010217,,*38
$GPRMC,092113,A,4818.8013,N,444.2641,W,10.00,275.32,010217,,*38
$GPRMC,092113,A,4818.8015,N,444.2676,W,10.00,275.32,010217,,*3A
$GPRMC,092113,A,4818.8017,N,444.2710,W,10.00,275.32,010217,,*39
$GPRMC,092113,A,4818.8019,N,444.2745,W,10.00,275.32,010217,,*37
$GPRMC,092113,A,4818.8022,N,444.2779,W,10.00,275.32,010217,,*30
$GPRMC,092113,A,4818.8024,N,444.2814,W,10.00,275.32,010217,,*32
$GPRMC,092113,A,4818.8026,N,444.2848,W,10.00,275.32,010217,,*39
$GPRMC,092113,A,4818.8028,N,444.2883,W,10.00,275.32,010217,,*30
$GPRMC,092113,A,4818.8030,N,444.2917,W,10.00,275.32,010217,,*35
$GPRMC,092113,A,4818.8032,N,444.2952,W,10.00,275.32,010217,,*36
$GPRMC,092113,A,4818.8034,N,444.2986,W,10.00,275.32,010217,,*39
$GPRMC,092113,A,4818.8037,N,444.3021,W,10.00,275.32,010217,,*3F
$GPRMC,092113,A,4818.8039,N,444.3055,W,10.00,275.32,010217,,*32
$GPRMC,092113,A,4818.8041,N,444.3090,W,10.00,275.32,010217,,*34
$GPRMC,092113,A,4818.8043,N,444.3124,W,10.00,275.32,010217,,*38
$GPRMC,092113,A,4818.8045,N,444.3159,W,10.00,275.32,010217,,*34
$GPRMC,092113,A,4818.8047,N,444.3193,W,10.00,275.32,010217,,*30
$GPRMC,092113,A,4818.8049,N,444.3227,W,10.00,275.32,010217,,*32
$GPRMC,092113,A,4818.8051,N,444.3262,W,10.00,275.32,010217,,*3A
$GPRMC,092113,A,4818.8054,N,444.3296,W,10.00,275.32,010217,,*34
$GPRMC,092113,A,4818.8056,N,444.3331,W,10.00,275.32,010217,,*3A
$GPRMC,092113,A,4818.8058,N,444.3365,W,10.00,275.32,010217,,*35
$GPRMC,092113,A,4818.8060,N,444.3400,W,10.00,275.32,010217,,*3A
$GPRMC,092113,A,4818.8062,N,444.3434,W,10.00,275.32,010217,,*3F
$GPRMC,092113,A,4818.8064,N,444.3469,W,10.00,275.32,010217,,*31
$GPRMC,092113,A,4818.8066,N,444.3503,W,10.00,275.32,010217,,*3E
$GPRMC,092113,A,4818.8069,N,444.3538,W,10.00,275.32,010217,,*39
$GPRMC,092113,A,4818.8071,N,444.3572,W,10.00,275.32,010217,,*3E
$GPRMC,092113,A,4818.8073,N,444.3607,W,10.00,275.32,010217,,*3D
$GPRMC,092113,A,4818.8075,N,444.3641,W,10.00,275.32,010217,,*39
$GPRMC,092113,A,4818.8077,N,444.3676,W,10.00,275.32,010217,,*3F
$GPRMC,092113,A,4818.8079,N,444.3710,W,10.00,275.32,010217,,*30
$GPRMC,092113,A,4818.8081,N,444.3745,W,10.00,275.32,010217,,*37
$GPRMC,092113,A,4818.8083,N,444.3779,W,10.00,275.32,010217,,*3A
$GPRMC,092113,A,4818.8086,N,444.3814,W,10.00,275.32,010217,,*3B
$GPRMC,092113,A,4818.8088,N,444.3848,W,10.00,275.32,010217,,*3C
$GPRMC,092113,A,4818.8090,N,444.3883,W,10.00,275.32,010217,,*32
$GPRMC,092113,A,4818.8092,N,444.3917,W,10.00,275.32,010217,,*3C
$GPRMC,092113,A,4818.8094,N,444.3952,W,10.00,275.32,010217,,*3B
$GPRMC,092113,A,4818.8096,N,444.3986,W,10.00,275.32,010217,,*30
$GPRMC,092113,A,4818.8098,N,444.4021,W,10.00,275.32,010217,,*3D
$GPRMC,092113,A,4818.8101,N,444.4055,W,10.00,275.32,010217,,*3F
$GPRMC,092113,A,4818.8103,N,444.4089,W,10.00,275.32,010217,,*3C
$GPRMC,092113,A,4818.8105,N,444.4124,W,10.00,275.32,010217,,*3C
$GPRMC,092113,A,4818.8107,N,444.4158,W,10.00,275.32,010217,,*35
$GPRMC,092113,A,4818.8109,N,444.4193,W,10.00,275.32,010217,,*3C
$GPRMC,092113,A,4818.8111,N,444.4227,W,10.00,275.32,010217,,*39
$GPRMC,092113,A,4818.8113,N,444.4262,W,10.00,275.32,010217,,*3A
$GPRMC,092113,A,4818.8115,N,444.4296,W,10.00,275.32,010217,,*37
$GPRMC,092113,A,4818.8118,N,444.4331,W,10.00,275.32,010217,,*36
$GPRMC,092113,A,4818.8120,N,444.4365,W,10.00,275.32,010217,,*3C
$GPRMC,092113,A,4818.8122,N,444.4400,W,10.00,275.32,010217,,*3A
$GPRMC,092113,A,4818.8124,N,444.4434,W,10.00,275.32,010217,,*3B
$GPRMC,092113,A,4818.8126,N,444.4469,W,10.00,275.32,010217,,*31
$GPRMC,092113,A,4818.8128,N,444.4503,W,10.00,275.32,010217,,*32
$GPRMC,092113,A,4818.8130,N,444.4538,W,10.00,275.32,010217,,*33
$GPRMC,092113,A,4818.8133,N,444.4572,W,10.00,275.32,010217,,*3E
$GPRMC,092113,A,4818.8135,N,444.4607,W,10.00,275.32,010217,,*39
$GPRMC,092113,A,4818.8137,N,444.4641,W,10.00,275.32,010217,,*39
$GPRMC,092113,A,4818.8139,N,444.4676,W,10.00,275.32,010217,,*33
$GPRMC,092113,A,4818.8141,N,444.4710,W,10.00,275.32,010217,,*3D
$GPRMC,092113,A,4818.8143,N,444.4745,W,10.00,275.32,010217,,*3F
$GPRMC,092113,A,4818.8145,N,444.4779,W,10.00,275.32,010217,,*36
$GPRMC,092113,A,4818.8147,N,444.4814,W,10.00,275.32,010217,,*30
$GPRMC,092113,A,4818.8150,N,444.4848,W,10.00,275.32,010217,,*3F
$GPRMC,092113,A,4818.8152,N,444.4883,W,10.00,275.32,010217,,*3A
$GPRMC,092113,A,4818.8154,N,444.4917,W,10.00,275.32,010217,,*30
$GPRMC,092113,A,4818.8156,N,444.4951,W,10.00,275.32,010217,,*30
$GPRMC,092113,A,4818.8158,N,444.4986,W,10.00,275.32,010217,,*34
$GPRMC,092113,A,4818.8160,N,444.5020,W,10.00,275.32,010217,,*3B
$GPRMC,092113,A,4818.8162,N,444.5055,W,10.00,275.32,010217,,*3B
$GPRMC,092113,A,4818.8164,N,444.5089,W,10.00,275.32,010217,,*3C
$GPRMC,092113,A,4818.8167,N,444.5124,W,10.00,275.32,010217,,*39
$GPRMC,092113,A,4818.8169,N,444.5158,W,10.00,275.32,010217,,*3C
$GPRMC,092113,A,4818.8171,N,444.5193,W,10.00,275.32,010217,,*32
$GPRMC,092113,A,4818.8173,N,444.5227,W,10.00,275.32,010217,,*3C
$GPRMC,092113,A,4818.8175,N,444.5262,W,10.00,275.32,010217,,*3B
$GPRMC,092113,A,4818.8177,N,444.5296,W,10.00,275.32,010217,,*32
$GPRMC,092113,A,4818.8179,N,444.5331,W,10.00,275.32,010217,,*30
$GPRMC,092113,A,4818.8182,N,444.5365,W,10.00,275.32,010217,,*35
$GPRMC,092113,A,4818.8184,N,444.5400,W,10.00,275.32,010217,,*37
$GPRMC,092113,A,4818.8186,N,444.5434,W,10.00,275.32,010217,,*32
$GPRMC,092113,A,4818.8188,N,444.5469,W,10.00,275.32,010217,,*34
$GPRMC,092113,A,4818.8190,N,444.5503,W,10.00,275.32,010217,,*30
$GPRMC,092113,A,4818.8192,N,444.5538,W,10.00,275.32,010217,,*3A
$GPRMC,092113,A,4818.8194,N,444.5572,W,10.00,275.32,010217,,*32
$GPRMC,092113,A,4818.8196,N,444.5607,W,10.00,275.32,010217,,*31
$GPRMC,092113,A,4818.8199,N,444.5641,W,10.00,275.32,010217,,*3C
$GPRMC,092113,A,4818.8201,N,444.5676,W,10.00,275.32,010217,,*3A
$GPRMC,092113,A,4818.8203,N,444.5710,W,10.00,275.32,010217,,*39
$GPRMC,092113,A,4818.8205,N,444.5745,W,10.00,275.32,010217,,*3F
$GPRMC,092113,A,4818.8207,N,444.5779,W,10.00,275.32,010217,,*32
$GPRMC,092113,A,4818.8209,N,444.5813,W,10.00,275.32,010217,,*3F
$GPRMC,092113,A,4818.8211,N,444.5848,W,10.00,275.32,010217,,*38
$GPRMC,092113,A,4818.8214,N,444.5882,W,10.00,275.32,010217,,*3B
$GPRMC,092113,A,4818.8216,N,444.5917,W,10.00,275.32,010217,,*34
$GPRMC,092113,A,4818.8218,N,444.5951,W,10.00,275.32,010217,,*38
$GPRMC,092113,A,4818.8220,N,444.5986,W,10.00,275.32,010217,,*39
$GPRMC,092113,A,4818.8222,N,444.6020,W,10.00,275.32,010217,,*3D
$GPRMC,092113,A,4818.8224,N,444.6055,W,10.00,275.32,010217,,*39
$GPRMC,092113,A,4818.8226,N,444.6089,W,10.00,275.32,010217,,*3A
$GPRMC,092113,A,4818.8228,N,444.6124,W,10.00,275.32,010217,,*32
$GPRMC,092113,A,4818.8231,N,444.6158,W,10.00,275.32,010217,,*31
$GPRMC,092113,A,4818.8233,N,444.6193,W,10.00,275.32,010217,,*34
$GPRMC,092113,A,4818.8235,N,444.6227,W,10.00,275.32,010217,,*3E
$GPRMC,092113,A,4818.8237,N,444.6262,W,10.00,275.32,010217,,*3D
$GPRMC,092113,A,4818.8239,N,444.6296,W,10.00,275.32,010217,,*38
$GPRMC,092113,A,4818.8241,N,444.6331,W,10.00,275.32,010217,,*3B
$GPRMC,092113,A,4818.8243,N,444.6365,W,10.00,275.32,010217,,*38
$GPRMC,092113,A,4818.8245,N,444.6400,W,10.00,275.32,010217,,*3A
$GPRMC,092113,A,4818.8248,N,444.6434,W,10.00,275.32,010217,,*30
$GPRMC,092113,A,4818.8250,N,444.6469,W,10.00,275.32,010217,,*31
$GPRMC,092113,A,4818.8252,N,444.6503,W,10.00,275.32,010217,,*3E
$GPRMC,092113,A,4818.8254,N,444.6538,W,10.00,275.32,010217,,*30
$GPRMC,092113,A,4818.8256,N,444.6572,W,10.00,275.32,010217,,*3C
$GPRMC,092113,A,4818.8258,N,444.6607,W,10.00,275.32,010217,,*33
$GPRMC,092113,A,4818.8260,N,444.6641,W,10.00,275.32,010217,,*3A
$GPRMC,092113,A,4818.8263,N,444.6676,W,10.00,275.32,010217,,*3D
$GPRMC,092113,A,4818.8265,N,444.6710,W,10.00,275.32,010217,,*3A
$GPRMC,092113,A,4818.8267,N,444.6744,W,10.00,275.32,010217,,*39
$GPRMC,092113,A,4818.8269,N,444.6779,W,10.00,275.32,010217,,*39
$GPRMC,092113,A,4818.8271,N,444.6813,W,10.00,275.32,010217,,*33
$GPRMC,092113,A,4818.8273,N,444.6848,W,10.00,275.32,010217,,*3F
$GPRMC,092113,A,4818.8275,N,444.6882,W,10.00,275.32,010217,,*3F
$GPRMC,092113,A,4818.8277,N,444.6917,W,10.00,275.32,010217,,*30
$GPRMC,092113,A,4818.8280,N,444.6951,W,10.00,275.32,010217,,*3A
$GPRMC,092113,A,4818.8282,N,444.6986,W,10.00,275.32,010217,,*32
$GPRMC,092113,A,4818.8284,N,444.7020,W,10.00,275.32,010217,,*30
$GPRMC,092113,A,4818.8286,N,444.7055,W,10.00,275.32,010217,,*30
$GPRMC,092113,A,4818.8288,N,444.7089,W,10.00,275.32,010217,,*3F
$GPRMC,092113,A,4818.8290,N,444.7124,W,10.00,275.32,010217,,*30
$GPRMC,092113,A,4818.8292,N,444.7158,W,10.00,275.32,010217,,*39
$GPRMC,092113,A,4818.8294,N,444.7193,W,10.00,275.32,010217,,*38
$GPRMC,092113,A,4818.8297,N,444.7227,W,10.00,275.32,010217,,*37
$GPRMC,092113,A,4818.8299,N,444.7262,W,10.00,275.32,010217,,*38
$GPRMC,092113,A,4818.8301,N,444.7296,W,10.00,275.32,010217,,*33
$GPRMC,092113,A,4818.8303,N,444.7331,W,10.00,275.32,010217,,*3D
$GPRMC,092113,A,4818.8305,N,444.7365,W,10.00,275.32,010217,,*3A
$GPRMC,092113,A,4818.8307,N,444.7400,W,10.00,275.32,010217,,*3C
$GPRMC,092113,A,4818.8309,N,444.7434,W,10.00,275.32,010217,,*35
$GPRMC,092113,A,4818.8312,N,444.7469,W,10.00,275.32,010217,,*37
$GPRMC,092113,A,4818.8314,N,444.7503,W,10.00,275.32,010217,,*3C
$GPRMC,092113,A,4818.8316,N,444.7538,W,10.00,275.32,010217,,*36
$GPRMC,092113,A,4818.8318,N,444.7572,W,10.00,275.32,010217,,*36
$GPRMC,092113,A,4818.8320,N,444.7606,W,10.00,275.32,010217,,*3D
$GPRMC,092113,A,4818.8322,N,444.7641,W,10.00,275.32,010217,,*3C
$GPRMC,092113,A,4818.8324,N,444.7675,W,10.00,275.32,010217,,*3D
$GPRMC,092113,A,4818.8326,N,444.7710,W,10.00,275.32,010217,,*3D
$GPRMC,092113,A,4818.8329,N,444.7744,W,10.00,275.32,010217,,*33
$GPRMC,092113,A,4818.8331,N,444.7779,W,10.00,275.32,010217,,*34
$GPRMC,092113,A,4818.8333,N,444.7813,W,10.00,275.32,010217,,*35
$GPRMC,092113,A,4818.8335,N,444.7848,W,10.00,275.32,010217,,*3D
$GPRMC,092113,A,4818.8337,N,444.7882,W,10.00,275.32,010217,,*39
$GPRMC,092113,A,4818.8339,N,444.7917,W,10.00,275.32,010217,,*3A
$GPRMC,092113,A,4818.8341,N,444.7951,W,10.00,275.32,010217,,*37
$GPRMC,092113,A,4818.8344,N,444.7986,W,10.00,275.32,010217,,*38
$GPRMC,092113,A,4818.8346,N,444.8020,W,10.00,275.32,010217,,*30
$GPRMC,092113,A,4818.8348,N,444.8055,W,10.00,275.32,010217,,*3C
$GPRMC,092113,A,4818.8350,N,444.8089,W,10.00,275.32,010217,,*34
$GPRMC,092113,A,4818.8352,N,444.8124,W,10.00,275.32,010217,,*30
$GPRMC,092113,A,4818.8354,N,444.8158,W,10.00,275.32,010217,,*3D
$GPRMC,092113,A,4818.8356,N,444.8193,W,10.00,275.32,010217,,*38
$GPRMC,092113,A,4818.8358,N,444.8227,W,10.00,275.32,010217,,*3A
$GPRMC,092113,A,4818.8361,N,444.8262,W,10.00,275.32,010217,,*31
$GPRMC,092113,A,4818.8363,N,444.8296,W,10.00,275.32,010217,,*38
$GPRMC,092113,A,4818.8365,N,444.8331,W,10.00,275.32,010217,,*32
$GPRMC,092113,A,4818.8367,N,444.8365,W,10.00,275.32,010217,,*31
$GPRMC,092113,A,4818.8369,N,444.8400,W,10.00,275.32,010217,,*3B
$GPRMC,092113,A,4818.8371,N,444.8434,W,10.00,275.32,010217,,*35
$GPRMC,092113,A,4818.8373,N,444.8468,W,10.00,275.32,010217,,*3E
$GPRMC,092113,A,4818.8375,N,444.8503,W,10.00,275.32,010217,,*34
$GPRMC,092113,A,4818.8378,N,444.8537,W,10.00,275.32,010217,,*3E
$GPRMC,092113,A,4818.8380,N,444.8572,W,10.00,275.32,010217,,*38
$GPRMC,092113,A,4818.8382,N,444.8606,W,10.00,275.32,010217,,*3A
$GPRMC,092113,A,4818.8384,N,444.8641,W,10.00,275.32,010217,,*3F
$GPRMC,092113,A,4818.8386,N,444.8675,W,10.00,275.32,010217,,*3A
$GPRMC,092113,A,4818.8388,N,444.8710,W,10.00,275.32,010217,,*36
$GPRMC,092113,A,4818.8390,N,444.8744,W,10.00,275.32,010217,,*3E
$GPRMC,092113,A,4818.8392,N,444.8779,W,10.00,275.32,010217,,*32
$GPRMC,092113,A,4818.8395,N,444.8813,W,10.00,275.32,010217,,*36
$GPRMC,092113,A,4818.8397,N,444.8848,W,10.00,275.32,010217,,*3A
$GPRMC,092113,A,4818.8399,N,444.8882,W,10.00,275.32,010217,,*32
$GPRMC,092113,A,4818.8401,N,444.8917,W,10.00,275.32,010217,,*39
$GPRMC,092113,A,4818.8403,N,444.8951,W,10.00,275.32,010217,,*39
$GPRMC,092113,A,4818.8405,N,444.8986,W,10.00,275.32,010217,,*35
$GPRMC,092113,A,4818.8407,N,444.9020,W,10.00,275.32,010217,,*33
$GPRMC,092113,A,4818.8410,N,444.9055,W,10.00,275.32,010217,,*37
$GPRMC,092113,A,4818.8412,N,444.9089,W,10.00,275.32,010217,,*34
$GPRMC,092113,A,4818.8414,N,444.9124,W,10.00,275.32,010217,,*34
$GPRMC,092113,A,4818.8416,N,444.9158,W,10.00,275.32,010217,,*3D
$GPRMC,092113,A,4818.8418,N,444.9193,W,10.00,275.32,010217,,*34
$GPRMC,092113,A,4818.8420,N,444.9227,W,10.00,275.32,010217,,*33
$GPRMC,092113,A,4818.8422,N,444.9262,W,10.00,275.32,010217,,*30
$GPRMC,092113,A,4818.8424,N,444.9296,W,10.00,275.32,010217,,*3D
$GPRMC,092113,A,4818.8427,N,444.9331,W,10.00,275.32,010217,,*32
$GPRMC,092113,A,4818.8429,N,444.9365,W,10.00,275.32,010217,,*3D
$GPRMC,092113,A,4818.8431,N,444.9399,W,10.00,275.32,010217,,*37
$GPRMC,092113,A,4818.8433,N,444.9434,W,10.00,275.32,010217,,*35
$GPRMC,092113,A,4818.8435,N,444.9468,W,10.00,275.32,010217,,*3A
$GPRMC,092113,A,4818.8437,N,444.9503,W,10.00,275.32,010217,,*34
$GPRMC,092113,A,4818.8439,N,444.9537,W,10.00,275.32,010217,,*3D
$GPRMC,092113,A,4818.8441,N,444.9572,W,10.00,275.32,010217,,*33
$GPRMC,092113,A,4818.8444,N,444.9606,W,10.00,275.32,010217,,*36
$GPRMC,092113,A,4818.8446,N,444.9641,W,10.00,275.32,010217,,*37
$GPRMC,092113,A,4818.8448,N,444.9675,W,10.00,275.32,010217,,*3E
$GPRMC,092113,A,4818.8450,N,444.9710,W,10.00,275.32,010217,,*35
$GPRMC,092113,A,4818.8452,N,444.9744,W,10.00,275.32,010217,,*36
$GPRMC,092113,A,4818.8454,N,444.9779,W,10.00,275.32,010217,,*3E
$GPRMC,092113,A,4818.8456,N,444.9813,W,10.00,275.32,010217,,*3F
$GPRMC,092113,A,4818.8459,N,444.9848,W,10.00,275.32,010217,,*3E
$GPRMC,092113,A,4818.8461,N,444.9882,W,10.00,275.32,010217,,*33
$GPRMC,092113,A,4818.8463,N,444.9917,W,10.00,275.32,010217,,*3C
$GPRMC,092113,A,4818.8465,N,444.9951,W,10.00,275.32,010217,,*38
$GPRMC,092113,A,4818.8467,N,444.9986,W,10.00,275.32,010217,,*30
$GPRMC,092113,A,4818.8469,N,445.0020,W,10.00,275.32,010217,,*33
$GPRMC,092113,A,4818.8471,N,445.0055,W,10.00,275.32,010217,,*38
$GPRMC,092113,A,4818.8473,N,445.0089,W,10.00,275.32,010217,,*3B
$GPRMC,092113,A,4818.8476,N,445.0124,W,10.00,275.32,010217,,*38
$GPRMC,092113,A,4818.8478,N,445.0158,W,10.00,275.32,010217,,*3D
$GPRMC,092113,A,4818.8480,N,445.0193,W,10.00,275.32,010217,,*3D
$GPRMC,092113,A,4818.8482,N,445.0227,W,10.00,275.32,010217,,*33
$GPRMC,092113,A,4818.8484,N,445.0261,W,10.00,275.32,010217,,*37
$GPRMC,092113,A,4818.8486,N,445.0296,W,10.00,275.32,010217,,*3D
$GPRMC,092113,A,4818.8488,N,445.0330,W,10.00,275.32,010217,,*3E
$GPRMC,092113,A,4818.8490,N,445.0365,W,10.00,275.32,010217,,*37
$GPRMC,092113,A,4818.8493,N,445.0399,W,10.00,275.32,010217,,*37
$GPRMC,092113,A,4818.8495,N,445.0434,W,10.00,275.32,010217,,*31
$GPRMC,092113,A,4818.8497,N,445.0468,W,10.00,275.32,010217,,*3A
$GPRMC,092113,A,4818.8499,N,445.0503,W,10.00,275.32,010217,,*38
$GPRMC,092113,A,4818.8501,N,445.0537,W,10.00,275.32,010217,,*3F
$GPRMC,092113,A,4818.8503,N,445.0572,W,10.00,275.32,010217,,*3C
$GPRMC,092113,A,4818.8505,N,445.0606,W,10.00,275.32,010217,,*3A
$GPRMC,092113,A,4818.8507,N,445.0641,W,10.00,275.32,010217,,*3B
$GPRMC,092113,A,4818.8510,N,445.0675,W,10.00,275.32,010217,,*3A
$GPRMC,092113,A,4818.8512,N,445.0710,W,10.00,275.32,010217,,*3A
$GPRMC,092113,A,4818.8514,N,445.0744,W,10.00,275.32,010217,,*3D
$GPRMC,092113,A,4818.8516,N,445.0779,W,10.00,275.32,010217,,*31
$GPRMC,092113,A,4818.8518,N,445.0813,W,10.00,275.32,010217,,*3C
$GPRMC,092113,A,4818.8520,N,445.0848,W,10.00,275.32,010217,,*39
$GPRMC,092113,A,4818.8522,N,445.0882,W,10.00,275.32,010217,,*3D
$GPRMC,092113,A,4818.8525,N,445.0917,W,10.00,275.32,010217,,*37
$GPRMC,092113,A,4818.8527,N,445.0951,W,10.00,275.32,010217,,*37
$GPRMC,092113,A,4818.8529,N,445.0986,W,10.00,275.32,010217,,*33
$GPRMC,092113,A,4818.8531,N,445.1020,W,10.00,275.32,010217,,*3E
$GPRMC,092113,A,4818.8533,N,445.1055,W,10.00,275.32,010217,,*3E
$GPRMC,092113,A,4818.8535,N,445.1089,W,10.00,275.32,010217,,*39
$GPRMC,092113,A,4818.8537,N,445.1124,W,10.00,275.32,010217,,*3D
$GPRMC,092113,A,4818.8539,N,445.1158,W,10.00,275.32,010217,,*38
$GPRMC,092113,A,4818.8542,N,445.1192,W,10.00,275.32,010217,,*32
$GPRMC,092113,A,4818.8544,N,445.1227,W,10.00,275.32,010217,,*39
$GPRMC,092113,A,4818.8546,N,445.1261,W,10.00,275.32,010217,,*39
$GPRMC,092113,A,4818.8548,N,445.1296,W,10.00,275.32,010217,,*3F
$GPRMC,092113,A,4818.8550,N,445.1330,W,10.00,275.32,010217,,*3B
$GPRMC,092113,A,4818.8552,N,445.1365,W,10.00,275.32,010217,,*39
$GPRMC,092113,A,4818.8554,N,445.1399,W,10.00,275.32,010217,,*3C
$GPRMC,092113,A,4818.8556,N,445.1434,W,10.00,275.32,010217,,*3E
$GPRMC,092113,A,4818.8559,N,445.1468,W,10.00,275.32,010217,,*38
$GPRMC,092113,A,4818.8561,N,445.1503,W,10.00,275.32,010217,,*3F
$GPRMC,092113,A,4818.8563,N,445.1537,W,10.00,275.32,010217,,*3A
$GPRMC,092113,A,4818.8565,N,445.1572,W,10.00,275.32,010217,,*3D
$GPRMC,092113,A,4818.8567,N,445.1606,W,10.00,275.32,010217,,*3F
$GPRMC,092113,A,4818.8569,N,445.1641,W,10.00,275.32,010217,,*32
$GPRMC,092113,A,4818.8571,N,445.1675,W,10.00,275.32,010217,,*3C
$GPRMC,092113,A,4818.8573,N,445.1710,W,10.00,275.32,010217,,*3C
$GPRMC,092113,A,4818.8576,N,445.1744,W,10.00,275.32,010217,,*38
$GPRMC,092113,A,4818.8578,N,445.1779,W,10.00,275.32,010217,,*38
$GPRMC,092113,A,4818.8580,N,445.1813,W,10.00,275.32,010217,,*3C
$GPRMC,092113,A,4818.8582,N,445.1848,W,10.00,275.32,010217,,*30
$GPRMC,092113,A,4818.8584,N,445.1882,W,10.00,275.32,010217,,*30
$GPRMC,092113,A,4818.8586,N,445.1917,W,10.00,275.32,010217,,*3F
$GPRMC,092113,A,4818.8588,N,445.1951,W,10.00,275.32,010217,,*33
$GPRMC,092113,A,4818.8591,N,445.1986,W,10.00,275.32,010217,,*31
$GPRMC,092113,A,4818.8593,N,445.2020,W,10.00,275.32,010217,,*35
$GPRMC,092113,A,4818.8595,N,445.2054,W,10.00,275.32,010217,,*30
$GPRMC,092113,A,4818.8597,N,445.2089,W,10.00,275.32,010217,,*32
$GPRMC,092113,A,4818.8599,N,445.2123,W,10.00,275.32,010217,,*3D
$GPRMC,092113,A,4818.8601,N,445.2158,W,10.00,275.32,010217,,*33
$GPRMC,092113,A,4818.8603,N,445.2192,W,10.00,275.32,010217,,*37
$GPRMC,092113,A,4818.8605,N,445.2227,W,10.00,275.32,010217,,*3C
$GPRMC,092113,A,4818.8608,N,445.2261,W,10.00,275.32,010217,,*33
$GPRMC,092113,A,4818.8610,N,445.2296,W,10.00,275.32,010217,,*32
$GPRMC,092113,A,4818.8612,N,445.2330,W,10.00,275.32,010217,,*3D
$GPRMC,092113,A,4818.8614,N,445.2365,W,10.00,275.32,010217,,*3B
$GPRMC,092113,A,4818.8616,N,445.2399,W,10.00,275.32,010217,,*3A
$GPRMC,092113,A,4818.8618,N,445.2434,W,10.00,275.32,010217,,*34
$GPRMC,092113,A,4818.8620,N,445.2468,W,10.00,275.32,010217,,*36
$GPRMC,092113,A,4818.8622,N,445.2503,W,10.00,275.32,010217,,*38
$GPRMC,092113,A,4818.8625,N,445.2537,W,10.00,275.32,010217,,*38
$GPRMC,092113,A,4818.8627,N,445.2572,W,10.00,275.32,010217,,*3B
$GPRMC,092113,A,4818.8629,N,445.2606,W,10.00,275.32,010217,,*35
$GPRMC,092113,A,4818.8631,N,445.2641,W,10.00,275.32,010217,,*3F
$GPRMC,092113,A,4818.8633,N,445.2675,W,10.00,275.32,010217,,*3A
$GPRMC,092113,A,4818.8635,N,445.2710,W,10.00,275.32,010217,,*3E
$GPRMC,092113,A,4818.8637,N,445.2744,W,10.00,275.32,010217,,*3D
$GPRMC,092113,A,4818.8639,N,445.2779,W,10.00,275.32,010217,,*3D
$GPRMC,092113,A,4818.8642,N,445.2813,W,10.00,275.32,010217,,*32
$GPRMC,092113,A,4818.8644,N,445.2848,W,10.00,275.32,010217,,*3A
$GPRMC,092113,A,4818.8646,N,445.2882,W,10.00,275.32,010217,,*3E
$GPRMC,092113,A,4818.8648,N,445.2917,W,10.00,275.32,010217,,*3D
$GPRMC,092113,A,4818.8650,N,445.2951,W,10.00,275.32,010217,,*36
$GPRMC,092113,A,4818.8652,N,445.2985,W,10.00,275.32,010217,,*3D
$GPRMC,092113,A,4818.8654,N,445.3020,W,10.00,275.32,010217,,*3C
$GPRMC,092113,A,4818.8656,N,445.3054,W,10.00,275.32,010217,,*3D
$GPRMC,092113,A,4818.8659,N,445.3089,W,10.00,275.32,010217,,*32
$GPRMC,092113,A,4818.8661,N,445.3123,W,10.00,275.32,010217,,*38
$GPRMC,092113,A,4818.8663,N,445.3158,W,10.00,275.32,010217,,*36
$GPRMC,092113,A,4818.8665,N,445.3192,W,10.00,275.32,010217,,*36
$GPRMC,092113,A,4818.8667,N,445.3227,W,10.00,275.32,010217,,*39
$GPRMC,092113,A,4818.8669,N,445.3261,W,10.00,275.32,010217,,*35
$GPRMC,092113,A,4818.8671,N,445.3296,W,10.00,275.32,010217,,*34
$GPRMC,092113,A,4818.8674,N,445.3330,W,10.00,275.32,010217,,*3C
$GPRMC,092113,A,4818.8676,N,445.3365,W,10.00,275.32,010217,,*3E
$GPRMC,092113,A,4818.8678,N,445.3399,W,10.00,275.32,010217,,*33
$GPRMC,092113,A,4818.8680,N,445.3434,W,10.00,275.32,010217,,*34
$GPRMC,092113,A,4818.8682,N,445.3468,W,10.00,275.32,010217,,*3F
$GPRMC,092113,A,4818.8684,N,445.3503,W,10.00,275.32,010217,,*35
$GPRMC,092113,A,4818.8686,N,445.3537,W,10.00,275.32,010217,,*30
$GPRMC,092113,A,4818.8688,N,445.3572,W,10.00,275.32,010217,,*3F
$GPRMC,092113,A,4818.8691,N,445.3606,W,10.00,275.32,010217,,*37
$GPRMC,092113,A,4818.8693,N,445.3641,W,10.00,275.32,010217,,*36
$GPRMC,092113,A,4818.8695,N,445.3675,W,10.00,275.32,010217,,*37
$GPRMC,092113,A,4818.8697,N,445.3710,W,10.00,275.32,010217,,*37
$GPRMC,092113,A,4818.8699,N,445.3744,W,10.00,275.32,010217,,*38
$GPRMC,092113,A,4818.8701,N,445.3779,W,10.00,275.32,010217,,*36
$GPRMC,092113,A,4818.8703,N,445.3813,W,10.00,275.32,010217,,*37
$GPRMC,092113,A,4818.8705,N,445.3848,W,10.00,275.32,010217,,*3F
$GPRMC,092113,A,4818.8708,N,445.3882,W,10.00,275.32,010217,,*34
$GPRMC,092113,A,4818.8710,N,445.3916,W,10.00,275.32,010217,,*31
$GPRMC,092113,A,4818.8712,N,445.3951,W,10.00,275.32,010217,,*30
$GPRMC,092113,A,4818.8714,N,445.3985,W,10.00,275.32,010217,,*3F
$GPRMC,092113,A,4818.8716,N,445.4020,W,10.00,275.32,010217,,*3C
$GPRMC,092113,A,4818.8718,N,445.4054,W,10.00,275.32,010217,,*31
$GPRMC,092113,A,4818.8720,N,445.4089,W,10.00,275.32,010217,,*3A
$GPRMC,092113,A,4818.8722,N,445.4123,W,10.00,275.32,010217,,*39
$GPRMC,092113,A,4818.8725,N,445.4158,W,10.00,275.32,010217,,*32
