$GPRMC,125800,A,4822.0589,N,429.2615,W,10.00,228.61,190117,,*37
$GPRMC,125800,A,4822.0545,N,429.2690,W,10.00,228.61,190117,,*3A
$GPRMC,125800,A,4822.0501,N,429.2764,W,10.00,228.61,190117,,*30
$GPRMC,125800,A,4822.0458,N,429.2839,W,10.00,228.61,190117,,*3A
$GPRMC,125800,A,4822.0414,N,429.2914,W,10.00,228.61,190117,,*3C
$GPRMC,125800,A,4822.0370,N,429.2988,W,10.00,228.61,190117,,*3C
$GPRMC,125800,A,4822.0326,N,429.3063,W,10.00,228.61,190117,,*32
$GPRMC,125800,A,4822.0282,N,429.3138,W,10.00,228.61,190117,,*32
$GPRMC,125800,A,4822.0238,N,429.3212,W,10.00,228.61,190117,,*38
$GPRMC,125800,A,4822.0195,N,429.3287,W,10.00,228.61,190117,,*30
$GPRMC,125800,A,4822.0151,N,429.3362,W,10.00,228.61,190117,,*32
$GPRMC,125800,A,4822.0107,N,429.3436,W,10.00,228.61,190117,,*37
$GPRMC,125800,A,4822.0063,N,429.3511,W,10.00,228.61,190117,,*30
$GPRMC,125800,A,4822.0019,N,429.3585,W,10.00,228.61,190117,,*30
$GPRMC,125800,A,4821.9975,N,429.3660,W,10.00,228.61,190117,,*31
$GPRMC,125800,A,4821.9932,N,429.3735,W,10.00,228.61,190117,,*33
$GPRMC,125800,A,4821.9888,N,429.3809,W,10.00,228.61,190117,,*33
$GPRMC,125800,A,4821.9844,N,429.3884,W,10.00,228.61,190117,,*36
$GPRMC,125800,A,4821.9800,N,429.3959,W,10.00,228.61,190117,,*37
$GPRMC,125800,A,4821.9756,N,429.4033,W,10.00,228.61,190117,,*39
$GPRMC,125800,A,4821.9712,N,429.4108,W,10.00,228.61,190117,,*30
$GPRMC,125800,A,4821.9669,N,429.4183,W,10.00,228.61,190117,,*3E
$GPRMC,125800,A,4821.9625,N,429.4257,W,10.00,228.61,190117,,*3C
$GPRMC,125800,A,4821.9581,N,429.4332,W,10.00,228.61,190117,,*33
$GPRMC,125800,A,4821.9537,N,429.4406,W,10.00,228.61,190117,,*3E
$GPRMC,125800,A,4821.9493,N,429.4481,W,10.00,228.61,190117,,*3E
$GPRMC,125800,A,4821.9449,N,429.4556,W,10.00,228.61,190117,,*32
$GPRMC,125800,A,4821.9406,N,429.4630,W,10.00,228.61,190117,,*3A
$GPRMC,125800,A,4821.9362,N,429.4705,W,10.00,228.61,190117,,*38
$GPRMC,125800,A,4821.9318,N,429.4780,W,10.00,228.61,190117,,*38
$GPRMC,125800,A,4821.9274,N,429.4854,W,10.00,228.61,190117,,*35
$GPRMC,125800,A,4821.9230,N,429.4929,W,10.00,228.61,190117,,*3E
$GPRMC,125800,A,4821.9186,N,429.5003,W,10.00,228.61,190117,,*30
$GPRMC,125800,A,4821.9143,N,429.5078,W,10.00,228.61,190117,,*35
$GPRMC,125800,A,4821.9099,N,429.5153,W,10.00,228.61,190117,,*3B
$GPRMC,125800,A,4821.9055,N,429.5227,W,10.00,228.61,190117,,*3B
$GPRMC,125800,A,4821.9011,N,429.5302,W,10.00,228.61,190117,,*3D
$GPRMC,125800,A,4821.8967,N,429.5377,W,10.00,228.61,190117,,*36
$GPRMC,125800,A,4821.8923,N,429.5451,W,10.00,228.61,190117,,*35
$GPRMC,125800,A,4821.8879,N,429.5526,W,10.00,228.61,190117,,*3A
$GPRMC,125800,A,4821.8836,N,429.5601,W,10.00,228.61,190117,,*37
$GPRMC,125800,A,4821.8792,N,429.5675,W,10.00,228.61,190117,,*35
$GPRMC,125800,A,4821.8748,N,429.5750,W,10.00,228.61,190117,,*34
$GPRMC,125800,A,4821.8704,N,429.5824,W,10.00,228.61,190117,,*30
$GPRMC,125800,A,4821.8660,N,429.5899,W,10.00,228.61,190117,,*35
$GPRMC,125800,A,4821.8616,N,429.5974,W,10.00,228.61,190117,,*36
$GPRMC,125800,A,4821.8573,N,429.6048,W,10.00,228.61,190117,,*33
$GPRMC,125800,A,4821.8529,N,429.6123,W,10.00,228.61,190117,,*30
$GPRMC,125800,A,4821.8485,N,429.6198,W,10.00,228.61,190117,,*37
$GPRMC,125800,A,4821.8441,N,429.6272,W,10.00,228.61,190117,,*38
$GPRMC,125800,A,4821.8397,N,429.6347,W,10.00,228.61,190117,,*33
$GPRMC,125800,A,4821.8353,N,429.6421,W,10.00,228.61,190117,,*3C
$GPRMC,125800,A,4821.8310,N,429.6496,W,10.00,228.61,190117,,*37
$GPRMC,125800,A,4821.8266,N,429.6571,W,10.00,228.61,190117,,*3F
$GPRMC,125800,A,4821.8222,N,429.6645,W,10.00,228.61,190117,,*3B
$GPRMC,125800,A,4821.8178,N,429.6720,W,10.00,228.61,190117,,*35
$GPRMC,125800,A,4821.8134,N,429.6795,W,10.00,228.61,190117,,*33
$GPRMC,125800,A,4821.8090,N,429.6869,W,10.00,228.61,190117,,*30
$GPRMC,125800,A,4821.8047,N,429.6944,W,10.00,228.61,190117,,*34
$GPRMC,125800,A,4821.8003,N,429.7018,W,10.00,228.61,190117,,*35
$GPRMC,125800,A,4821.7959,N,429.7093,W,10.00,228.61,190117,,*3F
$GPRMC,125800,A,4821.7915,N,429.7168,W,10.00,228.61,190117,,*32
$GPRMC,125800,A,4821.7871,N,429.7242,W,10.00,228.61,190117,,*3A
$GPRMC,125800,A,4821.7827,N,429.7317,W,10.00,228.61,190117,,*38
$GPRMC,125800,A,4821.7783,N,429.7392,W,10.00,228.61,190117,,*34
$GPRMC,125800,A,4821.7740,N,429.7466,W,10.00,228.61,190117,,*37
$GPRMC,125800,A,4821.7696,N,429.7541,W,10.00,228.61,190117,,*39
$GPRMC,125800,A,4821.7652,N,429.7615,W,10.00,228.61,190117,,*33
$GPRMC,125800,A,4821.7608,N,429.7690,W,10.00,228.61,190117,,*31
$GPRMC,125800,A,4821.7564,N,429.7765,W,10.00,228.61,190117,,*33
$GPRMC,125800,A,4821.7520,N,429.7839,W,10.00,228.61,190117,,*35
$GPRMC,125800,A,4821.7477,N,429.7914,W,10.00,228.61,190117,,*38
$GPRMC,125800,A,4821.7433,N,429.7989,W,10.00,228.61,190117,,*3C
$GPRMC,125800,A,4821.7389,N,429.8063,W,10.00,228.61,190117,,*38
$GPRMC,125800,A,4821.7345,N,429.8138,W,10.00,228.61,190117,,*37
$GPRMC,125800,A,4821.7301,N,429.8212,W,10.00,228.61,190117,,*3C
$GPRMC,125800,A,4821.7257,N,429.8287,W,10.00,228.61,190117,,*32
$GPRMC,125800,A,4821.7214,N,429.8362,W,10.00,228.61,190117,,*3F
$GPRMC,125800,A,4821.7170,N,429.8436,W,10.00,228.61,190117,,*38
$GPRMC,125800,A,4821.7126,N,429.8511,W,10.00,228.61,190117,,*3F
$GPRMC,125800,A,4821.7082,N,429.8586,W,10.00,228.61,190117,,*3E
$GPRMC,125800,A,4821.7038,N,429.8660,W,10.00,228.61,190117,,*34
$GPRMC,125800,A,4821.6994,N,429.8735,W,10.00,228.61,190117,,*3B
$GPRMC,125800,A,4821.6950,N,429.8809,W,10.00,228.61,190117,,*33
$GPRMC,125800,A,4821.6907,N,429.8884,W,10.00,228.61,190117,,*34
$GPRMC,125800,A,4821.6863,N,429.8959,W,10.00,228.61,190117,,*36
$GPRMC,125800,A,4821.6819,N,429.9033,W,10.00,228.61,190117,,*3F
$GPRMC,125800,A,4821.6775,N,429.9108,W,10.00,228.61,190117,,*33
$GPRMC,125800,A,4821.6731,N,429.9183,W,10.00,228.61,190117,,*30
$GPRMC,125800,A,4821.6687,N,429.9257,W,10.00,228.61,190117,,*36
$GPRMC,125800,A,4821.6644,N,429.9332,W,10.00,228.61,190117,,*3B
$GPRMC,125800,A,4821.6600,N,429.9406,W,10.00,228.61,190117,,*3B
$GPRMC,125800,A,4821.6556,N,429.9481,W,10.00,228.61,190117,,*34
$GPRMC,125800,A,4821.6512,N,429.9556,W,10.00,228.61,190117,,*3F
$GPRMC,125800,A,4821.6468,N,429.9630,W,10.00,228.61,190117,,*30
$GPRMC,125800,A,4821.6424,N,429.9705,W,10.00,228.61,190117,,*3F
$GPRMC,125800,A,4821.6380,N,429.9779,W,10.00,228.61,190117,,*3D
$GPRMC,125800,A,4821.6337,N,429.9854,W,10.00,228.61,190117,,*31
$GPRMC,125800,A,4821.6293,N,429.9929,W,10.00,228.61,190117,,*35
$GPRMC,125800,A,4821.6249,N,430.0003,W,10.00,228.61,190117,,*32
$GPRMC,125800,A,4821.6205,N,430.0078,W,10.00,228.61,190117,,*36
$GPRMC,125800,A,4821.6161,N,430.0153,W,10.00,228.61,190117,,*3F
$GPRMC,125800,A,4821.6117,N,430.0227,W,10.00,228.61,190117,,*3E
$GPRMC,125800,A,4821.6074,N,430.0302,W,10.00,228.61,190117,,*3C
$GPRMC,125800,A,4821.6030,N,430.0376,W,10.00,228.61,190117,,*3F
$GPRMC,125800,A,4821.5986,N,430.0451,W,10.00,228.61,190117,,*3A
$GPRMC,125800,A,4821.5942,N,430.0526,W,10.00,228.61,190117,,*33
$GPRMC,125800,A,4821.5898,N,430.0600,W,10.00,228.61,190117,,*32
$GPRMC,125800,A,4821.5854,N,430.0675,W,10.00,228.61,190117,,*30
$GPRMC,125800,A,4821.5811,N,430.0749,W,10.00,228.61,190117,,*3F
$GPRMC,125800,A,4821.5767,N,430.0824,W,10.00,228.61,190117,,*35
$GPRMC,125800,A,4821.5723,N,430.0899,W,10.00,228.61,190117,,*33
$GPRMC,125800,A,4821.5679,N,430.0973,W,10.00,228.61,190117,,*38
$GPRMC,125800,A,4821.5635,N,430.1048,W,10.00,228.61,190117,,*30
$GPRMC,125800,A,4821.5591,N,430.1123,W,10.00,228.61,190117,,*31
$GPRMC,125800,A,4821.5547,N,430.1197,W,10.00,228.61,190117,,*35
$GPRMC,125800,A,4821.5504,N,430.1272,W,10.00,228.61,190117,,*3A
$GPRMC,125800,A,4821.5460,N,430.1346,W,10.00,228.61,190117,,*3F
$GPRMC,125800,A,4821.5416,N,430.1421,W,10.00,228.61,190117,,*38
$GPRMC,125800,A,4821.5372,N,430.1496,W,10.00,228.61,190117,,*31
$GPRMC,125800,A,4821.5328,N,430.1570,W,10.00,228.61,190117,,*37
$GPRMC,125800,A,4821.5284,N,430.1645,W,10.00,228.61,190117,,*35
$GPRMC,125800,A,4821.5241,N,430.1719,W,10.00,228.61,190117,,*34
$GPRMC,125800,A,4821.5197,N,430.1794,W,10.00,228.61,190117,,*39
$GPRMC,125800,A,4821.5153,N,430.1869,W,10.00,228.61,190117,,*3C
$GPRMC,125800,A,4821.5109,N,430.1943,W,10.00,228.61,190117,,*3A
$GPRMC,125800,A,4821.5065,N,430.2018,W,10.00,228.61,190117,,*35
$GPRMC,125800,A,4821.5021,N,430.2093,W,10.00,228.61,190117,,*36
$GPRMC,125800,A,4821.4977,N,430.2167,W,10.00,228.61,190117,,*37
$GPRMC,125800,A,4821.4934,N,430.2242,W,10.00,228.61,190117,,*34
$GPRMC,125800,A,4821.4890,N,430.2316,W,10.00,228.61,190117,,*3B
$GPRMC,125800,A,4821.4846,N,430.2391,W,10.00,228.61,190117,,*3F
$GPRMC,125800,A,4821.4802,N,430.2466,W,10.00,228.61,190117,,*30
$GPRMC,125800,A,4821.4758,N,430.2540,W,10.00,228.61,190117,,*35
$GPRMC,125800,A,4821.4714,N,430.2615,W,10.00,228.61,190117,,*3E
$GPRMC,125800,A,4821.4671,N,430.2689,W,10.00,228.61,190117,,*39
$GPRMC,125800,A,4821.4627,N,430.2764,W,10.00,228.61,190117,,*38
$GPRMC,125800,A,4821.4583,N,430.2839,W,10.00,228.61,190117,,*32
$GPRMC,125800,A,4821.4539,N,430.2913,W,10.00,228.61,190117,,*3A
$GPRMC,125800,A,4821.4495,N,430.2988,W,10.00,228.61,190117,,*3F
$GPRMC,125800,A,4821.4451,N,430.3062,W,10.00,228.61,190117,,*3B
$GPRMC,125800,A,4821.4407,N,430.3137,W,10.00,228.61,190117,,*39
$GPRMC,125800,A,4821.4364,N,430.3212,W,10.00,228.61,190117,,*3F
$GPRMC,125800,A,4821.4320,N,430.3286,W,10.00,228.61,190117,,*32
$GPRMC,125800,A,4821.4276,N,430.3361,W,10.00,228.61,190117,,*38
$GPRMC,125800,A,4821.4232,N,430.3435,W,10.00,228.61,190117,,*3E
$GPRMC,125800,A,4821.4188,N,430.3510,W,10.00,228.61,190117,,*3A
$GPRMC,125800,A,4821.4144,N,430.3585,W,10.00,228.61,190117,,*36
$GPRMC,125800,A,4821.4100,N,430.3659,W,10.00,228.61,190117,,*34
$GPRMC,125800,A,4821.4057,N,430.3734,W,10.00,228.61,190117,,*3D
$GPRMC,125800,A,4821.4013,N,430.3809,W,10.00,228.61,190117,,*3C
$GPRMC,125800,A,4821.3969,N,430.3883,W,10.00,228.61,190117,,*3D
$GPRMC,125800,A,4821.3925,N,430.3958,W,10.00,228.61,190117,,*32
$GPRMC,125800,A,4821.3881,N,430.4032,W,10.00,228.61,190117,,*3F
$GPRMC,125800,A,4821.3837,N,430.4107,W,10.00,228.61,190117,,*35
$GPRMC,125800,A,4821.3794,N,430.4182,W,10.00,228.61,190117,,*3E
$GPRMC,125800,A,4821.3750,N,430.4256,W,10.00,228.61,190117,,*3C
$GPRMC,125800,A,4821.3706,N,430.4331,W,10.00,228.61,190117,,*3F
$GPRMC,125800,A,4821.3662,N,430.4405,W,10.00,228.61,190117,,*3C
$GPRMC,125800,A,4821.3618,N,430.4480,W,10.00,228.61,190117,,*3C
$GPRMC,125800,A,4821.3574,N,430.4555,W,10.00,228.61,190117,,*3C
$GPRMC,125800,A,4821.3530,N,430.4629,W,10.00,228.61,190117,,*34
$GPRMC,125800,A,4821.3487,N,430.4704,W,10.00,228.61,190117,,*37
$GPRMC,125800,A,4821.3443,N,430.4778,W,10.00,228.61,190117,,*34
$GPRMC,125800,A,4821.3399,N,430.4853,W,10.00,228.61,190117,,*32
$GPRMC,125800,A,4821.3355,N,430.4928,W,10.00,228.61,190117,,*3F
$GPRMC,125800,A,4821.3328,N,430.4973,W,10.00,155.12,190117,,*36
$GPRMC,125800,A,4821.3292,N,430.4948,W,10.00,155.12,190117,,*3E
$GPRMC,125800,A,4821.3255,N,430.4923,W,10.00,155.12,190117,,*38
$GPRMC,125800,A,4821.3219,N,430.4897,W,10.00,155.12,190117,,*3E
$GPRMC,125800,A,4821.3183,N,430.4872,W,10.00,155.12,190117,,*35
$GPRMC,125800,A,4821.3146,N,430.4847,W,10.00,155.12,190117,,*3A
$GPRMC,125800,A,4821.3110,N,430.4821,W,10.00,155.12,190117,,*39
$GPRMC,125800,A,4821.3074,N,430.4796,W,10.00,155.12,190117,,*39
$GPRMC,125800,A,4821.3037,N,430.4771,W,10.00,155.12,190117,,*37
$GPRMC,125800,A,4821.3001,N,430.4745,W,10.00,155.12,190117,,*35
$GPRMC,125800,A,4821.2964,N,430.4720,W,10.00,155.12,190117,,*3D
$GPRMC,125800,A,4821.2928,N,430.4695,W,10.00,155.12,190117,,*3A
$GPRMC,125800,A,4821.2892,N,430.4670,W,10.00,155.12,190117,,*31
$GPRMC,125800,A,4821.2855,N,430.4644,W,10.00,155.12,190117,,*3D
$GPRMC,125800,A,4821.2819,N,430.4619,W,10.00,155.12,190117,,*3D
$GPRMC,125800,A,4821.2783,N,430.4594,W,10.00,155.12,190117,,*37
$GPRMC,125800,A,4821.2746,N,430.4568,W,10.00,155.12,190117,,*3D
$GPRMC,125800,A,4821.2710,N,430.4543,W,10.00,155.12,190117,,*37
$GPRMC,125800,A,4821.2674,N,430.4518,W,10.00,155.12,190117,,*3A
$GPRMC,125800,A,4821.2637,N,430.4492,W,10.00,155.12,190117,,*3E
$GPRMC,125800,A,4821.2601,N,430.4467,W,10.00,155.12,190117,,*31
$GPRMC,125800,A,4821.2564,N,430.4442,W,10.00,155.12,190117,,*36
$GPRMC,125800,A,4821.2528,N,430.4417,W,10.00,155.12,190117,,*3E
$GPRMC,125800,A,4821.2492,N,430.4391,W,10.00,155.12,190117,,*37
$GPRMC,125800,A,4821.2455,N,430.4366,W,10.00,155.12,190117,,*34
$GPRMC,125800,A,4821.2419,N,430.4341,W,10.00,155.12,190117,,*39
$GPRMC,125800,A,4821.2383,N,430.4315,W,10.00,155.12,190117,,*3C
$GPRMC,125800,A,4821.2346,N,430.4290,W,10.00,155.12,190117,,*39
$GPRMC,125800,A,4821.2310,N,430.4265,W,10.00,155.12,190117,,*30
$GPRMC,125800,A,4821.2273,N,430.4239,W,10.00,155.12,190117,,*3D
$GPRMC,125800,A,4821.2237,N,430.4214,W,10.00,155.12,190117,,*32
$GPRMC,125800,A,4821.2201,N,430.4189,W,10.00,155.12,190117,,*30
$GPRMC,125800,A,4821.2164,N,430.4163,W,10.00,155.12,190117,,*34
$GPRMC,125800,A,4821.2128,N,430.4138,W,10.00,155.12,190117,,*32
$GPRMC,125800,A,4821.2092,N,430.4113,W,10.00,155.12,190117,,*3B
$GPRMC,125800,A,4821.2055,N,430.4088,W,10.00,155.12,190117,,*33
$GPRMC,125800,A,4821.2019,N,430.4062,W,10.00,155.12,190117,,*3F
$GPRMC,125800,A,4821.1982,N,430.4037,W,10.00,155.12,190117,,*37
$GPRMC,125800,A,4821.1946,N,430.4012,W,10.00,155.12,190117,,*38
$GPRMC,125800,A,4821.1910,N,430.3986,W,10.00,155.12,190117,,*38
$GPRMC,125800,A,4821.1873,N,430.3961,W,10.00,155.12,190117,,*35
$GPRMC,125800,A,4821.1837,N,430.3936,W,10.00,155.12,190117,,*37
$GPRMC,125800,A,4821.1801,N,430.3910,W,10.00,155.12,190117,,*36
$GPRMC,125800,A,4821.1764,N,430.3885,W,10.00,155.12,190117,,*37
$GPRMC,125800,A,4821.1728,N,430.3860,W,10.00,155.12,190117,,*34
$GPRMC,125800,A,4821.1691,N,430.3835,W,10.00,155.12,190117,,*37
$GPRMC,125800,A,4821.1655,N,430.3809,W,10.00,155.12,190117,,*30
$GPRMC,125800,A,4821.1619,N,430.3784,W,10.00,155.12,190117,,*32
$GPRMC,125800,A,4821.1582,N,430.3759,W,10.00,155.12,190117,,*33
$GPRMC,125800,A,4821.1546,N,430.3733,W,10.00,155.12,190117,,*37
$GPRMC,125800,A,4821.1510,N,430.3708,W,10.00,155.12,190117,,*3C
$GPRMC,125800,A,4821.1473,N,430.3683,W,10.00,155.12,190117,,*3A
$GPRMC,125800,A,4821.1437,N,430.3657,W,10.00,155.12,190117,,*33
$GPRMC,125800,A,4821.1400,N,430.3632,W,10.00,155.12,190117,,*34
$GPRMC,125800,A,4821.1364,N,430.3607,W,10.00,155.12,190117,,*37
$GPRMC,125800,A,4821.1328,N,430.3582,W,10.00,155.12,190117,,*31
$GPRMC,125800,A,4821.1291,N,430.3556,W,10.00,155.12,190117,,*3B
$GPRMC,125800,A,4821.1255,N,430.3531,W,10.00,155.12,190117,,*32
$GPRMC,125800,A,4821.1219,N,430.3506,W,10.00,155.12,190117,,*3E
$GPRMC,125800,A,4821.1182,N,430.3480,W,10.00,155.12,190117,,*30
$GPRMC,125800,A,4821.1146,N,430.3455,W,10.00,155.12,190117,,*30
$GPRMC,125800,A,4821.1109,N,430.3430,W,10.00,155.12,190117,,*38
$GPRMC,125800,A,4821.1073,N,430.3404,W,10.00,155.12,190117,,*33
$GPRMC,125800,A,4821.1037,N,430.3379,W,10.00,155.12,190117,,*3E
$GPRMC,125800,A,4821.1000,N,430.3354,W,10.00,155.12,190117,,*35
$GPRMC,125800,A,4821.0964,N,430.3329,W,10.00,155.12,190117,,*35
$GPRMC,125800,A,4821.0928,N,430.3303,W,10.00,155.12,190117,,*35
$GPRMC,125800,A,4821.0891,N,430.3278,W,10.00,155.12,190117,,*3B
$GPRMC,125800,A,4821.0855,N,430.3253,W,10.00,155.12,190117,,*3A
$GPRMC,125800,A,4821.0818,N,430.3227,W,10.00,155.12,190117,,*30
$GPRMC,125800,A,4821.0782,N,430.3202,W,10.00,155.12,190117,,*3B
$GPRMC,125800,A,4821.0746,N,430.3177,W,10.00,155.12,190117,,*32
$GPRMC,125800,A,4821.0709,N,430.3151,W,10.00,155.12,190117,,*3D
$GPRMC,125800,A,4821.0673,N,430.3126,W,10.00,155.12,190117,,*31
$GPRMC,125800,A,4821.0637,N,430.3101,W,10.00,155.12,190117,,*34
$GPRMC,125800,A,4821.0600,N,430.3075,W,10.00,155.12,190117,,*32
$GPRMC,125800,A,4821.0564,N,430.3050,W,10.00,155.12,190117,,*34
$GPRMC,125800,A,4821.0527,N,430.3025,W,10.00,155.12,190117,,*31
$GPRMC,125800,A,4821.0491,N,430.3000,W,10.00,155.12,190117,,*3A
$GPRMC,125800,A,4821.0455,N,430.2974,W,10.00,155.12,190117,,*39
$GPRMC,125800,A,4821.0418,N,430.2949,W,10.00,155.12,190117,,*3E
$GPRMC,125800,A,4821.0382,N,430.2924,W,10.00,155.12,190117,,*31
$GPRMC,125800,A,4821.0346,N,430.2898,W,10.00,155.12,190117,,*3F
$GPRMC,125800,A,4821.0309,N,430.2873,W,10.00,155.12,190117,,*31
$GPRMC,125800,A,4821.0273,N,430.2848,W,10.00,155.12,190117,,*35
$GPRMC,125800,A,4821.0236,N,430.2822,W,10.00,155.12,190117,,*38
$GPRMC,125800,A,4821.0200,N,430.2797,W,10.00,155.12,190117,,*3C
$GPRMC,125800,A,4821.0164,N,430.2772,W,10.00,155.12,190117,,*36
$GPRMC,125800,A,4821.0127,N,430.2747,W,10.00,155.12,190117,,*37
$GPRMC,125800,A,4821.0091,N,430.2721,W,10.00,155.12,190117,,*3B
$GPRMC,125800,A,4821.0055,N,430.2696,W,10.00,155.12,190117,,*3E
$GPRMC,125800,A,4821.0018,N,430.2671,W,10.00,155.12,190117,,*3E
$GPRMC,125800,A,4820.9982,N,430.2645,W,10.00,155.12,190117,,*3B
$GPRMC,125800,A,4820.9946,N,430.2620,W,10.00,155.12,190117,,*30
$GPRMC,125800,A,4820.9909,N,430.2595,W,10.00,155.12,190117,,*36
$GPRMC,125800,A,4820.9873,N,430.2569,W,10.00,155.12,190117,,*39
$GPRMC,125800,A,4820.9836,N,430.2544,W,10.00,155.12,190117,,*37
$GPRMC,125800,A,4820.9800,N,430.2519,W,10.00,155.12,190117,,*3A
$GPRMC,125800,A,4820.9764,N,430.2494,W,10.00,155.12,190117,,*33
$GPRMC,125800,A,4820.9727,N,430.2468,W,10.00,155.12,190117,,*37
$GPRMC,125800,A,4820.9691,N,430.2443,W,10.00,155.12,190117,,*32
$GPRMC,125800,A,4820.9655,N,430.2418,W,10.00,155.12,190117,,*34
$GPRMC,125800,A,4820.9618,N,430.2392,W,10.00,155.12,190117,,*38
$GPRMC,125800,A,4820.9582,N,430.2367,W,10.00,155.12,190117,,*32
$GPRMC,125800,A,4820.9545,N,430.2342,W,10.00,155.12,190117,,*3E
$GPRMC,125800,A,4820.9509,N,430.2316,W,10.00,155.12,190117,,*37
$GPRMC,125800,A,4820.9473,N,430.2291,W,10.00,155.12,190117,,*35
$GPRMC,125800,A,4820.9436,N,430.2266,W,10.00,155.12,190117,,*3C
$GPRMC,125800,A,4820.9400,N,430.2241,W,10.00,155.12,190117,,*3C
$GPRMC,125800,A,4820.9364,N,430.2215,W,10.00,155.12,190117,,*38
$GPRMC,125800,A,4820.9327,N,430.2190,W,10.00,155.12,190117,,*31
$GPRMC,125800,A,4820.9291,N,430.2165,W,10.00,155.12,190117,,*37
$GPRMC,125800,A,4820.9254,N,430.2139,W,10.00,155.12,190117,,*37
$GPRMC,125800,A,4820.9218,N,430.2114,W,10.00,155.12,190117,,*30
$GPRMC,125800,A,4820.9182,N,430.2089,W,10.00,155.12,190117,,*35
$GPRMC,125800,A,4820.9145,N,430.2064,W,10.00,155.12,190117,,*3D
$GPRMC,125800,A,4820.9109,N,430.2038,W,10.00,155.12,190117,,*3C
$GPRMC,125800,A,4820.9073,N,430.2013,W,10.00,155.12,190117,,*39
$GPRMC,125800,A,4820.9036,N,430.1988,W,10.00,155.12,190117,,*30
$GPRMC,125800,A,4820.9000,N,430.1962,W,10.00,155.12,190117,,*31
$GPRMC,125800,A,4820.8963,N,430.1937,W,10.00,155.12,190117,,*3C
$GPRMC,125800,A,4820.8927,N,430.1912,W,10.00,155.12,190117,,*3B
$GPRMC,125800,A,4820.8891,N,430.1886,W,10.00,155.12,190117,,*3B
$GPRMC,125800,A,4820.8854,N,430.1861,W,10.00,155.12,190117,,*3B
$GPRMC,125800,A,4820.8818,N,430.1836,W,10.00,155.12,190117,,*31
$GPRMC,125800,A,4820.8782,N,430.1811,W,10.00,155.12,190117,,*38
$GPRMC,125800,A,4820.8745,N,430.1785,W,10.00,155.12,190117,,*31
$GPRMC,125800,A,4820.8709,N,430.1760,W,10.00,155.12,190117,,*32
$GPRMC,125800,A,4820.8672,N,430.1735,W,10.00,155.12,190117,,*3F
$GPRMC,125800,A,4820.8636,N,430.1709,W,10.00,155.12,190117,,*30
$GPRMC,125800,A,4820.8600,N,430.1684,W,10.00,155.12,190117,,*31
$GPRMC,125800,A,4820.8563,N,430.1659,W,10.00,155.12,190117,,*37
$GPRMC,125800,A,4820.8527,N,430.1633,W,10.00,155.12,190117,,*3B
$GPRMC,125800,A,4820.8491,N,430.1608,W,10.00,155.12,190117,,*3F
$GPRMC,125800,A,4820.8454,N,430.1583,W,10.00,155.12,190117,,*36
$GPRMC,125800,A,4820.8418,N,430.1558,W,10.00,155.12,190117,,*38
$GPRMC,125800,A,4820.8381,N,430.1532,W,10.00,155.12,190117,,*33
$GPRMC,125800,A,4820.8345,N,430.1507,W,10.00,155.12,190117,,*3D
$GPRMC,125800,A,4820.8309,N,430.1482,W,10.00,155.12,190117,,*39
$GPRMC,125800,A,4820.8272,N,430.1456,W,10.00,155.12,190117,,*3D
$GPRMC,125800,A,4820.8236,N,430.1431,W,10.00,155.12,190117,,*3C
$GPRMC,125800,A,4820.8200,N,430.1406,W,10.00,155.12,190117,,*3D
$GPRMC,125800,A,4820.8163,N,430.1380,W,10.00,155.12,190117,,*32
$GPRMC,125800,A,4820.8127,N,430.1355,W,10.00,155.12,190117,,*3A
$GPRMC,125800,A,4820.8090,N,430.1330,W,10.00,155.12,190117,,*34
$GPRMC,125800,A,4820.8054,N,430.1305,W,10.00,155.12,190117,,*3A
$GPRMC,125800,A,4820.8018,N,430.1279,W,10.00,155.12,190117,,*38
$GPRMC,125800,A,4820.7981,N,430.1254,W,10.00,155.12,190117,,*31
$GPRMC,125800,A,4820.7945,N,430.1229,W,10.00,155.12,190117,,*33
$GPRMC,125800,A,4820.7909,N,430.1203,W,10.00,155.12,190117,,*33
$GPRMC,125800,A,4820.7872,N,430.1178,W,10.00,155.12,190117,,*31
$GPRMC,125800,A,4820.7836,N,430.1153,W,10.00,155.12,190117,,*38
$GPRMC,125800,A,4820.7799,N,430.1128,W,10.00,155.12,190117,,*3E
$GPRMC,125800,A,4820.7763,N,430.1102,W,10.00,155.12,190117,,*33
$GPRMC,125800,A,4820.7727,N,430.1077,W,10.00,155.12,190117,,*30
$GPRMC,125800,A,4820.7690,N,430.1052,W,10.00,155.12,190117,,*3A
$GPRMC,125800,A,4820.7654,N,430.1026,W,10.00,155.12,190117,,*31
$GPRMC,125800,A,4820.7618,N,430.1001,W,10.00,155.12,190117,,*3C
$GPRMC,125800,A,4820.7581,N,430.0976,W,10.00,155.12,190117,,*37
$GPRMC,125800,A,4820.7545,N,430.0950,W,10.00,155.12,190117,,*3B
$GPRMC,125800,A,4820.7508,N,430.0925,W,10.00,155.12,190117,,*30
$GPRMC,125800,A,4820.7472,N,430.0900,W,10.00,155.12,190117,,*3B
$GPRMC,125800,A,4820.7436,N,430.0875,W,10.00,155.12,190117,,*38
$GPRMC,125800,A,4820.7399,N,430.0849,W,10.00,155.12,190117,,*35
$GPRMC,125800,A,4820.7363,N,430.0824,W,10.00,155.12,190117,,*3B
$GPRMC,125800,A,4820.7327,N,430.0799,W,10.00,155.12,190117,,*32
$GPRMC,125800,A,4820.7290,N,430.0773,W,10.00,155.12,190117,,*3B
$GPRMC,125800,A,4820.7254,N,430.0748,W,10.00,155.12,190117,,*3B
$GPRMC,125800,A,4820.7217,N,430.0723,W,10.00,155.12,190117,,*31
$GPRMC,125800,A,4820.7181,N,430.0697,W,10.00,155.12,190117,,*33
$GPRMC,125800,A,4820.7145,N,430.0672,W,10.00,155.12,190117,,*30
$GPRMC,125800,A,4820.7108,N,430.0647,W,10.00,155.12,190117,,*3F
$GPRMC,125800,A,4820.7072,N,430.0622,W,10.00,155.12,190117,,*30
$GPRMC,125800,A,4820.7036,N,430.0596,W,10.00,155.12,190117,,*3C
$GPRMC,125800,A,4820.6999,N,430.0571,W,10.00,155.12,190117,,*38
$GPRMC,125800,A,4820.6963,N,430.0546,W,10.00,155.12,190117,,*39
$GPRMC,125800,A,4820.6926,N,430.0520,W,10.00,155.12,190117,,*38
$GPRMC,125800,A,4820.6890,N,430.0495,W,10.00,155.12,190117,,*3B
$GPRMC,125800,A,4820.6854,N,430.0470,W,10.00,155.12,190117,,*38
$GPRMC,125800,A,4820.6817,N,430.0445,W,10.00,155.12,190117,,*39
$GPRMC,125800,A,4820.6781,N,430.0419,W,10.00,155.12,190117,,*30
$GPRMC,125800,A,4820.6745,N,430.0394,W,10.00,155.12,190117,,*3A
$GPRMC,125800,A,4820.6708,N,430.0369,W,10.00,155.12,190117,,*31
$GPRMC,125800,A,4820.6672,N,430.0343,W,10.00,155.12,190117,,*35
$GPRMC,125800,A,4820.6635,N,430.0318,W,10.00,155.12,190117,,*38
$GPRMC,125800,A,4820.6599,N,430.0293,W,10.00,155.12,190117,,*3F
$GPRMC,125800,A,4820.6563,N,430.0267,W,10.00,155.12,190117,,*31
$GPRMC,125800,A,4820.6526,N,430.0242,W,10.00,155.12,190117,,*37
$GPRMC,125800,A,4820.6490,N,430.0217,W,10.00,155.12,190117,,*3B
$GPRMC,125800,A,4820.6454,N,430.0192,W,10.00,155.12,190117,,*3D
$GPRMC,125800,A,4820.6417,N,430.0166,W,10.00,155.12,190117,,*31
$GPRMC,125800,A,4820.6381,N,430.0141,W,10.00,155.12,190117,,*3C
$GPRMC,125800,A,4820.6344,N,430.0116,W,10.00,155.12,190117,,*37
$GPRMC,125800,A,4820.6308,N,430.0090,W,10.00,155.12,190117,,*30
$GPRMC,125800,A,4820.6272,N,430.0065,W,10.00,155.12,190117,,*36
$GPRMC,125800,A,4820.6235,N,430.0040,W,10.00,155.12,190117,,*32
$GPRMC,125800,A,4820.6199,N,430.0015,W,10.00,155.12,190117,,*37
$GPRMC,125800,A,4820.6163,N,429.9989,W,10.00,155.12,190117,,*3F
$GPRMC,125800,A,4820.6126,N,429.9964,W,10.00,155.12,190117,,*3D
$GPRMC,125800,A,4820.6090,N,429.9939,W,10.00,155.12,190117,,*39
$GPRMC,125800,A,4820.6053,N,429.9913,W,10.00,155.12,190117,,*3E
$GPRMC,125800,A,4820.6017,N,429.9888,W,10.00,155.12,190117,,*3D
$GPRMC,125800,A,4820.5981,N,429.9863,W,10.00,155.12,190117,,*3D
$GPRMC,125800,A,4820.5944,N,429.9837,W,10.00,155.12,190117,,*35
$GPRMC,125800,A,4820.5908,N,429.9812,W,10.00,155.12,190117,,*3A
$GPRMC,125800,A,4820.5872,N,429.9787,W,10.00,155.12,190117,,*35
$GPRMC,125800,A,4820.5835,N,429.9762,W,10.00,155.12,190117,,*3D
$GPRMC,125800,A,4820.5799,N,429.9736,W,10.00,155.12,190117,,*35
$GPRMC,125800,A,4820.5762,N,429.9711,W,10.00,155.12,190117,,*34
$GPRMC,125800,A,4820.5726,N,429.9686,W,10.00,155.12,190117,,*3B
$GPRMC,125800,A,4820.5690,N,429.9660,W,10.00,155.12,190117,,*3F
$GPRMC,125800,A,4820.5653,N,429.9635,W,10.00,155.12,190117,,*30
$GPRMC,125800,A,4820.5617,N,429.9610,W,10.00,155.12,190117,,*37
$GPRMC,125800,A,4820.5581,N,429.9585,W,10.00,155.12,190117,,*34
$GPRMC,125800,A,4820.5544,N,429.9559,W,10.00,155.12,190117,,*3C
$GPRMC,125800,A,4820.5508,N,429.9534,W,10.00,155.12,190117,,*3F
$GPRMC,125800,A,4820.5471,N,429.9509,W,10.00,155.12,190117,,*3E
$GPRMC,125800,A,4820.5435,N,429.9483,W,10.00,155.12,190117,,*3D
$GPRMC,125800,A,4820.5399,N,429.9458,W,10.00,155.12,190117,,*3A
$GPRMC,125800,A,4820.5362,N,429.9433,W,10.00,155.12,190117,,*33
$GPRMC,125800,A,4820.5326,N,429.9407,W,10.00,155.12,190117,,*34
$GPRMC,125800,A,4820.5290,N,429.9382,W,10.00,155.12,190117,,*32
$GPRMC,125800,A,4820.5253,N,429.9357,W,10.00,155.12,190117,,*35
$GPRMC,125800,A,4820.5217,N,429.9332,W,10.00,155.12,190117,,*36
$GPRMC,125800,A,4820.5180,N,429.9306,W,10.00,155.12,190117,,*3C
$GPRMC,125800,A,4820.5144,N,429.9281,W,10.00,155.12,190117,,*3A
$GPRMC,125800,A,4820.5108,N,429.9256,W,10.00,155.12,190117,,*38
$GPRMC,125800,A,4820.5071,N,429.9230,W,10.00,155.12,190117,,*37
$GPRMC,125800,A,4820.5035,N,429.9205,W,10.00,155.12,190117,,*31
$GPRMC,125800,A,4820.4999,N,429.9180,W,10.00,155.12,190117,,*31
$GPRMC,125800,A,4820.4962,N,429.9155,W,10.00,155.12,190117,,*3D
$GPRMC,125800,A,4820.4926,N,429.9129,W,10.00,155.12,190117,,*36
$GPRMC,125800,A,4820.4889,N,429.9104,W,10.00,155.12,190117,,*3D
$GPRMC,125800,A,4820.4853,N,429.9079,W,10.00,155.12,190117,,*31
$GPRMC,125800,A,4820.4817,N,429.9053,W,10.00,155.12,190117,,*39
$GPRMC,125800,A,4820.4780,N,429.9028,W,10.00,155.12,190117,,*34
$GPRMC,125800,A,4820.4744,N,429.9003,W,10.00,155.12,190117,,*35
$GPRMC,125800,A,4820.4708,N,429.8978,W,10.00,155.12,190117,,*39
$GPRMC,125800,A,4820.4671,N,429.8952,W,10.00,155.12,190117,,*3E
$GPRMC,125800,A,4820.4635,N,429.8927,W,10.00,155.12,190117,,*3C
$GPRMC,125800,A,4820.4598,N,429.8902,W,10.00,155.12,190117,,*3F
$GPRMC,125800,A,4820.4562,N,429.8876,W,10.00,155.12,190117,,*38
$GPRMC,125800,A,4820.4526,N,429.8851,W,10.00,155.12,190117,,*3D
$GPRMC,125800,A,4820.4489,N,429.8826,W,10.00,155.12,190117,,*39
$GPRMC,125800,A,4820.4453,N,429.8800,W,10.00,155.12,190117,,*3A
$GPRMC,125800,A,4820.4417,N,429.8775,W,10.00,155.12,190117,,*37
$GPRMC,125800,A,4820.4380,N,429.8750,W,10.00,155.12,190117,,*39
$GPRMC,125800,A,4820.4344,N,429.8725,W,10.00,155.12,190117,,*33
$GPRMC,125800,A,4820.4307,N,429.8699,W,10.00,155.12,190117,,*32
$GPRMC,125800,A,4820.4271,N,429.8674,W,10.00,155.12,190117,,*31
$GPRMC,125800,A,4820.4235,N,429.8649,W,10.00,155.12,190117,,*3F
$GPRMC,125800,A,4820.4198,N,429.8623,W,10.00,155.12,190117,,*37
$GPRMC,125800,A,4820.4162,N,429.8598,W,10.00,155.12,190117,,*31
$GPRMC,125800,A,4820.4126,N,429.8573,W,10.00,155.12,190117,,*34
$GPRMC,125800,A,4820.4089,N,429.8548,W,10.00,155.12,190117,,*38
$GPRMC,125800,A,4820.4053,N,429.8522,W,10.00,155.12,190117,,*33
$GPRMC,125800,A,4820.4016,N,429.8497,W,10.00,155.12,190117,,*3D
$GPRMC,125800,A,4820.3980,N,429.8472,W,10.00,155.12,190117,,*37
$GPRMC,125800,A,4820.3944,N,429.8446,W,10.00,155.12,190117,,*38
$GPRMC,125800,A,4820.3907,N,429.8421,W,10.00,155.12,190117,,*3E
$GPRMC,125800,A,4820.3871,N,429.8396,W,10.00,155.12,190117,,*35
$GPRMC,125800,A,4820.3835,N,429.8371,W,10.00,155.12,190117,,*3C
$GPRMC,125800,A,4820.3798,N,429.8345,W,10.00,155.12,190117,,*33
$GPRMC,125800,A,4820.3762,N,429.8320,W,10.00,155.12,190117,,*35
$GPRMC,125800,A,4820.3725,N,429.8295,W,10.00,155.12,190117,,*39
$GPRMC,125800,A,4820.3689,N,429.8269,W,10.00,155.12,190117,,*3D
$GPRMC,125800,A,4820.3653,N,429.8244,W,10.00,155.12,190117,,*35
$GPRMC,125800,A,4820.3616,N,429.8219,W,10.00,155.12,190117,,*3C
$GPRMC,125800,A,4820.3580,N,429.8194,W,10.00,155.12,190117,,*36
$GPRMC,125800,A,4820.3544,N,429.8168,W,10.00,155.12,190117,,*3D
$GPRMC,125800,A,4820.3507,N,429.8143,W,10.00,155.12,190117,,*33
$GPRMC,125800,A,4820.3471,N,429.8118,W,10.00,155.12,190117,,*3D
$GPRMC,125800,A,4820.3434,N,429.8092,W,10.00,155.12,190117,,*3F
$GPRMC,125800,A,4820.3398,N,429.8067,W,10.00,155.12,190117,,*34
$GPRMC,125800,A,4820.3362,N,429.8042,W,10.00,155.12,190117,,*36
$GPRMC,125800,A,4820.3325,N,429.8017,W,10.00,155.12,190117,,*35
$GPRMC,125800,A,4820.3289,N,429.7991,W,10.00,155.12,190117,,*3A
$GPRMC,125800,A,4820.3253,N,429.7966,W,10.00,155.12,190117,,*35
$GPRMC,125800,A,4820.3216,N,429.7941,W,10.00,155.12,190117,,*31
$GPRMC,125800,A,4820.3180,N,429.7915,W,10.00,155.12,190117,,*3C
$GPRMC,125800,A,4820.3143,N,429.7890,W,10.00,155.12,190117,,*3F
$GPRMC,125800,A,4820.3107,N,429.7865,W,10.00,155.12,190117,,*35
$GPRMC,125800,A,4820.3071,N,429.7839,W,10.00,155.12,190117,,*3C
$GPRMC,125800,A,4820.3034,N,429.7814,W,10.00,155.12,190117,,*32
$GPRMC,125800,A,4820.2998,N,429.7789,W,10.00,155.12,190117,,*37
$GPRMC,125800,A,4820.2962,N,429.7764,W,10.00,155.12,190117,,*31
$GPRMC,125800,A,4820.2925,N,429.7738,W,10.00,155.12,190117,,*3B
$GPRMC,125800,A,4820.2889,N,429.7713,W,10.00,155.12,190117,,*35
$GPRMC,125800,A,4820.2852,N,429.7688,W,10.00,155.12,190117,,*30
$GPRMC,125800,A,4820.2816,N,429.7662,W,10.00,155.12,190117,,*34
$GPRMC,125800,A,4820.2780,N,429.7637,W,10.00,155.12,190117,,*34
$GPRMC,125800,A,4820.2743,N,429.7612,W,10.00,155.12,190117,,*3C
$GPRMC,125800,A,4820.2707,N,429.7587,W,10.00,155.12,190117,,*33
$GPRMC,125800,A,4820.2671,N,429.7561,W,10.00,155.12,190117,,*3B
$GPRMC,125800,A,4820.2634,N,429.7536,W,10.00,155.12,190117,,*38
$GPRMC,125800,A,4820.2598,N,429.7511,W,10.00,155.12,190117,,*38
$GPRMC,125800,A,4820.2561,N,429.7485,W,10.00,155.12,190117,,*32
$GPRMC,125800,A,4820.2525,N,429.7460,W,10.00,155.12,190117,,*39
$GPRMC,125800,A,4820.2489,N,429.7435,W,10.00,155.12,190117,,*3E
$GPRMC,125800,A,4820.2452,N,429.7410,W,10.00,155.12,190117,,*3F
$GPRMC,125800,A,4820.2416,N,429.7384,W,10.00,155.12,190117,,*35
$GPRMC,125800,A,4820.2380,N,429.7359,W,10.00,155.12,190117,,*3D
$GPRMC,125800,A,4820.2343,N,429.7334,W,10.00,155.12,190117,,*39
$GPRMC,125800,A,4820.2307,N,429.7308,W,10.00,155.12,190117,,*36
$GPRMC,125800,A,4820.2270,N,429.7283,W,10.00,155.12,190117,,*35
$GPRMC,125800,A,4820.2234,N,429.7258,W,10.00,155.12,190117,,*33
$GPRMC,125800,A,4820.2198,N,429.7233,W,10.00,155.12,190117,,*3B
$GPRMC,125800,A,4820.2161,N,429.7207,W,10.00,155.12,190117,,*3A
$GPRMC,125800,A,4820.2125,N,429.7182,W,10.00,155.12,190117,,*34
$GPRMC,125800,A,4820.2089,N,429.7157,W,10.00,155.12,190117,,*3B
$GPRMC,125800,A,4820.2052,N,429.7131,W,10.00,155.12,190117,,*3D
$GPRMC,125800,A,4820.2016,N,429.7106,W,10.00,155.12,190117,,*39
$GPRMC,125800,A,4820.1979,N,429.7081,W,10.00,155.12,190117,,*34
$GPRMC,125800,A,4820.1943,N,429.7056,W,10.00,155.12,190117,,*37
$GPRMC,125800,A,4820.1907,N,429.7030,W,10.00,155.12,190117,,*37
$GPRMC,125800,A,4820.1870,N,429.7005,W,10.00,155.12,190117,,*30
$GPRMC,125800,A,4820.1834,N,429.6980,W,10.00,155.12,190117,,*35
$GPRMC,125800,A,4820.1798,N,429.6954,W,10.00,155.12,190117,,*35
$GPRMC,125800,A,4820.1761,N,429.6929,W,10.00,155.12,190117,,*39
$GPRMC,125800,A,4820.1725,N,429.6904,W,10.00,155.12,190117,,*36
$GPRMC,125800,A,4820.1688,N,429.6879,W,10.00,155.12,190117,,*3B
$GPRMC,125800,A,4820.1652,N,429.6853,W,10.00,155.12,190117,,*34
$GPRMC,125800,A,4820.1616,N,429.6828,W,10.00,155.12,190117,,*38
$GPRMC,125800,A,4820.1579,N,429.6803,W,10.00,155.12,190117,,*3B
$GPRMC,125800,A,4820.1543,N,429.6777,W,10.00,155.12,190117,,*3E
$GPRMC,125800,A,4820.1507,N,429.6752,W,10.00,155.12,190117,,*39
$GPRMC,125800,A,4820.1470,N,429.6727,W,10.00,155.12,190117,,*3A
$GPRMC,125800,A,4820.1434,N,429.6702,W,10.00,155.12,190117,,*3D
$GPRMC,125800,A,4820.1397,N,429.6676,W,10.00,155.12,190117,,*31
$GPRMC,125800,A,4820.1361,N,429.6651,W,10.00,155.12,190117,,*3D
$GPRMC,125800,A,4820.1325,N,429.6626,W,10.00,155.12,190117,,*3D
$GPRMC,125800,A,4820.1288,N,429.6600,W,10.00,155.12,190117,,*3F
$GPRMC,125800,A,4820.1252,N,429.6575,W,10.00,155.12,190117,,*39
$GPRMC,125800,A,4820.1216,N,429.6550,W,10.00,155.12,190117,,*3E
$GPRMC,125800,A,4820.1179,N,429.6525,W,10.00,155.12,190117,,*36
$GPRMC,125800,A,4820.1143,N,429.6499,W,10.00,155.12,190117,,*39
$GPRMC,125800,A,4820.1106,N,429.6474,W,10.00,155.12,190117,,*3B
$GPRMC,125800,A,4820.1070,N,429.6449,W,10.00,155.12,190117,,*35
$GPRMC,125800,A,4820.1034,N,429.6423,W,10.00,155.12,190117,,*39
$GPRMC,125800,A,4820.0997,N,429.6398,W,10.00,155.12,190117,,*3F
$GPRMC,125800,A,4820.0961,N,429.6373,W,10.00,155.12,190117,,*33
$GPRMC,125800,A,4820.0925,N,429.6348,W,10.00,155.12,190117,,*3B
$GPRMC,125800,A,4820.0888,N,429.6322,W,10.00,155.12,190117,,*31
$GPRMC,125800,A,4820.0852,N,429.6297,W,10.00,155.12,190117,,*39
$GPRMC,125800,A,4820.0815,N,429.6272,W,10.00,155.12,190117,,*31
$GPRMC,125800,A,4820.0779,N,429.6246,W,10.00,155.12,190117,,*33
$GPRMC,125800,A,4820.0743,N,429.6221,W,10.00,155.12,190117,,*3B
$GPRMC,125800,A,4820.0706,N,429.6196,W,10.00,155.12,190117,,*35
$GPRMC,125800,A,4820.0670,N,429.6171,W,10.00,155.12,190117,,*3C
$GPRMC,125800,A,4820.0634,N,429.6145,W,10.00,155.12,190117,,*3B
$GPRMC,125800,A,4820.0597,N,429.6120,W,10.00,155.12,190117,,*32
$GPRMC,125800,A,4820.0561,N,429.6095,W,10.00,155.12,190117,,*34
$GPRMC,125800,A,4820.0524,N,429.6069,W,10.00,155.12,190117,,*36
$GPRMC,125800,A,4820.0488,N,429.6044,W,10.00,155.12,190117,,*3E
$GPRMC,125800,A,4820.0452,N,429.6019,W,10.00,155.12,190117,,*31
$GPRMC,125800,A,4820.0415,N,429.5994,W,10.00,155.12,190117,,*3D
$GPRMC,125800,A,4820.0379,N,429.5968,W,10.00,155.12,190117,,*33
$GPRMC,125800,A,4820.0343,N,429.5943,W,10.00,155.12,190117,,*33
$GPRMC,125800,A,4820.0306,N,429.5918,W,10.00,155.12,190117,,*3C
$GPRMC,125800,A,4820.0270,N,429.5892,W,10.00,155.12,190117,,*3F
$GPRMC,125800,A,4820.0233,N,429.5867,W,10.00,155.12,190117,,*32
$GPRMC,125800,A,4820.0197,N,429.5842,W,10.00,155.12,190117,,*38
$GPRMC,125800,A,4820.0161,N,429.5817,W,10.00,155.12,190117,,*31
$GPRMC,125800,A,4820.0124,N,429.5791,W,10.00,155.12,190117,,*31
$GPRMC,125800,A,4820.0088,N,429.5766,W,10.00,155.12,190117,,*3E
$GPRMC,125800,A,4820.0051,N,429.5741,W,10.00,155.12,190117,,*3F
$GPRMC,125800,A,4820.0015,N,429.5715,W,10.00,155.12,190117,,*3E
$GPRMC,125800,A,4819.9979,N,429.5690,W,10.00,155.12,190117,,*32
$GPRMC,125800,A,4819.9942,N,429.5665,W,10.00,155.12,190117,,*30
$GPRMC,125800,A,4819.9906,N,429.5640,W,10.00,155.12,190117,,*37
$GPRMC,125800,A,4819.9870,N,429.5614,W,10.00,155.12,190117,,*36
$GPRMC,125800,A,4819.9833,N,429.5589,W,10.00,155.12,190117,,*36
$GPRMC,125800,A,4819.9797,N,429.5564,W,10.00,155.12,190117,,*34
$GPRMC,125800,A,4819.9760,N,429.5538,W,10.00,155.12,190117,,*35
$GPRMC,125800,A,4819.9724,N,429.5513,W,10.00,155.12,190117,,*3C
$GPRMC,125800,A,4819.9688,N,429.5488,W,10.00,155.12,190117,,*38
$GPRMC,125800,A,4819.9651,N,429.5463,W,10.00,155.12,190117,,*39
$GPRMC,125800,A,4819.9615,N,429.5437,W,10.00,155.12,190117,,*38
$GPRMC,125800,A,4819.9579,N,429.5412,W,10.00,155.12,190117,,*36
$GPRMC,125800,A,4819.9542,N,429.5387,W,10.00,155.12,190117,,*35
$GPRMC,125800,A,4819.9506,N,429.5362,W,10.00,155.12,190117,,*3E
$GPRMC,125800,A,4819.9469,N,429.5336,W,10.00,155.12,190117,,*37
$GPRMC,125800,A,4819.9433,N,429.5311,W,10.00,155.12,190117,,*3D
$GPRMC,125800,A,4819.9397,N,429.5286,W,10.00,155.12,190117,,*3B
$GPRMC,125800,A,4819.9360,N,429.5260,W,10.00,155.12,190117,,*3B
$GPRMC,125800,A,4819.9324,N,429.5235,W,10.00,155.12,190117,,*3B
$GPRMC,125800,A,4819.9288,N,429.5210,W,10.00,155.12,190117,,*3B
$GPRMC,125800,A,4819.9251,N,429.5185,W,10.00,155.12,190117,,*30
$GPRMC,125800,A,4819.9215,N,429.5159,W,10.00,155.12,190117,,*31
$GPRMC,125800,A,4819.9178,N,429.5134,W,10.00,155.12,190117,,*32
$GPRMC,125800,A,4819.9142,N,429.5109,W,10.00,155.12,190117,,*35
$GPRMC,125800,A,4819.9106,N,429.5083,W,10.00,155.12,190117,,*36
$GPRMC,125800,A,4819.9069,N,429.5058,W,10.00,155.12,190117,,*38
$GPRMC,125800,A,4819.9033,N,429.5033,W,10.00,155.12,190117,,*3A
$GPRMC,125800,A,4819.8997,N,429.5008,W,10.00,155.12,190117,,*34
$GPRMC,125800,A,4819.8960,N,429.4982,W,10.00,155.12,190117,,*36
$GPRMC,125800,A,4819.8924,N,429.4957,W,10.00,155.12,190117,,*3E
$GPRMC,125800,A,4819.8887,N,429.4932,W,10.00,155.12,190117,,*35
$GPRMC,125800,A,4819.8851,N,429.4906,W,10.00,155.12,190117,,*39
$GPRMC,125800,A,4819.8815,N,429.4881,W,10.00,155.12,190117,,*37
$GPRMC,125800,A,4819.8778,N,429.4856,W,10.00,155.12,190117,,*39
$GPRMC,125800,A,4819.8742,N,429.4831,W,10.00,155.12,190117,,*31
$GPRMC,125800,A,4819.8706,N,429.4805,W,10.00,155.12,190117,,*36
$GPRMC,125800,A,4819.8669,N,429.4780,W,10.00,155.12,190117,,*3C
$GPRMC,125800,A,4819.8633,N,429.4755,W,10.00,155.12,190117,,*3B
$GPRMC,125800,A,4819.8596,N,429.4729,W,10.00,155.12,190117,,*3C
$GPRMC,125800,A,4819.8560,N,429.4704,W,10.00,155.12,190117,,*3A
$GPRMC,125800,A,4819.8524,N,429.4679,W,10.00,155.12,190117,,*31
$GPRMC,125800,A,4819.8487,N,429.4654,W,10.00,155.12,190117,,*36
$GPRMC,125800,A,4819.8451,N,429.4628,W,10.00,155.12,190117,,*36
$GPRMC,125800,A,4819.8415,N,429.4603,W,10.00,155.12,190117,,*3F
$GPRMC,125800,A,4819.8378,N,429.4578,W,10.00,155.12,190117,,*3C
$GPRMC,125800,A,4819.8342,N,429.4552,W,10.00,155.12,190117,,*3D
$GPRMC,125800,A,4819.8305,N,429.4527,W,10.00,155.12,190117,,*3C
$GPRMC,125800,A,4819.8269,N,429.4502,W,10.00,155.12,190117,,*30
$GPRMC,125800,A,4819.8233,N,429.4477,W,10.00,155.12,190117,,*3C
$GPRMC,125800,A,4819.8196,N,429.4451,W,10.00,155.12,190117,,*34
$GPRMC,125800,A,4819.8160,N,429.4426,W,10.00,155.12,190117,,*3D
$GPRMC,125800,A,4819.8124,N,429.4401,W,10.00,155.12,190117,,*38
$GPRMC,125800,A,4819.8087,N,429.4376,W,10.00,155.12,190117,,*37
$GPRMC,125800,A,4819.8051,N,429.4350,W,10.00,155.12,190117,,*38
$GPRMC,125800,A,4819.8014,N,429.4325,W,10.00,155.12,190117,,*3B
$GPRMC,125800,A,4819.7978,N,429.4300,W,10.00,155.12,190117,,*30
$GPRMC,125800,A,4819.7942,N,429.4274,W,10.00,155.12,190117,,*3B
$GPRMC,125800,A,4819.7905,N,429.4249,W,10.00,155.12,190117,,*36
$GPRMC,125800,A,4819.7869,N,429.4224,W,10.00,155.12,190117,,*36
$GPRMC,125800,A,4819.7833,N,429.4199,W,10.00,155.12,190117,,*3C
$GPRMC,125800,A,4819.7796,N,429.4173,W,10.00,155.12,190117,,*38
$GPRMC,125800,A,4819.7760,N,429.4148,W,10.00,155.12,190117,,*39
$GPRMC,125800,A,4819.7723,N,429.4123,W,10.00,155.12,190117,,*33
$GPRMC,125800,A,4819.7687,N,429.4097,W,10.00,155.12,190117,,*32
$GPRMC,125800,A,4819.7651,N,429.4072,W,10.00,155.12,190117,,*32
$GPRMC,125800,A,4819.7614,N,429.4047,W,10.00,155.12,190117,,*35
$GPRMC,125800,A,4819.7578,N,429.4022,W,10.00,155.12,190117,,*3F
$GPRMC,125800,A,4819.7542,N,429.3996,W,10.00,155.12,190117,,*37
$GPRMC,125800,A,4819.7505,N,429.3971,W,10.00,155.12,190117,,*3D
$GPRMC,125800,A,4819.7469,N,429.3946,W,10.00,155.12,190117,,*32
$GPRMC,125800,A,4819.7432,N,429.3920,W,10.00,155.12,190117,,*3C
$GPRMC,125800,A,4819.7396,N,429.3895,W,10.00,155.12,190117,,*3A
$GPRMC,125800,A,4819.7360,N,429.3870,W,10.00,155.12,190117,,*38
$GPRMC,125800,A,4819.7323,N,429.3845,W,10.00,155.12,190117,,*39
$GPRMC,125800,A,4819.7287,N,429.3819,W,10.00,155.12,190117,,*3F
$GPRMC,125800,A,4819.7250,N,429.3794,W,10.00,155.12,190117,,*3F
$GPRMC,125800,A,4819.7214,N,429.3769,W,10.00,155.12,190117,,*3D
$GPRMC,125800,A,4819.7178,N,429.3744,W,10.00,155.12,190117,,*3B
$GPRMC,125800,A,4819.7141,N,429.3718,W,10.00,155.12,190117,,*38
$GPRMC,125800,A,4819.7105,N,429.3693,W,10.00,155.12,190117,,*3A
$GPRMC,125800,A,4819.7069,N,429.3668,W,10.00,155.12,190117,,*35
$GPRMC,125800,A,4819.7032,N,429.3642,W,10.00,155.12,190117,,*33
$GPRMC,125800,A,4819.6996,N,429.3617,W,10.00,155.12,190117,,*35
$GPRMC,125800,A,4819.6959,N,429.3592,W,10.00,155.12,190117,,*38
$GPRMC,125800,A,4819.6923,N,429.3567,W,10.00,155.12,190117,,*3F
$GPRMC,125800,A,4819.6887,N,429.3541,W,10.00,155.12,190117,,*34
$GPRMC,125800,A,4819.6857,N,429.3521,W,10.00,143.92,190117,,*30
$GPRMC,125800,A,4819.6725,N,429.3376,W,10.00,143.92,190117,,*3E
$GPRMC,125800,A,4819.6593,N,429.3232,W,10.00,143.92,190117,,*30
$GPRMC,125800,A,4819.6460,N,429.3087,W,10.00,143.92,190117,,*31
$GPRMC,125800,A,4819.6328,N,429.2943,W,10.00,143.92,190117,,*3A
$GPRMC,125800,A,4819.6196,N,429.2798,W,10.00,143.92,190117,,*35
$GPRMC,125800,A,4819.6064,N,429.2654,W,10.00,143.92,190117,,*38
$GPRMC,125800,A,4819.5931,N,429.2509,W,10.00,143.92,190117,,*39
$GPRMC,125800,A,4819.5799,N,429.2364,W,10.00,143.92,190117,,*38
$GPRMC,125800,A,4819.5667,N,429.2220,W,10.00,143.92,190117,,*39
$GPRMC,125800,A,4819.5535,N,429.2075,W,10.00,143.92,190117,,*3F
$GPRMC,125800,A,4819.5402,N,429.1931,W,10.00,143.92,190117,,*30
$GPRMC,125800,A,4819.5270,N,429.1786,W,10.00,143.92,190117,,*31
$GPRMC,125800,A,4819.5138,N,429.1642,W,10.00,143.92,190117,,*37
$GPRMC,125800,A,4819.5006,N,429.1497,W,10.00,143.92,190117,,*31
$GPRMC,125800,A,4819.4873,N,429.1353,W,10.00,143.92,190117,,*35
$GPRMC,125800,A,4819.4741,N,429.1208,W,10.00,143.92,190117,,*34
$GPRMC,125800,A,4819.4609,N,429.1064,W,10.00,143.92,190117,,*31
$GPRMC,125800,A,4819.4477,N,429.0919,W,10.00,143.92,190117,,*38
$GPRMC,125800,A,4819.4344,N,429.0775,W,10.00,143.92,190117,,*3B
$GPRMC,125800,A,4819.4212,N,429.0630,W,10.00,143.92,190117,,*39
$GPRMC,125800,A,4819.4080,N,429.0486,W,10.00,143.92,190117,,*3F
$GPRMC,125800,A,4819.3948,N,429.0341,W,10.00,143.92,190117,,*39
$GPRMC,125800,A,4819.3815,N,429.0197,W,10.00,143.92,190117,,*39
$GPRMC,125800,A,4819.3683,N,429.0052,W,10.00,143.92,190117,,*30
$GPRMC,125800,A,4819.3551,N,428.9908,W,10.00,143.92,190117,,*32
$GPRMC,125800,A,4819.3419,N,428.9763,W,10.00,143.92,190117,,*3C
$GPRMC,125800,A,4819.3286,N,428.9619,W,10.00,143.92,190117,,*30
$GPRMC,125800,A,4819.3262,N,428.9592,W,10.00,45.60,190117,,*00
$GPRMC,125800,A,4819.3361,N,428.9441,W,10.00,45.60,190117,,*0D
$GPRMC,125800,A,4819.3461,N,428.9289,W,10.00,45.60,190117,,*08
$GPRMC,125800,A,4819.3560,N,428.9137,W,10.00,45.60,190117,,*0E
$GPRMC,125800,A,4819.3659,N,428.8985,W,10.00,45.60,190117,,*07
$GPRMC,125800,A,4819.3758,N,428.8833,W,10.00,45.60,190117,,*0B
$GPRMC,125800,A,4819.3857,N,428.8681,W,10.00,45.60,190117,,*0C
$GPRMC,125800,A,4819.3956,N,428.8529,W,10.00,45.60,190117,,*0D
$GPRMC,125800,A,4819.4055,N,428.8378,W,10.00,45.60,190117,,*02
$GPRMC,125800,A,4819.4155,N,428.8226,W,10.00,45.60,190117,,*09
$GPRMC,125800,A,4819.4254,N,428.8074,W,10.00,45.60,190117,,*0E
$GPRMC,125800,A,4819.4353,N,428.7922,W,10.00,45.60,190117,,*0D
$GPRMC,125800,A,4819.4452,N,428.7770,W,10.00,45.60,190117,,*02
$GPRMC,125800,A,4819.4551,N,428.7618,W,10.00,45.60,190117,,*0F
$GPRMC,125800,A,4819.4650,N,428.7466,W,10.00,45.60,190117,,*06
$GPRMC,125800,A,4819.4750,N,428.7315,W,10.00,45.60,190117,,*04
$GPRMC,125800,A,4819.4849,N,428.7163,W,10.00,45.60,190117,,*00
$GPRMC,125800,A,4819.4948,N,428.7011,W,10.00,45.60,190117,,*04
$GPRMC,125800,A,4819.5047,N,428.6859,W,10.00,45.60,190117,,*06
$GPRMC,125800,A,4819.5146,N,428.6707,W,10.00,45.60,190117,,*02
$GPRMC,125800,A,4819.5245,N,428.6555,W,10.00,45.60,190117,,*07
$GPRMC,125800,A,4819.5344,N,428.6403,W,10.00,45.60,190117,,*05
$GPRMC,125800,A,4819.5444,N,428.6251,W,10.00,45.60,190117,,*03
$GPRMC,125800,A,4819.5543,N,428.6100,W,10.00,45.60,190117,,*02
$GPRMC,125800,A,4819.5642,N,428.5948,W,10.00,45.60,190117,,*07
$GPRMC,125800,A,4819.5741,N,428.5796,W,10.00,45.60,190117,,*08
$GPRMC,125800,A,4819.5840,N,428.5644,W,10.00,45.60,190117,,*08
$GPRMC,125800,A,4819.5939,N,428.5492,W,10.00,45.60,190117,,*0E
$GPRMC,125800,A,4819.6039,N,428.5340,W,10.00,45.60,190117,,*0C
$GPRMC,125800,A,4819.6138,N,428.5188,W,10.00,45.60,190117,,*0A
$GPRMC,125800,A,4819.6237,N,428.5036,W,10.00,45.60,190117,,*02
$GPRMC,125800,A,4819.6336,N,428.4885,W,10.00,45.60,190117,,*03
$GPRMC,125800,A,4819.6435,N,428.4733,W,10.00,45.60,190117,,*05
$GPRMC,125800,A,4819.6534,N,428.4581,W,10.00,45.60,190117,,*0E
$GPRMC,125800,A,4819.6633,N,428.4429,W,10.00,45.60,190117,,*09
$GPRMC,125800,A,4819.6733,N,428.4277,W,10.00,45.60,190117,,*05
$GPRMC,125800,A,4819.6832,N,428.4125,W,10.00,45.60,190117,,*0F
$GPRMC,125800,A,4819.6855,N,428.4090,W,10.00,334.85,190117,,*3F
$GPRMC,125800,A,4819.6951,N,428.4157,W,10.00,334.85,190117,,*30
$GPRMC,125800,A,4819.7047,N,428.4225,W,10.00,334.85,190117,,*39
$GPRMC,125800,A,4819.7143,N,428.4292,W,10.00,334.85,190117,,*30
$GPRMC,125800,A,4819.7239,N,428.4360,W,10.00,334.85,190117,,*32
$GPRMC,125800,A,4819.7335,N,428.4428,W,10.00,334.85,190117,,*34
$GPRMC,125800,A,4819.7431,N,428.4495,W,10.00,334.85,190117,,*31
$GPRMC,125800,A,4819.7527,N,428.4563,W,10.00,334.85,190117,,*3F
$GPRMC,125800,A,4819.7622,N,428.4630,W,10.00,334.85,190117,,*3C
$GPRMC,125800,A,4819.7718,N,428.4698,W,10.00,334.85,190117,,*36
$GPRMC,125800,A,4819.7814,N,428.4765,W,10.00,334.85,190117,,*36
$GPRMC,125800,A,4819.7910,N,428.4833,W,10.00,334.85,190117,,*3F
$GPRMC,125800,A,4819.8006,N,428.4900,W,10.00,334.85,190117,,*3F
$GPRMC,125800,A,4819.8102,N,428.4968,W,10.00,334.85,190117,,*34
$GPRMC,125800,A,4819.8198,N,428.5035,W,10.00,334.85,190117,,*37
$GPRMC,125800,A,4819.8294,N,428.5103,W,10.00,334.85,190117,,*3C
$GPRMC,125800,A,4819.8390,N,428.5171,W,10.00,334.85,190117,,*3C
$GPRMC,125800,A,4819.8486,N,428.5238,W,10.00,334.85,190117,,*32
$GPRMC,125800,A,4819.8582,N,428.5306,W,10.00,334.85,190117,,*3B
$GPRMC,125800,A,4819.8678,N,428.5373,W,10.00,334.85,190117,,*3F
$GPRMC,125800,A,4819.8774,N,428.5441,W,10.00,334.85,190117,,*34
$GPRMC,125800,A,4819.8870,N,428.5508,W,10.00,334.85,190117,,*33
$GPRMC,125800,A,4819.8966,N,428.5576,W,10.00,334.85,190117,,*3C
$GPRMC,125800,A,4819.9062,N,428.5643,W,10.00,334.85,190117,,*35
$GPRMC,125800,A,4819.9158,N,428.5711,W,10.00,334.85,190117,,*3B
$GPRMC,125800,A,4819.9254,N,428.5779,W,10.00,334.85,190117,,*3A
$GPRMC,125800,A,4819.9350,N,428.5846,W,10.00,334.85,190117,,*3C
$GPRMC,125800,A,4819.9446,N,428.5914,W,10.00,334.85,190117,,*3A
$GPRMC,125800,A,4819.9542,N,428.5981,W,10.00,334.85,190117,,*33
$GPRMC,125800,A,4819.9638,N,428.6049,W,10.00,334.85,190117,,*33
$GPRMC,125800,A,4819.9734,N,428.6116,W,10.00,334.85,190117,,*35
$GPRMC,125800,A,4819.9830,N,428.6184,W,10.00,334.85,190117,,*35
$GPRMC,125800,A,4819.9925,N,428.6252,W,10.00,334.85,190117,,*38
$GPRMC,125800,A,4820.0021,N,428.6319,W,10.00,334.85,190117,,*38
$GPRMC,125800,A,4820.0117,N,428.6387,W,10.00,334.85,190117,,*3B
$GPRMC,125800,A,4820.0213,N,428.6454,W,10.00,334.85,190117,,*35
$GPRMC,125800,A,4820.0309,N,428.6522,W,10.00,334.85,190117,,*3F
$GPRMC,125800,A,4820.0405,N,428.6589,W,10.00,334.85,190117,,*35
$GPRMC,125800,A,4820.0501,N,428.6657,W,10.00,334.85,190117,,*30
$GPRMC,125800,A,4820.0597,N,428.6724,W,10.00,334.85,190117,,*3A
$GPRMC,125800,A,4820.0693,N,428.6792,W,10.00,334.85,190117,,*30
$GPRMC,125800,A,4820.0789,N,428.6860,W,10.00,334.85,190117,,*38
$GPRMC,125800,A,4820.0885,N,428.6927,W,10.00,334.85,190117,,*39
$GPRMC,125800,A,4820.0981,N,428.6995,W,10.00,334.85,190117,,*35
$GPRMC,125800,A,4820.1077,N,428.7062,W,10.00,334.85,190117,,*34
$GPRMC,125800,A,4820.1173,N,428.7130,W,10.00,334.85,190117,,*37
$GPRMC,125800,A,4820.1269,N,428.7197,W,10.00,334.85,190117,,*32
$GPRMC,125800,A,4820.1365,N,428.7265,W,10.00,334.85,190117,,*31
$GPRMC,125800,A,4820.1461,N,428.7333,W,10.00,334.85,190117,,*30
$GPRMC,125800,A,4820.1557,N,428.7400,W,10.00,334.85,190117,,*33
$GPRMC,125800,A,4820.1653,N,428.7468,W,10.00,334.85,190117,,*3A
$GPRMC,125800,A,4820.1749,N,428.7535,W,10.00,334.85,190117,,*39
$GPRMC,125800,A,4820.1845,N,428.7603,W,10.00,334.85,190117,,*3C
$GPRMC,125800,A,4820.1941,N,428.7670,W,10.00,334.85,190117,,*3D
$GPRMC,125800,A,4820.2037,N,428.7738,W,10.00,334.85,190117,,*3B
$GPRMC,125800,A,4820.2133,N,428.7806,W,10.00,334.85,190117,,*3C
$GPRMC,125800,A,4820.2228,N,428.7873,W,10.00,334.85,190117,,*37
$GPRMC,125800,A,4820.2324,N,428.7941,W,10.00,334.85,190117,,*3A
$GPRMC,125800,A,4820.2420,N,428.8008,W,10.00,334.85,190117,,*32
$GPRMC,125800,A,4820.2516,N,428.8076,W,10.00,334.85,190117,,*3F
$GPRMC,125800,A,4820.2612,N,428.8143,W,10.00,334.85,190117,,*3F
$GPRMC,125800,A,4820.2708,N,428.8211,W,10.00,334.85,190117,,*31
$GPRMC,125800,A,4820.2804,N,428.8279,W,10.00,334.85,190117,,*3C
$GPRMC,125800,A,4820.2900,N,428.8346,W,10.00,334.85,190117,,*34
$GPRMC,125800,A,4820.2996,N,428.8414,W,10.00,334.85,190117,,*3B
$GPRMC,125800,A,4820.3070,N,428.8466,W,10.00,4.94,190117,,*3E
$GPRMC,125800,A,4820.3116,N,428.8460,W,10.00,4.94,190117,,*39
$GPRMC,125800,A,4820.3163,N,428.8454,W,10.00,4.94,190117,,*3C
$GPRMC,125800,A,4820.3209,N,428.8448,W,10.00,4.94,190117,,*3E
$GPRMC,125800,A,4820.3255,N,428.8442,W,10.00,4.94,190117,,*3D
$GPRMC,125800,A,4820.3301,N,428.8436,W,10.00,4.94,190117,,*3E
$GPRMC,125800,A,4820.3347,N,428.8430,W,10.00,4.94,190117,,*3A
$GPRMC,125800,A,4820.3394,N,428.8424,W,10.00,4.94,190117,,*31
$GPRMC,125800,A,4820.3440,N,428.8418,W,10.00,4.94,190117,,*30
$GPRMC,125800,A,4820.3486,N,428.8412,W,10.00,4.94,190117,,*30
$GPRMC,125800,A,4820.3532,N,428.8406,W,10.00,4.94,190117,,*3B
$GPRMC,125800,A,4820.3578,N,428.8400,W,10.00,4.94,190117,,*33
$GPRMC,125800,A,4820.3624,N,428.8394,W,10.00,4.94,190117,,*33
$GPRMC,125800,A,4820.3671,N,428.8388,W,10.00,4.94,190117,,*3E
$GPRMC,125800,A,4820.3717,N,428.8382,W,10.00,4.94,190117,,*35
$GPRMC,125800,A,4820.3763,N,428.8376,W,10.00,4.94,190117,,*3D
$GPRMC,125800,A,4820.3809,N,428.8370,W,10.00,4.94,190117,,*38
$GPRMC,125800,A,4820.3855,N,428.8364,W,10.00,4.94,190117,,*34
$GPRMC,125800,A,4820.3901,N,428.8358,W,10.00,4.94,190117,,*3B
$GPRMC,125800,A,4820.3948,N,428.8352,W,10.00,4.94,190117,,*3C
$GPRMC,125800,A,4820.3994,N,428.8346,W,10.00,4.94,190117,,*38
$GPRMC,125800,A,4820.4040,N,428.8340,W,10.00,4.94,190117,,*39
$GPRMC,125800,A,4820.4086,N,428.8334,W,10.00,4.94,190117,,*30
$GPRMC,125800,A,4820.4132,N,428.8328,W,10.00,4.94,190117,,*33
$GPRMC,125800,A,4820.4179,N,428.8322,W,10.00,4.94,190117,,*36
$GPRMC,125800,A,4820.4225,N,428.8316,W,10.00,4.94,190117,,*3B
$GPRMC,125800,A,4820.4271,N,428.8310,W,10.00,4.94,190117,,*3C
$GPRMC,125800,A,4820.4317,N,428.8304,W,10.00,4.94,190117,,*38
$GPRMC,125800,A,4820.4363,N,428.8298,W,10.00,4.94,190117,,*3F
$GPRMC,125800,A,4820.4409,N,428.8292,W,10.00,4.94,190117,,*3E
$GPRMC,125800,A,4820.4456,N,428.8286,W,10.00,4.94,190117,,*31
$GPRMC,125800,A,4820.4502,N,428.8280,W,10.00,4.94,190117,,*37
$GPRMC,125800,A,4820.4548,N,428.8274,W,10.00,4.94,190117,,*32
$GPRMC,125800,A,4820.4594,N,428.8268,W,10.00,4.94,190117,,*3E
$GPRMC,125800,A,4820.4640,N,428.8262,W,10.00,4.94,190117,,*3E
$GPRMC,125800,A,4820.4686,N,428.8256,W,10.00,4.94,190117,,*33
$GPRMC,125800,A,4820.4733,N,428.8250,W,10.00,4.94,190117,,*3A
$GPRMC,125800,A,4820.4779,N,428.8245,W,10.00,4.94,190117,,*30
$GPRMC,125800,A,4820.4825,N,428.8239,W,10.00,4.94,190117,,*3D
$GPRMC,125800,A,4820.4871,N,428.8233,W,10.00,4.94,190117,,*36
$GPRMC,125800,A,4820.4917,N,428.8227,W,10.00,4.94,190117,,*32
$GPRMC,125800,A,4820.4964,N,428.8221,W,10.00,4.94,190117,,*30
$GPRMC,125800,A,4820.5010,N,428.8215,W,10.00,4.94,190117,,*3C
$GPRMC,125800,A,4820.5056,N,428.8209,W,10.00,4.94,190117,,*33
$GPRMC,125800,A,4820.5102,N,428.8203,W,10.00,4.94,190117,,*39
$GPRMC,125800,A,4820.5148,N,428.8197,W,10.00,4.94,190117,,*39
$GPRMC,125800,A,4820.5194,N,428.8191,W,10.00,4.94,190117,,*3E
$GPRMC,125800,A,4820.5241,N,428.8185,W,10.00,4.94,190117,,*30
$GPRMC,125800,A,4820.5287,N,428.8179,W,10.00,4.94,190117,,*39
$GPRMC,125800,A,4820.5333,N,428.8173,W,10.00,4.94,190117,,*3D
$GPRMC,125800,A,4820.5379,N,428.8167,W,10.00,4.94,190117,,*36
$GPRMC,125800,A,4820.5425,N,428.8161,W,10.00,4.94,190117,,*3E
$GPRMC,125800,A,4820.5471,N,428.8155,W,10.00,4.94,190117,,*38
$GPRMC,125800,A,4820.5518,N,428.8149,W,10.00,4.94,190117,,*3B
$GPRMC,125800,A,4820.5564,N,428.8143,W,10.00,4.94,190117,,*3A
$GPRMC,125800,A,4820.5610,N,428.8137,W,10.00,4.94,190117,,*39
$GPRMC,125800,A,4820.5656,N,428.8131,W,10.00,4.94,190117,,*3D
$GPRMC,125800,A,4820.5702,N,428.8125,W,10.00,4.94,190117,,*38
$GPRMC,125800,A,4820.5749,N,428.8119,W,10.00,4.94,190117,,*38
$GPRMC,125800,A,4820.5795,N,428.8113,W,10.00,4.94,190117,,*33
$GPRMC,125800,A,4820.5841,N,428.8107,W,10.00,4.94,190117,,*30
$GPRMC,125800,A,4820.5887,N,428.8101,W,10.00,4.94,190117,,*3C
$GPRMC,125800,A,4820.5933,N,428.8095,W,10.00,4.94,190117,,*3E
$GPRMC,125800,A,4820.5979,N,428.8089,W,10.00,4.94,190117,,*3D
$GPRMC,125800,A,4820.6026,N,428.8083,W,10.00,4.94,190117,,*37
$GPRMC,125800,A,4820.6072,N,428.8077,W,10.00,4.94,190117,,*3D
$GPRMC,125800,A,4820.6118,N,428.8071,W,10.00,4.94,190117,,*36
$GPRMC,125800,A,4820.6164,N,428.8065,W,10.00,4.94,190117,,*38
$GPRMC,125800,A,4820.6210,N,428.8059,W,10.00,4.94,190117,,*37
$GPRMC,125800,A,4820.6256,N,428.8053,W,10.00,4.94,190117,,*3F
$GPRMC,125800,A,4820.6303,N,428.8047,W,10.00,4.94,190117,,*3B
$GPRMC,125800,A,4820.6349,N,428.8041,W,10.00,4.94,190117,,*33
$GPRMC,125800,A,4820.6395,N,428.8035,W,10.00,4.94,190117,,*31
$GPRMC,125800,A,4820.6441,N,428.8029,W,10.00,4.94,190117,,*32
$GPRMC,125800,A,4820.6487,N,428.8023,W,10.00,4.94,190117,,*32
$GPRMC,125800,A,4820.6534,N,428.8017,W,10.00,4.94,190117,,*3C
$GPRMC,125800,A,4820.6580,N,428.8011,W,10.00,4.94,190117,,*35
$GPRMC,125800,A,4820.6626,N,428.8005,W,10.00,4.94,190117,,*3F
$GPRMC,125800,A,4820.6672,N,428.7999,W,10.00,4.94,190117,,*3D
$GPRMC,125800,A,4820.6718,N,428.7993,W,10.00,4.94,190117,,*3A
$GPRMC,125800,A,4820.6764,N,428.7987,W,10.00,4.94,190117,,*34
$GPRMC,125800,A,4820.6811,N,428.7981,W,10.00,4.94,190117,,*3F
$GPRMC,125800,A,4820.6857,N,428.7975,W,10.00,4.94,190117,,*36
$GPRMC,125800,A,4820.6903,N,428.7969,W,10.00,4.94,190117,,*3B
$GPRMC,125800,A,4820.6949,N,428.7963,W,10.00,4.94,190117,,*3F
$GPRMC,125800,A,4820.6995,N,428.7957,W,10.00,4.94,190117,,*39
$GPRMC,125800,A,4820.7041,N,428.7951,W,10.00,4.94,190117,,*3E
$GPRMC,125800,A,4820.7088,N,428.7945,W,10.00,4.94,190117,,*3E
$GPRMC,125800,A,4820.7134,N,428.7939,W,10.00,4.94,190117,,*33
$GPRMC,125800,A,4820.7180,N,428.7933,W,10.00,4.94,190117,,*36
$GPRMC,125800,A,4820.7226,N,428.7927,W,10.00,4.94,190117,,*3C
$GPRMC,125800,A,4820.7272,N,428.7921,W,10.00,4.94,190117,,*3B
$GPRMC,125800,A,4820.7319,N,428.7915,W,10.00,4.94,190117,,*30
$GPRMC,125800,A,4820.7365,N,428.7909,W,10.00,4.94,190117,,*36
$GPRMC,125800,A,4820.7411,N,428.7903,W,10.00,4.94,190117,,*38
$GPRMC,125800,A,4820.7457,N,428.7897,W,10.00,4.94,190117,,*36
$GPRMC,125800,A,4820.7503,N,428.7891,W,10.00,4.94,190117,,*30
$GPRMC,125800,A,4820.7549,N,428.7885,W,10.00,4.94,190117,,*3B
$GPRMC,125800,A,4820.7596,N,428.7879,W,10.00,4.94,190117,,*3A
$GPRMC,125800,A,4820.7642,N,428.7873,W,10.00,4.94,190117,,*3A
$GPRMC,125800,A,4820.7688,N,428.7867,W,10.00,4.94,190117,,*39
$GPRMC,125800,A,4820.7734,N,428.7861,W,10.00,4.94,190117,,*39
$GPRMC,125800,A,4820.7780,N,428.7855,W,10.00,4.94,190117,,*31
$GPRMC,125800,A,4820.7826,N,428.7849,W,10.00,4.94,190117,,*3F
$GPRMC,125800,A,4820.7873,N,428.7843,W,10.00,4.94,190117,,*35
$GPRMC,125800,A,4820.7919,N,428.7837,W,10.00,4.94,190117,,*3B
$GPRMC,125800,A,4820.7965,N,428.7831,W,10.00,4.94,190117,,*36
$GPRMC,125800,A,4820.8011,N,428.7825,W,10.00,4.94,190117,,*36
$GPRMC,125800,A,4820.8057,N,428.7819,W,10.00,4.94,190117,,*3B
$GPRMC,125800,A,4820.8103,N,428.7813,W,10.00,4.94,190117,,*31
$GPRMC,125800,A,4820.8150,N,428.7807,W,10.00,4.94,190117,,*32
$GPRMC,125800,A,4820.8196,N,428.7801,W,10.00,4.94,190117,,*3E
$GPRMC,125800,A,4820.8242,N,428.7795,W,10.00,4.94,190117,,*36
$GPRMC,125800,A,4820.8288,N,428.7789,W,10.00,4.94,190117,,*3D
$GPRMC,125800,A,4820.8334,N,428.7783,W,10.00,4.94,190117,,*31
$GPRMC,125800,A,4820.8381,N,428.7778,W,10.00,4.94,190117,,*3B
$GPRMC,125800,A,4820.8427,N,428.7772,W,10.00,4.94,190117,,*3A
$GPRMC,125800,A,4820.8473,N,428.7766,W,10.00,4.94,190117,,*3E
$GPRMC,125800,A,4820.8519,N,428.7760,W,10.00,4.94,190117,,*35
$GPRMC,125800,A,4820.8565,N,428.7754,W,10.00,4.94,190117,,*39
$GPRMC,125800,A,4820.8611,N,428.7748,W,10.00,4.94,190117,,*34
$GPRMC,125800,A,4820.8658,N,428.7742,W,10.00,4.94,190117,,*33
$GPRMC,125800,A,4820.8704,N,428.7736,W,10.00,4.94,190117,,*38
$GPRMC,125800,A,4820.8750,N,428.7730,W,10.00,4.94,190117,,*3F
$GPRMC,125800,A,4820.8796,N,428.7724,W,10.00,4.94,190117,,*30
$GPRMC,125800,A,4820.8842,N,428.7718,W,10.00,4.94,190117,,*39
$GPRMC,125800,A,4820.8888,N,428.7712,W,10.00,4.94,190117,,*35
$GPRMC,125800,A,4820.8935,N,428.7706,W,10.00,4.94,190117,,*37
$GPRMC,125800,A,4820.8981,N,428.7700,W,10.00,4.94,190117,,*3E
$GPRMC,125800,A,4820.9027,N,428.7694,W,10.00,4.94,190117,,*36
$GPRMC,125800,A,4820.9073,N,428.7688,W,10.00,4.94,190117,,*3A
$GPRMC,125800,A,4820.9119,N,428.7682,W,10.00,4.94,190117,,*3D
$GPRMC,125800,A,4820.9166,N,428.7676,W,10.00,4.94,190117,,*3E
$GPRMC,125800,A,4820.9212,N,428.7670,W,10.00,4.94,190117,,*38
$GPRMC,125800,A,4820.9258,N,428.7664,W,10.00,4.94,190117,,*33
$GPRMC,125800,A,4820.9304,N,428.7658,W,10.00,4.94,190117,,*34
$GPRMC,125800,A,4820.9350,N,428.7652,W,10.00,4.94,190117,,*3F
$GPRMC,125800,A,4820.9396,N,428.7646,W,10.00,4.94,190117,,*30
$GPRMC,125800,A,4820.9443,N,428.7640,W,10.00,4.94,190117,,*39
$GPRMC,125800,A,4820.9489,N,428.7634,W,10.00,4.94,190117,,*3C
$GPRMC,125800,A,4820.9535,N,428.7628,W,10.00,4.94,190117,,*37
$GPRMC,125800,A,4820.9581,N,428.7622,W,10.00,4.94,190117,,*32
$GPRMC,125800,A,4820.9627,N,428.7616,W,10.00,4.94,190117,,*3A
$GPRMC,125800,A,4820.9673,N,428.7610,W,10.00,4.94,190117,,*3D
$GPRMC,125800,A,4820.9720,N,428.7604,W,10.00,4.94,190117,,*3F
$GPRMC,125800,A,4820.9766,N,428.7598,W,10.00,4.94,190117,,*3B
$GPRMC,125800,A,4820.9812,N,428.7592,W,10.00,4.94,190117,,*3D
$GPRMC,125800,A,4820.9858,N,428.7586,W,10.00,4.94,190117,,*36
$GPRMC,125800,A,4820.9904,N,428.7580,W,10.00,4.94,190117,,*38
$GPRMC,125800,A,4820.9951,N,428.7574,W,10.00,4.94,190117,,*33
$GPRMC,125800,A,4820.9997,N,428.7568,W,10.00,4.94,190117,,*34
$GPRMC,125800,A,4821.0043,N,428.7562,W,10.00,4.94,190117,,*36
$GPRMC,125800,A,4821.0089,N,428.7556,W,10.00,4.94,190117,,*37
$GPRMC,125800,A,4821.0135,N,428.7550,W,10.00,4.94,190117,,*37
$GPRMC,125800,A,4821.0181,N,428.7544,W,10.00,4.94,190117,,*3D
$GPRMC,125800,A,4821.0228,N,428.7538,W,10.00,4.94,190117,,*36
$GPRMC,125800,A,4821.0274,N,428.7532,W,10.00,4.94,190117,,*35
$GPRMC,125800,A,4821.0320,N,428.7526,W,10.00,4.94,190117,,*30
$GPRMC,125800,A,4821.0366,N,428.7520,W,10.00,4.94,190117,,*34
$GPRMC,125800,A,4821.0412,N,428.7514,W,10.00,4.94,190117,,*37
$GPRMC,125800,A,4821.0458,N,428.7508,W,10.00,4.94,190117,,*34
$GPRMC,125800,A,4821.0505,N,428.7502,W,10.00,4.94,190117,,*37
$GPRMC,125800,A,4821.0551,N,428.7496,W,10.00,4.94,190117,,*3A
$GPRMC,125800,A,4821.0597,N,428.7490,W,10.00,4.94,190117,,*36
$GPRMC,125800,A,4821.0643,N,428.7484,W,10.00,4.94,190117,,*39
$GPRMC,125800,A,4821.0689,N,428.7478,W,10.00,4.94,190117,,*3C
$GPRMC,125800,A,4821.0736,N,428.7472,W,10.00,4.94,190117,,*33
$GPRMC,125800,A,4821.0782,N,428.7466,W,10.00,4.94,190117,,*39
$GPRMC,125800,A,4821.0828,N,428.7460,W,10.00,4.94,190117,,*30
$GPRMC,125800,A,4821.0874,N,428.7454,W,10.00,4.94,190117,,*3E
$GPRMC,125800,A,4821.0920,N,428.7448,W,10.00,4.94,190117,,*33
$GPRMC,125800,A,4821.0966,N,428.7442,W,10.00,4.94,190117,,*3B
$GPRMC,125800,A,4821.1013,N,428.7436,W,10.00,4.94,190117,,*32
$GPRMC,125800,A,4821.1059,N,428.7430,W,10.00,4.94,190117,,*3A
$GPRMC,125800,A,4821.1105,N,428.7424,W,10.00,4.94,190117,,*37
$GPRMC,125800,A,4821.1151,N,428.7418,W,10.00,4.94,190117,,*39
$GPRMC,125800,A,4821.1197,N,428.7412,W,10.00,4.94,190117,,*39
$GPRMC,125800,A,4821.1243,N,428.7406,W,10.00,4.94,190117,,*36
$GPRMC,125800,A,4821.1290,N,428.7400,W,10.00,4.94,190117,,*3E
$GPRMC,125800,A,4821.1336,N,428.7394,W,10.00,4.94,190117,,*39
$GPRMC,125800,A,4821.1382,N,428.7388,W,10.00,4.94,190117,,*3B
$GPRMC,125800,A,4821.1428,N,428.7382,W,10.00,4.94,190117,,*36
$GPRMC,125800,A,4821.1474,N,428.7376,W,10.00,4.94,190117,,*34
$GPRMC,125800,A,4821.1521,N,428.7370,W,10.00,4.94,190117,,*33
$GPRMC,125800,A,4821.1567,N,428.7364,W,10.00,4.94,190117,,*34
$GPRMC,125800,A,4821.1613,N,428.7358,W,10.00,4.94,190117,,*3B
$GPRMC,125800,A,4821.1659,N,428.7352,W,10.00,4.94,190117,,*3F
$GPRMC,125800,A,4821.1705,N,428.7346,W,10.00,4.94,190117,,*32
$GPRMC,125800,A,4821.1751,N,428.7340,W,10.00,4.94,190117,,*35
$GPRMC,125800,A,4821.1798,N,428.7334,W,10.00,4.94,190117,,*33
$GPRMC,125800,A,4821.1844,N,428.7328,W,10.00,4.94,190117,,*30
$GPRMC,125800,A,4821.1890,N,428.7322,W,10.00,4.94,190117,,*33
$GPRMC,125800,A,4821.1936,N,428.7316,W,10.00,4.94,190117,,*39
$GPRMC,125800,A,4821.1982,N,428.7310,W,10.00,4.94,190117,,*30
$GPRMC,125800,A,4821.2028,N,428.7304,W,10.00,4.94,190117,,*3F
