$GPRMC,053356,A,4823.4388,N,429.7978,W,10.00,3.32,140316,,*3F
$GPRMC,053356,A,4823.4890,N,429.7934,W,10.00,3.32,140316,,*35
$GPRMC,053356,A,4823.5392,N,429.7890,W,10.00,3.32,140316,,*32
$GPRMC,053356,A,4823.5895,N,429.7846,W,10.00,3.32,140316,,*35
$GPRMC,053356,A,4823.6397,N,429.7803,W,10.00,3.32,140316,,*3E
$GPRMC,053356,A,4823.6899,N,429.7759,W,10.00,3.32,140316,,*3B
$GPRMC,053356,A,4823.7401,N,429.7715,W,10.00,3.32,140316,,*3F
$GPRMC,053356,A,4823.7903,N,429.7672,W,10.00,3.32,140316,,*30
$GPRMC,053356,A,4823.8405,N,429.7628,W,10.00,3.32,140316,,*3B
$GPRMC,053356,A,4823.8907,N,429.7584,W,10.00,3.32,140316,,*31
$GPRMC,053356,A,4823.9409,N,429.7540,W,10.00,3.32,140316,,*3B
$GPRMC,053356,A,4823.9911,N,429.7497,W,10.00,3.32,140316,,*34
$GPRMC,053356,A,4824.0413,N,429.7453,W,10.00,3.32,140316,,*3D
$GPRMC,053356,A,4824.0915,N,429.7409,W,10.00,3.32,140316,,*39
$GPRMC,053356,A,4824.1417,N,429.7366,W,10.00,3.32,140316,,*39
$GPRMC,053356,A,4824.1919,N,429.7322,W,10.00,3.32,140316,,*3A
$GPRMC,053356,A,4824.2421,N,429.7278,W,10.00,3.32,140316,,*31
$GPRMC,053356,A,4824.2923,N,429.7234,W,10.00,3.32,140316,,*36
$GPRMC,053356,A,4824.3425,N,429.7191,W,10.00,3.32,140316,,*30
$GPRMC,053356,A,4824.3928,N,429.7147,W,10.00,3.32,140316,,*3B
$GPRMC,053356,A,4824.4430,N,429.7103,W,10.00,3.32,140316,,*38
$GPRMC,053356,A,4824.4932,N,429.7059,W,10.00,3.32,140316,,*39
$GPRMC,053356,A,4824.5434,N,429.7016,W,10.00,3.32,140316,,*38
$GPRMC,053356,A,4824.5936,N,429.6972,W,10.00,3.32,140316,,*3D
$GPRMC,053356,A,4824.6438,N,429.6928,W,10.00,3.32,140316,,*32
$GPRMC,053356,A,4824.6940,N,429.6885,W,10.00,3.32,140316,,*36
$GPRMC,053356,A,4824.7442,N,429.6841,W,10.00,3.32,140316,,*30
$GPRMC,053356,A,4824.7944,N,429.6797,W,10.00,3.32,140316,,*3F
$GPRMC,053356,A,4824.8446,N,429.6753,W,10.00,3.32,140316,,*37
$GPRMC,053356,A,4824.8837,N,429.6719,W,10.00,271.45,140316,,*34
$GPRMC,053356,A,4824.8846,N,429.7263,W,10.00,271.45,140316,,*3B
$GPRMC,053356,A,4824.8855,N,429.7807,W,10.00,271.45,140316,,*31
$GPRMC,053356,A,4824.8864,N,429.8351,W,10.00,271.45,140316,,*34
$GPRMC,053356,A,4824.8874,N,429.8894,W,10.00,271.45,140316,,*37
$GPRMC,053356,A,4824.8883,N,429.9438,W,10.00,271.45,140316,,*34
$GPRMC,053356,A,4824.8892,N,429.9982,W,10.00,271.45,140316,,*38
$GPRMC,053356,A,4824.8901,N,430.0526,W,10.00,271.45,140316,,*30
$GPRMC,053356,A,4824.8910,N,430.1069,W,10.00,271.45,140316,,*3F
$GPRMC,053356,A,4824.8919,N,430.1613,W,10.00,271.45,140316,,*3D
$GPRMC,053356,A,4824.8928,N,430.2157,W,10.00,271.45,140316,,*3B
$GPRMC,053356,A,4824.8937,N,430.2701,W,10.00,271.45,140316,,*30
$GPRMC,053356,A,4824.8947,N,430.3244,W,10.00,271.45,140316,,*32
$GPRMC,053356,A,4824.8956,N,430.3788,W,10.00,271.45,140316,,*37
$GPRMC,053356,A,4824.8965,N,430.4332,W,10.00,271.45,140316,,*35
$GPRMC,053356,A,4824.8974,N,430.4876,W,10.00,271.45,140316,,*3E
$GPRMC,053356,A,4824.8983,N,430.5419,W,10.00,271.45,140316,,*32
$GPRMC,053356,A,4824.8992,N,430.5963,W,10.00,271.45,140316,,*32
$GPRMC,053356,A,4824.9001,N,430.6507,W,10.00,271.45,140316,,*3D
$GPRMC,053356,A,4824.9010,N,430.7051,W,10.00,271.45,140316,,*3A
$GPRMC,053356,A,4824.9019,N,430.7595,W,10.00,271.45,140316,,*3E
$GPRMC,053356,A,4824.9028,N,430.8138,W,10.00,271.45,140316,,*30
$GPRMC,053356,A,4824.9037,N,430.8682,W,10.00,271.45,140316,,*38
$GPRMC,053356,A,4824.9046,N,430.9226,W,10.00,271.45,140316,,*35
$GPRMC,053356,A,4824.9055,N,430.9770,W,10.00,271.45,140316,,*31
$GPRMC,053356,A,4824.9064,N,431.0313,W,10.00,271.45,140316,,*3A
$GPRMC,053356,A,4824.9073,N,431.0857,W,10.00,271.45,140316,,*37
$GPRMC,053356,A,4824.9082,N,431.1401,W,10.00,271.45,140316,,*37
$GPRMC,053356,A,4824.9092,N,431.1945,W,10.00,271.45,140316,,*3B
$GPRMC,053356,A,4824.9101,N,431.2488,W,10.00,271.45,140316,,*3F
$GPRMC,053356,A,4824.9110,N,431.3032,W,10.00,271.45,140316,,*3B
$GPRMC,053356,A,4824.9119,N,431.3576,W,10.00,271.45,140316,,*37
$GPRMC,053356,A,4824.9128,N,431.4120,W,10.00,271.45,140316,,*35
$GPRMC,053356,A,4824.9137,N,431.4664,W,10.00,271.45,140316,,*3C
$GPRMC,053356,A,4824.9146,N,431.5207,W,10.00,271.45,140316,,*3A
$GPRMC,053356,A,4824.9155,N,431.5751,W,10.00,271.45,140316,,*3E
$GPRMC,053356,A,4824.9164,N,431.6295,W,10.00,271.45,140316,,*32
$GPRMC,053356,A,4824.9173,N,431.6839,W,10.00,271.45,140316,,*38
$GPRMC,053356,A,4824.9182,N,431.7382,W,10.00,271.45,140316,,*3C
$GPRMC,053356,A,4824.9191,N,431.7926,W,10.00,271.45,140316,,*3A
$GPRMC,053356,A,4824.9200,N,431.8470,W,10.00,271.45,140316,,*30
$GPRMC,053356,A,4824.9208,N,431.9014,W,10.00,271.45,140316,,*3F
$GPRMC,053356,A,4824.9217,N,431.9557,W,10.00,271.45,140316,,*33
$GPRMC,053356,A,4824.9226,N,432.0101,W,10.00,271.45,140316,,*3C
$GPRMC,053356,A,4824.9235,N,432.0645,W,10.00,271.45,140316,,*39
$GPRMC,053356,A,4824.9244,N,432.1189,W,10.00,271.45,140316,,*39
$GPRMC,053356,A,4824.9253,N,432.1733,W,10.00,271.45,140316,,*38
$GPRMC,053356,A,4824.9262,N,432.2276,W,10.00,271.45,140316,,*3D
$GPRMC,053356,A,4824.9271,N,432.2820,W,10.00,271.45,140316,,*36
$GPRMC,053356,A,4824.9280,N,432.3364,W,10.00,271.45,140316,,*32
$GPRMC,053356,A,4824.9289,N,432.3908,W,10.00,271.45,140316,,*3B
$GPRMC,053356,A,4824.9298,N,432.4451,W,10.00,271.45,140316,,*3D
$GPRMC,053356,A,4824.9307,N,432.4995,W,10.00,271.45,140316,,*3F
$GPRMC,053356,A,4824.9316,N,432.5539,W,10.00,271.45,140316,,*34
$GPRMC,053356,A,4824.9325,N,432.6083,W,10.00,271.45,140316,,*33
$GPRMC,053356,A,4824.9334,N,432.6627,W,10.00,271.45,140316,,*3B
$GPRMC,053356,A,4824.9338,N,432.6905,W,10.00,184.58,140316,,*3D
$GPRMC,053356,A,4824.8966,N,432.6950,W,10.00,184.58,140316,,*3D
$GPRMC,053356,A,4824.8595,N,432.6995,W,10.00,184.58,140316,,*34
$GPRMC,053356,A,4824.8223,N,432.7039,W,10.00,184.58,140316,,*30
$GPRMC,053356,A,4824.7851,N,432.7084,W,10.00,184.58,140316,,*36
$GPRMC,053356,A,4824.7479,N,432.7129,W,10.00,184.58,140316,,*36
$GPRMC,053356,A,4824.7108,N,432.7174,W,10.00,184.58,140316,,*3D
$GPRMC,053356,A,4824.6736,N,432.7218,W,10.00,184.58,140316,,*3E
$GPRMC,053356,A,4824.6364,N,432.7263,W,10.00,184.58,140316,,*31
$GPRMC,053356,A,4824.5992,N,432.7308,W,10.00,184.58,140316,,*3D
$GPRMC,053356,A,4824.5620,N,432.7353,W,10.00,184.58,140316,,*35
$GPRMC,053356,A,4824.5249,N,432.7397,W,10.00,184.58,140316,,*36
$GPRMC,053356,A,4824.4877,N,432.7442,W,10.00,184.58,140316,,*3F
$GPRMC,053356,A,4824.4505,N,432.7487,W,10.00,184.58,140316,,*3E
$GPRMC,053356,A,4824.4133,N,432.7532,W,10.00,184.58,140316,,*30
$GPRMC,053356,A,4824.3762,N,432.7576,W,10.00,184.58,140316,,*35
$GPRMC,053356,A,4824.3390,N,432.7621,W,10.00,184.58,140316,,*3D
$GPRMC,053356,A,4824.3018,N,432.7666,W,10.00,184.58,140316,,*3D
$GPRMC,053356,A,4824.2646,N,432.7711,W,10.00,184.58,140316,,*30
$GPRMC,053356,A,4824.2274,N,432.7755,W,10.00,184.58,140316,,*35
$GPRMC,053356,A,4824.1903,N,432.7800,W,10.00,184.58,140316,,*32
$GPRMC,053356,A,4824.1531,N,432.7845,W,10.00,184.58,140316,,*3E
$GPRMC,053356,A,4824.1159,N,432.7889,W,10.00,184.58,140316,,*34
$GPRMC,053356,A,4824.0787,N,432.7934,W,10.00,184.58,140316,,*37
$GPRMC,053356,A,4824.0416,N,432.7979,W,10.00,184.58,140316,,*35
$GPRMC,053356,A,4824.0044,N,432.8024,W,10.00,184.58,140316,,*38
$GPRMC,053356,A,4823.9672,N,432.8068,W,10.00,184.58,140316,,*3D
$GPRMC,053356,A,4823.9300,N,432.8113,W,10.00,184.58,140316,,*30
$GPRMC,053356,A,4823.8928,N,432.8158,W,10.00,184.58,140316,,*3E
$GPRMC,053356,A,4823.8557,N,432.8202,W,10.00,184.58,140316,,*36
$GPRMC,053356,A,4823.8185,N,432.8247,W,10.00,184.58,140316,,*3C
$GPRMC,053356,A,4823.7813,N,432.8292,W,10.00,184.58,140316,,*3D
$GPRMC,053356,A,4823.7441,N,432.8337,W,10.00,184.58,140316,,*38
$GPRMC,053356,A,4823.7070,N,432.8381,W,10.00,184.58,140316,,*33
$GPRMC,053356,A,4823.6698,N,432.8426,W,10.00,184.58,140316,,*38
$GPRMC,053356,A,4823.6326,N,432.8471,W,10.00,184.58,140316,,*3A
$GPRMC,053356,A,4823.5954,N,432.8516,W,10.00,184.58,140316,,*36
$GPRMC,053356,A,4823.5582,N,432.8560,W,10.00,184.58,140316,,*30
$GPRMC,053356,A,4823.5211,N,432.8605,W,10.00,184.58,140316,,*3D
$GPRMC,053356,A,4823.4839,N,432.8650,W,10.00,184.58,140316,,*3C
$GPRMC,053356,A,4823.4467,N,432.8694,W,10.00,184.58,140316,,*33
$GPRMC,053356,A,4823.4095,N,432.8739,W,10.00,184.58,140316,,*3C
$GPRMC,053356,A,4823.3724,N,432.8784,W,10.00,184.58,140316,,*30
$GPRMC,053356,A,4823.3352,N,432.8828,W,10.00,184.58,140316,,*3C
$GPRMC,053356,A,4823.2980,N,432.8873,W,10.00,184.58,140316,,*36
$GPRMC,053356,A,4823.2608,N,432.8918,W,10.00,184.58,140316,,*35
$GPRMC,053356,A,4823.2236,N,432.8963,W,10.00,184.58,140316,,*30
$GPRMC,053356,A,4823.1865,N,432.9007,W,10.00,184.58,140316,,*35
$GPRMC,053356,A,4823.1493,N,432.9052,W,10.00,184.58,140316,,*30
$GPRMC,053356,A,4823.1121,N,432.9097,W,10.00,184.58,140316,,*35
$GPRMC,053356,A,4823.0749,N,432.9141,W,10.00,184.58,140316,,*36
$GPRMC,053356,A,4823.0378,N,432.9186,W,10.00,184.58,140316,,*3B
$GPRMC,053356,A,4823.0006,N,432.9231,W,10.00,184.58,140316,,*3E
