$GPRMC,072314,A,4822.4036,N,429.4726,W,10.00,162.90,091115,,*39
$GPRMC,072314,A,4822.2933,N,429.4216,W,10.00,162.90,091115,,*35
$GPRMC,072314,A,4822.1829,N,429.3707,W,10.00,162.90,091115,,*3E
$GPRMC,072314,A,4822.0726,N,429.3198,W,10.00,162.90,091115,,*3F
$GPRMC,072314,A,4821.9623,N,429.2688,W,10.00,162.90,091115,,*36
$GPRMC,072314,A,4821.8520,N,429.2179,W,10.00,162.90,091115,,*3E
$GPRMC,072314,A,4821.8008,N,429.1943,W,10.00,254.45,091115,,*3D
$GPRMC,072314,A,4821.7867,N,429.2704,W,10.00,254.45,091115,,*3D
$GPRMC,072314,A,4821.7726,N,429.3465,W,10.00,254.45,091115,,*32
$GPRMC,072314,A,4821.7585,N,429.4226,W,10.00,254.45,091115,,*3F
$GPRMC,072314,A,4821.7443,N,429.4987,W,10.00,254.45,091115,,*34
$GPRMC,072314,A,4821.7302,N,429.5748,W,10.00,254.45,091115,,*3A
$GPRMC,072314,A,4821.7161,N,429.6509,W,10.00,254.45,091115,,*39
$GPRMC,072314,A,4821.7020,N,429.7270,W,10.00,254.45,091115,,*35
$GPRMC,072314,A,4821.6879,N,429.8031,W,10.00,254.45,091115,,*38
$GPRMC,072314,A,4821.6737,N,429.8792,W,10.00,254.45,091115,,*33
$GPRMC,072314,A,4821.6596,N,429.9553,W,10.00,254.45,091115,,*34
$GPRMC,072314,A,4821.6455,N,430.0314,W,10.00,254.45,091115,,*3E
$GPRMC,072314,A,4821.6314,N,430.1075,W,10.00,254.45,091115,,*39
$GPRMC,072314,A,4821.6172,N,430.1836,W,10.00,254.45,091115,,*34
$GPRMC,072314,A,4821.6031,N,430.2597,W,10.00,254.45,091115,,*37
$GPRMC,072314,A,4821.5890,N,430.3358,W,10.00,254.45,091115,,*33
$GPRMC,072314,A,4821.5748,N,430.4119,W,10.00,254.45,091115,,*39
$GPRMC,072314,A,4821.5607,N,430.4880,W,10.00,254.45,091115,,*3A
$GPRMC,072314,A,4821.5466,N,430.5641,W,10.00,254.45,091115,,*3D
$GPRMC,072314,A,4821.5324,N,430.6402,W,10.00,254.45,091115,,*3A
$GPRMC,072314,A,4821.5183,N,430.7163,W,10.00,254.45,091115,,*36
$GPRMC,072314,A,4821.5042,N,430.7924,W,10.00,254.45,091115,,*31
$GPRMC,072314,A,4821.4900,N,430.8684,W,10.00,254.45,091115,,*35
$GPRMC,072314,A,4821.4759,N,430.9445,W,10.00,254.45,091115,,*39
$GPRMC,072314,A,4821.4618,N,431.0206,W,10.00,254.45,091115,,*34
$GPRMC,072314,A,4821.4476,N,431.0967,W,10.00,254.45,091115,,*32
$GPRMC,072314,A,4821.4335,N,431.1728,W,10.00,254.45,091115,,*36
$GPRMC,072314,A,4821.4298,N,431.1929,W,10.00,250.32,091115,,*3B
$GPRMC,072314,A,4821.4157,N,431.2520,W,10.00,250.32,091115,,*3D
$GPRMC,072314,A,4821.4016,N,431.3110,W,10.00,250.32,091115,,*3F
$GPRMC,072314,A,4821.3875,N,431.3701,W,10.00,250.32,091115,,*33
$GPRMC,072314,A,4821.3734,N,431.4291,W,10.00,250.32,091115,,*32
$GPRMC,072314,A,4821.3594,N,431.4881,W,10.00,250.32,091115,,*31
$GPRMC,072314,A,4821.3453,N,431.5472,W,10.00,250.32,091115,,*3A
$GPRMC,072314,A,4821.3312,N,431.6062,W,10.00,250.32,091115,,*3E
$GPRMC,072314,A,4821.3171,N,431.6653,W,10.00,250.32,091115,,*3D
$GPRMC,072314,A,4821.3031,N,431.7243,W,10.00,250.32,091115,,*3C
$GPRMC,072314,A,4821.2890,N,431.7833,W,10.00,250.32,091115,,*33
$GPRMC,072314,A,4821.2749,N,431.8424,W,10.00,250.32,091115,,*3D
$GPRMC,072314,A,4821.2608,N,431.9014,W,10.00,250.32,091115,,*3F
$GPRMC,072314,A,4821.2467,N,431.9604,W,10.00,250.32,091115,,*33
$GPRMC,072314,A,4821.2326,N,432.0195,W,10.00,250.32,091115,,*34
$GPRMC,072314,A,4821.2186,N,432.0785,W,10.00,250.32,091115,,*3B
$GPRMC,072314,A,4821.2045,N,432.1375,W,10.00,250.32,091115,,*3F
$GPRMC,072314,A,4821.1904,N,432.1966,W,10.00,250.32,091115,,*38
$GPRMC,072314,A,4821.1763,N,432.2556,W,10.00,250.32,091115,,*3B
$GPRMC,072314,A,4821.1622,N,432.3146,W,10.00,250.32,091115,,*3B
$GPRMC,072314,A,4821.1481,N,432.3737,W,10.00,250.32,091115,,*30
$GPRMC,072314,A,4821.1341,N,432.4327,W,10.00,250.32,091115,,*39
$GPRMC,072314,A,4821.1200,N,432.4917,W,10.00,250.32,091115,,*34
$GPRMC,072314,A,4821.1059,N,432.5508,W,10.00,250.32,091115,,*39
$GPRMC,072314,A,4821.0918,N,432.6098,W,10.00,250.32,091115,,*3B
$GPRMC,072314,A,4821.0777,N,432.6688,W,10.00,250.32,091115,,*3B
$GPRMC,072314,A,4821.0636,N,432.7278,W,10.00,250.32,091115,,*35
$GPRMC,072314,A,4821.0495,N,432.7869,W,10.00,250.32,091115,,*34
$GPRMC,072314,A,4821.0354,N,432.8459,W,10.00,250.32,091115,,*3E
$GPRMC,072314,A,4821.0213,N,432.9049,W,10.00,250.32,091115,,*38
$GPRMC,072314,A,4821.0073,N,432.9640,W,10.00,250.32,091115,,*33
$GPRMC,072314,A,4820.9932,N,433.0230,W,10.00,250.32,091115,,*3C
$GPRMC,072314,A,4820.9791,N,433.0820,W,10.00,250.32,091115,,*30
$GPRMC,072314,A,4820.9650,N,433.1410,W,10.00,250.32,091115,,*32
$GPRMC,072314,A,4820.9509,N,433.2001,W,10.00,250.32,091115,,*3A
$GPRMC,072314,A,4820.9368,N,433.2591,W,10.00,250.32,091115,,*37
$GPRMC,072314,A,4820.9227,N,433.3181,W,10.00,250.32,091115,,*39
$GPRMC,072314,A,4820.9086,N,433.3771,W,10.00,250.32,091115,,*39
$GPRMC,072314,A,4820.8945,N,433.4361,W,10.00,250.32,091115,,*3C
$GPRMC,072314,A,4820.8804,N,433.4952,W,10.00,250.32,091115,,*32
$GPRMC,072314,A,4820.8663,N,433.5542,W,10.00,250.32,091115,,*31
$GPRMC,072314,A,4820.8522,N,433.6132,W,10.00,250.32,091115,,*37
