$GPRMC,100845,A,4824.3552,N,427.6504,W,10.00,136.34,141115,,*39
$GPRMC,100845,A,4824.3242,N,427.6060,W,10.00,136.34,141115,,*38
$GPRMC,100845,A,4824.2933,N,427.5616,W,10.00,136.34,141115,,*30
$GPRMC,100845,A,4824.2623,N,427.5173,W,10.00,136.34,141115,,*3A
$GPRMC,100845,A,4824.2314,N,427.4729,W,10.00,136.34,141115,,*33
$GPRMC,100845,A,4824.2004,N,427.4285,W,10.00,136.34,141115,,*32
$GPRMC,100845,A,4824.1695,N,427.3842,W,10.00,136.34,141115,,*39
$GPRMC,100845,A,4824.1385,N,427.3398,W,10.00,136.34,141115,,*31
$GPRMC,100845,A,4824.1075,N,427.2954,W,10.00,136.34,141115,,*36
$GPRMC,100845,A,4824.0766,N,427.2511,W,10.00,136.34,141115,,*3F
$GPRMC,100845,A,4824.0456,N,427.2067,W,10.00,136.34,141115,,*3B
$GPRMC,100845,A,4824.0147,N,427.1623,W,10.00,136.34,141115,,*3B
$GPRMC,100845,A,4823.9837,N,427.1180,W,10.00,136.34,141115,,*35
$GPRMC,100845,A,4823.9528,N,427.0736,W,10.00,136.34,141115,,*3C
$GPRMC,100845,A,4823.9218,N,427.0293,W,10.00,136.34,141115,,*32
$GPRMC,100845,A,4823.8908,N,426.9849,W,10.00,136.34,141115,,*3C
$GPRMC,100845,A,4823.8599,N,426.9406,W,10.00,136.34,141115,,*3F
$GPRMC,100845,A,4823.8289,N,426.8962,W,10.00,136.34,141115,,*37
$GPRMC,100845,A,4823.7980,N,426.8519,W,10.00,136.34,141115,,*3A
$GPRMC,100845,A,4823.7670,N,426.8075,W,10.00,136.34,141115,,*35
$GPRMC,100845,A,4823.7360,N,426.7631,W,10.00,136.34,141115,,*38
$GPRMC,100845,A,4823.7051,N,426.7188,W,10.00,136.34,141115,,*3C
$GPRMC,100845,A,4823.6741,N,426.6744,W,10.00,136.34,141115,,*3C
$GPRMC,100845,A,4823.6432,N,426.6301,W,10.00,136.34,141115,,*3E
$GPRMC,100845,A,4823.6122,N,426.5857,W,10.00,136.34,141115,,*31
$GPRMC,100845,A,4823.5812,N,426.5414,W,10.00,136.34,141115,,*33
$GPRMC,100845,A,4823.5503,N,426.4971,W,10.00,136.34,141115,,*31
$GPRMC,100845,A,4823.5193,N,426.4527,W,10.00,136.34,141115,,*33
$GPRMC,100845,A,4823.4883,N,426.4084,W,10.00,136.34,141115,,*36
$GPRMC,100845,A,4823.4574,N,426.3640,W,10.00,136.34,141115,,*3A
$GPRMC,100845,A,4823.4264,N,426.3197,W,10.00,136.34,141115,,*31
$GPRMC,100845,A,4823.3955,N,426.2753,W,10.00,136.34,141115,,*30
$GPRMC,100845,A,4823.3645,N,426.2310,W,10.00,136.34,141115,,*3D
$GPRMC,100845,A,4823.3335,N,426.1867,W,10.00,136.34,141115,,*37
$GPRMC,100845,A,4823.3026,N,426.1423,W,10.00,136.34,141115,,*3A
$GPRMC,100845,A,4823.2716,N,426.0980,W,10.00,136.34,141115,,*3A
$GPRMC,100845,A,4823.2406,N,426.0536,W,10.00,136.34,141115,,*39
$GPRMC,100845,A,4823.2097,N,426.0093,W,10.00,136.34,141115,,*3F
$GPRMC,100845,A,4823.1787,N,425.9650,W,10.00,136.34,141115,,*39
$GPRMC,100845,A,4823.1477,N,425.9206,W,10.00,136.34,141115,,*32
$GPRMC,100845,A,4823.1244,N,425.8872,W,10.00,236.61,141115,,*3F
$GPRMC,100845,A,4823.0895,N,425.9667,W,10.00,236.61,141115,,*33
$GPRMC,100845,A,4823.0546,N,426.0462,W,10.00,236.61,141115,,*3D
$GPRMC,100845,A,4823.0197,N,426.1257,W,10.00,236.61,141115,,*34
$GPRMC,100845,A,4822.9848,N,426.2052,W,10.00,236.61,141115,,*33
$GPRMC,100845,A,4822.9499,N,426.2847,W,10.00,236.61,141115,,*3F
$GPRMC,100845,A,4822.9150,N,426.3642,W,10.00,236.61,141115,,*35
$GPRMC,100845,A,4822.8800,N,426.4437,W,10.00,236.61,141115,,*3F
$GPRMC,100845,A,4822.8451,N,426.5231,W,10.00,236.61,141115,,*36
$GPRMC,100845,A,4822.8102,N,426.6026,W,10.00,236.61,141115,,*32
$GPRMC,100845,A,4822.7753,N,426.6821,W,10.00,236.61,141115,,*30
$GPRMC,100845,A,4822.7404,N,426.7616,W,10.00,236.61,141115,,*3A
$GPRMC,100845,A,4822.7055,N,426.8411,W,10.00,236.61,141115,,*30
$GPRMC,100845,A,4822.6706,N,426.9205,W,10.00,236.61,141115,,*32
$GPRMC,100845,A,4822.6357,N,427.0000,W,10.00,236.61,141115,,*3D
$GPRMC,100845,A,4822.6007,N,427.0795,W,10.00,236.61,141115,,*30
$GPRMC,100845,A,4822.5658,N,427.1589,W,10.00,236.61,141115,,*31
$GPRMC,100845,A,4822.5309,N,427.2384,W,10.00,236.61,141115,,*38
$GPRMC,100845,A,4822.4960,N,427.3179,W,10.00,236.61,141115,,*3D
$GPRMC,100845,A,4822.4926,N,427.3255,W,10.00,295.49,141115,,*31
$GPRMC,100845,A,4822.5348,N,427.4583,W,10.00,295.49,141115,,*39
$GPRMC,100845,A,4822.5770,N,427.5911,W,10.00,295.49,141115,,*30
$GPRMC,100845,A,4822.6191,N,427.7239,W,10.00,295.49,141115,,*39
$GPRMC,100845,A,4822.6613,N,427.8566,W,10.00,295.49,141115,,*36
$GPRMC,100845,A,4822.7035,N,427.9894,W,10.00,295.49,141115,,*34
$GPRMC,100845,A,4822.7456,N,428.1222,W,10.00,295.49,141115,,*35
$GPRMC,100845,A,4822.7878,N,428.2550,W,10.00,295.49,141115,,*34
$GPRMC,100845,A,4822.8122,N,428.3319,W,10.00,209.45,141115,,*3E
$GPRMC,100845,A,4822.6728,N,428.4501,W,10.00,209.45,141115,,*34
$GPRMC,100845,A,4822.5334,N,428.5682,W,10.00,209.45,141115,,*37
