$GPRMC,073455,A,4821.6925,N,429.0371,W,10.00,190.25,211215,,*38
$GPRMC,073455,A,4821.6274,N,429.0548,W,10.00,190.25,211215,,*3B
$GPRMC,073455,A,4821.5624,N,429.0724,W,10.00,190.25,211215,,*31
$GPRMC,073455,A,4821.4974,N,429.0901,W,10.00,190.25,211215,,*33
$GPRMC,073455,A,4821.4323,N,429.1077,W,10.00,190.25,211215,,*32
$GPRMC,073455,A,4821.3673,N,429.1254,W,10.00,190.25,211215,,*36
$GPRMC,073455,A,4821.3023,N,429.1430,W,10.00,190.25,211215,,*31
$GPRMC,073455,A,4821.2372,N,429.1607,W,10.00,190.25,211215,,*31
$GPRMC,073455,A,4821.1722,N,429.1783,W,10.00,190.25,211215,,*3E
$GPRMC,073455,A,4821.1072,N,429.1960,W,10.00,190.25,211215,,*3F
$GPRMC,073455,A,4821.0421,N,429.2136,W,10.00,190.25,211215,,*34
$GPRMC,073455,A,4820.9771,N,429.2312,W,10.00,190.25,211215,,*3E
$GPRMC,073455,A,4820.9121,N,429.2489,W,10.00,190.25,211215,,*38
$GPRMC,073455,A,4820.8470,N,429.2665,W,10.00,190.25,211215,,*38
$GPRMC,073455,A,4820.7820,N,429.2842,W,10.00,190.25,211215,,*35
$GPRMC,073455,A,4820.7170,N,429.3018,W,10.00,190.25,211215,,*3F
$GPRMC,073455,A,4820.6520,N,429.3195,W,10.00,190.25,211215,,*3B
$GPRMC,073455,A,4820.6086,N,429.3312,W,10.00,225.72,211215,,*30
$GPRMC,073455,A,4820.5599,N,429.4061,W,10.00,225.72,211215,,*38
$GPRMC,073455,A,4820.5112,N,429.4811,W,10.00,225.72,211215,,*30
$GPRMC,073455,A,4820.4625,N,429.5560,W,10.00,225.72,211215,,*38
$GPRMC,073455,A,4820.4137,N,429.6310,W,10.00,225.72,211215,,*3E
$GPRMC,073455,A,4820.3650,N,429.7059,W,10.00,225.72,211215,,*30
$GPRMC,073455,A,4820.3163,N,429.7808,W,10.00,225.72,211215,,*3B
$GPRMC,073455,A,4820.2675,N,429.8558,W,10.00,225.72,211215,,*3D
$GPRMC,073455,A,4820.2188,N,429.9307,W,10.00,225.72,211215,,*35
$GPRMC,073455,A,4820.1701,N,430.0056,W,10.00,225.72,211215,,*37
$GPRMC,073455,A,4820.1213,N,430.0806,W,10.00,225.72,211215,,*3C
$GPRMC,073455,A,4820.0726,N,430.1555,W,10.00,225.72,211215,,*34
$GPRMC,073455,A,4820.0239,N,430.2304,W,10.00,225.72,211215,,*3E
$GPRMC,073455,A,4819.9751,N,430.3053,W,10.00,225.72,211215,,*36
$GPRMC,073455,A,4819.9264,N,430.3802,W,10.00,225.72,211215,,*39
$GPRMC,073455,A,4819.8804,N,430.4509,W,10.00,348.52,211215,,*3D
$GPRMC,073455,A,4819.9470,N,430.4713,W,10.00,348.52,211215,,*3A
$GPRMC,073455,A,4820.0137,N,430.4916,W,10.00,348.52,211215,,*34
$GPRMC,073455,A,4820.0804,N,430.5119,W,10.00,348.52,211215,,*3B
$GPRMC,073455,A,4820.1471,N,430.5322,W,10.00,348.52,211215,,*3E
$GPRMC,073455,A,4820.2137,N,430.5525,W,10.00,348.52,211215,,*3B
$GPRMC,073455,A,4820.2804,N,430.5728,W,10.00,348.52,211215,,*3D
$GPRMC,073455,A,4820.3471,N,430.5932,W,10.00,348.52,211215,,*37
$GPRMC,073455,A,4820.4138,N,430.6135,W,10.00,348.52,211215,,*34
$GPRMC,073455,A,4820.4804,N,430.6338,W,10.00,348.52,211215,,*3D
$GPRMC,073455,A,4820.5471,N,430.6541,W,10.00,348.52,211215,,*3A
$GPRMC,073455,A,4820.6138,N,430.6744,W,10.00,348.52,211215,,*36
$GPRMC,073455,A,4820.6804,N,430.6948,W,10.00,348.52,211215,,*32
$GPRMC,073455,A,4820.7471,N,430.7151,W,10.00,348.52,211215,,*3C
$GPRMC,073455,A,4820.8138,N,430.7354,W,10.00,348.52,211215,,*3C
$GPRMC,073455,A,4820.8805,N,430.7557,W,10.00,348.52,211215,,*3E
$GPRMC,073455,A,4820.9288,N,430.7705,W,10.00,277.03,211215,,*3C
$GPRMC,073455,A,4820.9365,N,430.8636,W,10.00,277.03,211215,,*30
$GPRMC,073455,A,4820.9441,N,430.9567,W,10.00,277.03,211215,,*37
$GPRMC,073455,A,4820.9517,N,431.0499,W,10.00,277.03,211215,,*3D
$GPRMC,073455,A,4820.9594,N,431.1430,W,10.00,277.03,211215,,*34
$GPRMC,073455,A,4820.9670,N,431.2361,W,10.00,277.03,211215,,*3D
$GPRMC,073455,A,4820.9747,N,431.3293,W,10.00,277.03,211215,,*35
$GPRMC,073455,A,4820.9823,N,431.4224,W,10.00,277.03,211215,,*33
$GPRMC,073455,A,4820.9900,N,431.5156,W,10.00,277.03,211215,,*34
$GPRMC,073455,A,4820.9976,N,431.6087,W,10.00,277.03,211215,,*3B
$GPRMC,073455,A,4821.0052,N,431.7018,W,10.00,277.03,211215,,*3B
$GPRMC,073455,A,4821.0129,N,431.7950,W,10.00,277.03,211215,,*33
$GPRMC,073455,A,4821.0205,N,431.8881,W,10.00,277.03,211215,,*3C
$GPRMC,073455,A,4821.0282,N,431.9812,W,10.00,277.03,211215,,*38
$GPRMC,073455,A,4821.0358,N,432.0744,W,10.00,277.03,211215,,*38
$GPRMC,073455,A,4821.0434,N,432.1675,W,10.00,277.03,211215,,*37
$GPRMC,073455,A,4821.0511,N,432.2607,W,10.00,277.03,211215,,*37
$GPRMC,073455,A,4821.0587,N,432.3538,W,10.00,277.03,211215,,*36
$GPRMC,073455,A,4821.0663,N,432.4469,W,10.00,277.03,211215,,*3D
$GPRMC,073455,A,4821.0709,N,432.5032,W,10.00,256.66,211215,,*3B
$GPRMC,073455,A,4821.0467,N,432.6563,W,10.00,256.66,211215,,*32
$GPRMC,073455,A,4821.0225,N,432.8095,W,10.00,256.66,211215,,*30
$GPRMC,073455,A,4820.9983,N,432.9626,W,10.00,256.66,211215,,*30
$GPRMC,073455,A,4820.9741,N,433.1157,W,10.00,256.66,211215,,*38
$GPRMC,073455,A,4820.9499,N,433.2688,W,10.00,256.66,211215,,*38
$GPRMC,073455,A,4820.9257,N,433.4219,W,10.00,256.66,211215,,*36
$GPRMC,073455,A,4820.9108,N,433.5161,W,10.00,244.74,211215,,*32
$GPRMC,073455,A,4820.8926,N,433.5739,W,10.00,244.74,211215,,*3C
$GPRMC,073455,A,4820.8744,N,433.6317,W,10.00,244.74,211215,,*3D
$GPRMC,073455,A,4820.8562,N,433.6895,W,10.00,244.74,211215,,*3A
$GPRMC,073455,A,4820.8381,N,433.7473,W,10.00,244.74,211215,,*34
$GPRMC,073455,A,4820.8199,N,433.8051,W,10.00,244.74,211215,,*34
$GPRMC,073455,A,4820.8017,N,433.8629,W,10.00,244.74,211215,,*3A
$GPRMC,073455,A,4820.7835,N,433.9207,W,10.00,244.74,211215,,*34
$GPRMC,073455,A,4820.7653,N,433.9785,W,10.00,244.74,211215,,*35
$GPRMC,073455,A,4820.7472,N,434.0363,W,10.00,244.74,211215,,*36
$GPRMC,073455,A,4820.7290,N,434.0941,W,10.00,244.74,211215,,*36
$GPRMC,073455,A,4820.7108,N,434.1519,W,10.00,244.74,211215,,*34
$GPRMC,073455,A,4820.6926,N,434.2097,W,10.00,244.74,211215,,*31
$GPRMC,073455,A,4820.6744,N,434.2675,W,10.00,244.74,211215,,*31
$GPRMC,073455,A,4820.6562,N,434.3253,W,10.00,244.74,211215,,*36
$GPRMC,073455,A,4820.6381,N,434.3831,W,10.00,244.74,211215,,*33
$GPRMC,073455,A,4820.6199,N,434.4409,W,10.00,244.74,211215,,*38
$GPRMC,073455,A,4820.6017,N,434.4986,W,10.00,244.74,211215,,*35
$GPRMC,073455,A,4820.5835,N,434.5564,W,10.00,244.74,211215,,*3F
$GPRMC,073455,A,4820.5653,N,434.6142,W,10.00,244.74,211215,,*32
$GPRMC,073455,A,4820.5471,N,434.6720,W,10.00,244.74,211215,,*32
$GPRMC,073455,A,4820.5289,N,434.7298,W,10.00,244.74,211215,,*34
$GPRMC,073455,A,4820.5108,N,434.7876,W,10.00,244.74,211215,,*34
$GPRMC,073455,A,4820.4926,N,434.8454,W,10.00,244.74,211215,,*32
$GPRMC,073455,A,4820.4744,N,434.9031,W,10.00,244.74,211215,,*3E
$GPRMC,073455,A,4820.4562,N,434.9609,W,10.00,244.74,211215,,*35
$GPRMC,073455,A,4820.4380,N,435.0187,W,10.00,244.74,211215,,*36
$GPRMC,073455,A,4820.4198,N,435.0765,W,10.00,244.74,211215,,*37
$GPRMC,073455,A,4820.4016,N,435.1343,W,10.00,244.74,211215,,*31
$GPRMC,073455,A,4820.3834,N,435.1921,W,10.00,244.74,211215,,*30
$GPRMC,073455,A,4820.3652,N,435.2498,W,10.00,244.74,211215,,*32
$GPRMC,073455,A,4820.3470,N,435.3076,W,10.00,244.74,211215,,*35
$GPRMC,073455,A,4820.3289,N,435.3654,W,10.00,244.74,211215,,*33
$GPRMC,073455,A,4820.3107,N,435.4232,W,10.00,244.74,211215,,*35
$GPRMC,073455,A,4820.2925,N,435.4809,W,10.00,244.74,211215,,*3E
$GPRMC,073455,A,4820.2743,N,435.5387,W,10.00,244.74,211215,,*3C
$GPRMC,073455,A,4820.2561,N,435.5965,W,10.00,244.74,211215,,*38
$GPRMC,073455,A,4820.2379,N,435.6543,W,10.00,244.74,211215,,*3C
$GPRMC,073455,A,4820.2197,N,435.7120,W,10.00,244.74,211215,,*3E
$GPRMC,073455,A,4820.2015,N,435.7698,W,10.00,244.74,211215,,*31
$GPRMC,073455,A,4820.1833,N,435.8276,W,10.00,244.74,211215,,*35
$GPRMC,073455,A,4820.1813,N,435.8338,W,10.00,232.59,211215,,*32
$GPRMC,073455,A,4820.1454,N,435.9042,W,10.00,232.59,211215,,*32
$GPRMC,073455,A,4820.1095,N,435.9747,W,10.00,232.59,211215,,*39
$GPRMC,073455,A,4820.0735,N,436.0452,W,10.00,232.59,211215,,*38
$GPRMC,073455,A,4820.0376,N,436.1156,W,10.00,232.59,211215,,*3B
$GPRMC,073455,A,4820.0017,N,436.1861,W,10.00,232.59,211215,,*32
$GPRMC,073455,A,4819.9657,N,436.2565,W,10.00,232.59,211215,,*39
$GPRMC,073455,A,4819.9298,N,436.3270,W,10.00,232.59,211215,,*3C
$GPRMC,073455,A,4819.8938,N,436.3974,W,10.00,232.59,211215,,*33
$GPRMC,073455,A,4819.8579,N,436.4679,W,10.00,232.59,211215,,*3F
$GPRMC,073455,A,4819.8220,N,436.5383,W,10.00,232.59,211215,,*35
$GPRMC,073455,A,4819.7860,N,436.6088,W,10.00,232.59,211215,,*3F
$GPRMC,073455,A,4819.7501,N,436.6792,W,10.00,232.59,211215,,*39
$GPRMC,073455,A,4819.7141,N,436.7497,W,10.00,232.59,211215,,*3E
$GPRMC,073455,A,4819.6782,N,436.8201,W,10.00,232.59,211215,,*30
$GPRMC,073455,A,4819.6422,N,436.8905,W,10.00,232.59,211215,,*36
$GPRMC,073455,A,4819.6063,N,436.9610,W,10.00,232.59,211215,,*3D
$GPRMC,073455,A,4819.5703,N,437.0314,W,10.00,232.59,211215,,*36
$GPRMC,073455,A,4819.5344,N,437.1018,W,10.00,232.59,211215,,*3F
$GPRMC,073455,A,4819.4985,N,437.1723,W,10.00,232.59,211215,,*36
$GPRMC,073455,A,4819.4625,N,437.2427,W,10.00,232.59,211215,,*37
$GPRMC,073455,A,4819.4335,N,437.2994,W,10.00,192.93,211215,,*39
$GPRMC,073455,A,4819.3588,N,437.3252,W,10.00,192.93,211215,,*3E
$GPRMC,073455,A,4819.2840,N,437.3509,W,10.00,192.93,211215,,*3F
$GPRMC,073455,A,4819.2092,N,437.3767,W,10.00,192.93,211215,,*32
$GPRMC,073455,A,4819.1344,N,437.4024,W,10.00,192.93,211215,,*3E
$GPRMC,073455,A,4819.0596,N,437.4282,W,10.00,192.93,211215,,*38
$GPRMC,073455,A,4818.9848,N,437.4539,W,10.00,192.93,211215,,*39
$GPRMC,073455,A,4818.9100,N,437.4797,W,10.00,192.93,211215,,*3A
$GPRMC,073455,A,4818.8353,N,437.5054,W,10.00,192.93,211215,,*36
$GPRMC,073455,A,4818.7605,N,437.5312,W,10.00,192.93,211215,,*3E
$GPRMC,073455,A,4818.6857,N,437.5569,W,10.00,192.93,211215,,*3C
$GPRMC,073455,A,4818.6109,N,437.5826,W,10.00,192.93,211215,,*38
$GPRMC,073455,A,4818.5361,N,437.6084,W,10.00,192.93,211215,,*34
