$GPRMC,013845,A,4824.0033,N,448.0407,W,10.00,295.27,130316,,*39
$GPRMC,013845,A,4824.0191,N,448.0911,W,10.00,295.27,130316,,*3A
$GPRMC,013845,A,4824.0349,N,448.1414,W,10.00,295.27,130316,,*34
$GPRMC,013845,A,4824.0508,N,448.1918,W,10.00,295.27,130316,,*36
$GPRMC,013845,A,4824.0666,N,448.2421,W,10.00,295.27,130316,,*39
$GPRMC,013845,A,4824.0824,N,448.2925,W,10.00,295.27,130316,,*38
$GPRMC,013845,A,4824.0982,N,448.3428,W,10.00,295.27,130316,,*34
$GPRMC,013845,A,4824.1141,N,448.3932,W,10.00,295.27,130316,,*34
$GPRMC,013845,A,4824.1299,N,448.4435,W,10.00,295.27,130316,,*3F
$GPRMC,013845,A,4824.1457,N,448.4939,W,10.00,295.27,130316,,*3A
$GPRMC,013845,A,4824.1615,N,448.5442,W,10.00,295.27,130316,,*3E
$GPRMC,013845,A,4824.1774,N,448.5946,W,10.00,295.27,130316,,*31
$GPRMC,013845,A,4824.1932,N,448.6449,W,10.00,295.27,130316,,*3C
$GPRMC,013845,A,4824.2090,N,448.6953,W,10.00,295.27,130316,,*38
$GPRMC,013845,A,4824.2248,N,448.7456,W,10.00,295.27,130316,,*36
$GPRMC,013845,A,4824.2407,N,448.7960,W,10.00,295.27,130316,,*33
$GPRMC,013845,A,4824.2565,N,448.8464,W,10.00,295.27,130316,,*30
$GPRMC,013845,A,4824.2723,N,448.8967,W,10.00,295.27,130316,,*3E
$GPRMC,013845,A,4824.2881,N,448.9471,W,10.00,295.27,130316,,*32
$GPRMC,013845,A,4824.3040,N,448.9974,W,10.00,295.27,130316,,*3E
$GPRMC,013845,A,4824.3198,N,449.0478,W,10.00,295.27,130316,,*33
$GPRMC,013845,A,4824.3356,N,449.0981,W,10.00,295.27,130316,,*38
$GPRMC,013845,A,4824.3514,N,449.1485,W,10.00,295.27,130316,,*30
$GPRMC,013845,A,4824.3673,N,449.1989,W,10.00,295.27,130316,,*33
$GPRMC,013845,A,4824.3831,N,449.2492,W,10.00,295.27,130316,,*3F
$GPRMC,013845,A,4824.3989,N,449.2996,W,10.00,295.27,130316,,*34
$GPRMC,013845,A,4824.4147,N,449.3500,W,10.00,295.27,130316,,*3B
$GPRMC,013845,A,4824.4305,N,449.4003,W,10.00,295.27,130316,,*3E
$GPRMC,013845,A,4824.4464,N,449.4507,W,10.00,295.27,130316,,*3F
$GPRMC,013845,A,4824.4622,N,449.5010,W,10.00,295.27,130316,,*3D
$GPRMC,013845,A,4824.4780,N,449.5514,W,10.00,295.27,130316,,*35
$GPRMC,013845,A,4824.4938,N,449.6018,W,10.00,295.27,130316,,*32
$GPRMC,013845,A,4824.5096,N,449.6521,W,10.00,295.27,130316,,*31
$GPRMC,013845,A,4824.5254,N,449.7025,W,10.00,295.27,130316,,*3D
$GPRMC,013845,A,4824.5413,N,449.7529,W,10.00,295.27,130316,,*31
$GPRMC,013845,A,4824.5571,N,449.8032,W,10.00,295.27,130316,,*34
$GPRMC,013845,A,4824.5729,N,449.8536,W,10.00,295.27,130316,,*3A
$GPRMC,013845,A,4824.5887,N,449.9040,W,10.00,295.27,130316,,*34
$GPRMC,013845,A,4824.6045,N,449.9543,W,10.00,295.27,130316,,*37
$GPRMC,013845,A,4824.6203,N,450.0047,W,10.00,295.27,130316,,*37
$GPRMC,013845,A,4824.6362,N,450.0551,W,10.00,295.27,130316,,*33
$GPRMC,013845,A,4824.6520,N,450.1055,W,10.00,295.27,130316,,*33
$GPRMC,013845,A,4824.6678,N,450.1558,W,10.00,295.27,130316,,*35
$GPRMC,013845,A,4824.6836,N,450.2062,W,10.00,295.27,130316,,*3E
$GPRMC,013845,A,4824.6994,N,450.2566,W,10.00,295.27,130316,,*36
$GPRMC,013845,A,4824.7152,N,450.3069,W,10.00,295.27,130316,,*3E
$GPRMC,013845,A,4824.7310,N,450.3573,W,10.00,295.27,130316,,*34
$GPRMC,013845,A,4824.7469,N,450.4077,W,10.00,295.27,130316,,*3B
$GPRMC,013845,A,4824.7627,N,450.4581,W,10.00,295.27,130316,,*3F
$GPRMC,013845,A,4824.7785,N,450.5084,W,10.00,295.27,130316,,*37
$GPRMC,013845,A,4824.7943,N,450.5588,W,10.00,295.27,130316,,*3A
$GPRMC,013845,A,4824.8101,N,450.6092,W,10.00,295.27,130316,,*36
$GPRMC,013845,A,4824.8259,N,450.6596,W,10.00,295.27,130316,,*39
$GPRMC,013845,A,4824.8409,N,450.7073,W,10.00,18.61,130316,,*00
$GPRMC,013845,A,4824.8987,N,450.6781,W,10.00,18.61,130316,,*00
$GPRMC,013845,A,4824.9565,N,450.6489,W,10.00,18.61,130316,,*0A
$GPRMC,013845,A,4825.0143,N,450.6196,W,10.00,18.61,130316,,*09
$GPRMC,013845,A,4825.0721,N,450.5904,W,10.00,18.61,130316,,*0B
$GPRMC,013845,A,4825.1299,N,450.5611,W,10.00,18.61,130316,,*07
$GPRMC,013845,A,4825.1877,N,450.5319,W,10.00,18.61,130316,,*00
$GPRMC,013845,A,4825.2455,N,450.5027,W,10.00,18.61,130316,,*01
$GPRMC,013845,A,4825.3032,N,450.4734,W,10.00,18.61,130316,,*01
$GPRMC,013845,A,4825.3610,N,450.4442,W,10.00,18.61,130316,,*05
$GPRMC,013845,A,4825.4188,N,450.4149,W,10.00,18.61,130316,,*0A
$GPRMC,013845,A,4825.4766,N,450.3857,W,10.00,18.61,130316,,*0D
$GPRMC,013845,A,4825.5344,N,450.3565,W,10.00,18.61,130316,,*04
$GPRMC,013845,A,4825.5922,N,450.3272,W,10.00,18.61,130316,,*0F
$GPRMC,013845,A,4825.6500,N,450.2980,W,10.00,18.61,130316,,*07
$GPRMC,013845,A,4825.7078,N,450.2687,W,10.00,18.61,130316,,*04
$GPRMC,013845,A,4825.7656,N,450.2395,W,10.00,18.61,130316,,*08
$GPRMC,013845,A,4825.8234,N,450.2102,W,10.00,18.61,130316,,*0B
$GPRMC,013845,A,4825.8812,N,450.1810,W,10.00,18.61,130316,,*0C
$GPRMC,013845,A,4825.9390,N,450.1517,W,10.00,18.61,130316,,*06
