$GPRMC,123107,A,4821.9539,N,429.1613,W,10.00,165.70,161016,,*3F
$GPRMC,123107,A,4821.9398,N,429.1560,W,10.00,165.70,161016,,*35
$GPRMC,123107,A,4821.9258,N,429.1506,W,10.00,165.70,161016,,*38
$GPRMC,123107,A,4821.9118,N,429.1452,W,10.00,165.70,161016,,*3F
$GPRMC,123107,A,4821.8977,N,429.1399,W,10.00,165.70,161016,,*3F
$GPRMC,123107,A,4821.8837,N,429.1345,W,10.00,165.70,161016,,*3B
$GPRMC,123107,A,4821.8697,N,429.1291,W,10.00,165.70,161016,,*37
$GPRMC,123107,A,4821.8556,N,429.1238,W,10.00,165.70,161016,,*3A
$GPRMC,123107,A,4821.8416,N,429.1184,W,10.00,165.70,161016,,*3B
$GPRMC,123107,A,4821.8276,N,429.1130,W,10.00,165.70,161016,,*34
$GPRMC,123107,A,4821.8135,N,429.1077,W,10.00,165.70,161016,,*32
$GPRMC,123107,A,4821.7995,N,429.1023,W,10.00,165.70,161016,,*3E
$GPRMC,123107,A,4821.7855,N,429.0969,W,10.00,165.70,161016,,*35
$GPRMC,123107,A,4821.7714,N,429.0916,W,10.00,165.70,161016,,*37
$GPRMC,123107,A,4821.7574,N,429.0862,W,10.00,165.70,161016,,*31
$GPRMC,123107,A,4821.7434,N,429.0808,W,10.00,165.70,161016,,*38
$GPRMC,123107,A,4821.7294,N,429.0755,W,10.00,165.70,161016,,*33
$GPRMC,123107,A,4821.7153,N,429.0701,W,10.00,165.70,161016,,*3A
$GPRMC,123107,A,4821.7013,N,429.0647,W,10.00,165.70,161016,,*3C
$GPRMC,123107,A,4821.6873,N,429.0594,W,10.00,165.70,161016,,*3E
$GPRMC,123107,A,4821.6732,N,429.0540,W,10.00,165.70,161016,,*3D
$GPRMC,123107,A,4821.6592,N,429.0487,W,10.00,165.70,161016,,*3F
$GPRMC,123107,A,4821.6452,N,429.0433,W,10.00,165.70,161016,,*3D
$GPRMC,123107,A,4821.6311,N,429.0379,W,10.00,165.70,161016,,*34
$GPRMC,123107,A,4821.6171,N,429.0326,W,10.00,165.70,161016,,*3A
$GPRMC,123107,A,4821.6031,N,429.0272,W,10.00,165.70,161016,,*3F
$GPRMC,123107,A,4821.5890,N,429.0218,W,10.00,165.70,161016,,*33
$GPRMC,123107,A,4821.5750,N,429.0165,W,10.00,165.70,161016,,*39
$GPRMC,123107,A,4821.5610,N,429.0111,W,10.00,165.70,161016,,*3F
$GPRMC,123107,A,4821.5469,N,429.0057,W,10.00,165.70,161016,,*30
$GPRMC,123107,A,4821.5329,N,429.0004,W,10.00,165.70,161016,,*35
$GPRMC,123107,A,4821.5189,N,428.9950,W,10.00,165.70,161016,,*3D
$GPRMC,123107,A,4821.5048,N,428.9896,W,10.00,165.70,161016,,*3A
$GPRMC,123107,A,4821.4908,N,428.9843,W,10.00,165.70,161016,,*3E
$GPRMC,123107,A,4821.4768,N,428.9789,W,10.00,165.70,161016,,*3F
$GPRMC,123107,A,4821.4667,N,428.9751,W,10.00,203.83,161016,,*3B
$GPRMC,123107,A,4821.4502,N,428.9861,W,10.00,203.83,161016,,*37
$GPRMC,123107,A,4821.4336,N,428.9970,W,10.00,203.83,161016,,*37
$GPRMC,123107,A,4821.4171,N,429.0080,W,10.00,203.83,161016,,*38
$GPRMC,123107,A,4821.4005,N,429.0190,W,10.00,203.83,161016,,*3A
$GPRMC,123107,A,4821.3839,N,429.0300,W,10.00,203.83,161016,,*31
$GPRMC,123107,A,4821.3674,N,429.0409,W,10.00,203.83,161016,,*38
$GPRMC,123107,A,4821.3508,N,429.0519,W,10.00,203.83,161016,,*30
$GPRMC,123107,A,4821.3342,N,429.0629,W,10.00,203.83,161016,,*38
$GPRMC,123107,A,4821.3177,N,429.0739,W,10.00,203.83,161016,,*3C
$GPRMC,123107,A,4821.3011,N,429.0848,W,10.00,203.83,161016,,*34
$GPRMC,123107,A,4821.2845,N,429.0958,W,10.00,203.83,161016,,*3C
$GPRMC,123107,A,4821.2680,N,429.1068,W,10.00,203.83,161016,,*30
$GPRMC,123107,A,4821.2514,N,429.1178,W,10.00,203.83,161016,,*3E
$GPRMC,123107,A,4821.2348,N,429.1288,W,10.00,203.83,161016,,*3D
$GPRMC,123107,A,4821.2183,N,429.1397,W,10.00,203.83,161016,,*37
$GPRMC,123107,A,4821.2017,N,429.1507,W,10.00,203.83,161016,,*34
$GPRMC,123107,A,4821.1852,N,429.1617,W,10.00,203.83,161016,,*3C
$GPRMC,123107,A,4821.1686,N,429.1727,W,10.00,203.83,161016,,*39
$GPRMC,123107,A,4821.1520,N,429.1836,W,10.00,203.83,161016,,*39
$GPRMC,123107,A,4821.1355,N,429.1946,W,10.00,203.83,161016,,*3B
$GPRMC,123107,A,4821.1189,N,429.2056,W,10.00,203.83,161016,,*33
$GPRMC,123107,A,4821.1023,N,429.2166,W,10.00,203.83,161016,,*30
$GPRMC,123107,A,4821.0991,N,429.2187,W,10.00,262.24,161016,,*34
$GPRMC,123107,A,4821.0979,N,429.2315,W,10.00,262.24,161016,,*3B
$GPRMC,123107,A,4821.0967,N,429.2442,W,10.00,262.24,161016,,*31
$GPRMC,123107,A,4821.0956,N,429.2570,W,10.00,262.24,161016,,*33
$GPRMC,123107,A,4821.0944,N,429.2698,W,10.00,262.24,161016,,*35
$GPRMC,123107,A,4821.0933,N,429.2825,W,10.00,262.24,161016,,*3D
$GPRMC,123107,A,4821.0921,N,429.2953,W,10.00,262.24,161016,,*3E
$GPRMC,123107,A,4821.0909,N,429.3080,W,10.00,262.24,161016,,*32
$GPRMC,123107,A,4821.0898,N,429.3208,W,10.00,262.24,161016,,*39
$GPRMC,123107,A,4821.0886,N,429.3335,W,10.00,262.24,161016,,*39
$GPRMC,123107,A,4821.0875,N,429.3463,W,10.00,262.24,161016,,*31
$GPRMC,123107,A,4821.0863,N,429.3590,W,10.00,262.24,161016,,*3B
$GPRMC,123107,A,4821.0851,N,429.3718,W,10.00,262.24,161016,,*38
$GPRMC,123107,A,4821.0840,N,429.3846,W,10.00,262.24,161016,,*3C
$GPRMC,123107,A,4821.0828,N,429.3973,W,10.00,262.24,161016,,*35
$GPRMC,123107,A,4821.0817,N,429.4101,W,10.00,262.24,161016,,*33
$GPRMC,123107,A,4821.0805,N,429.4228,W,10.00,262.24,161016,,*38
$GPRMC,123107,A,4821.0793,N,429.4356,W,10.00,262.24,161016,,*30
$GPRMC,123107,A,4821.0782,N,429.4483,W,10.00,262.24,161016,,*3F
$GPRMC,123107,A,4821.0770,N,429.4611,W,10.00,262.24,161016,,*3B
$GPRMC,123107,A,4821.0759,N,429.4738,W,10.00,262.24,161016,,*3A
$GPRMC,123107,A,4821.0747,N,429.4866,W,10.00,262.24,161016,,*31
$GPRMC,123107,A,4821.0735,N,429.4994,W,10.00,262.24,161016,,*38
$GPRMC,123107,A,4821.0724,N,429.5121,W,10.00,262.24,161016,,*3F
$GPRMC,123107,A,4821.0712,N,429.5249,W,10.00,262.24,161016,,*37
$GPRMC,123107,A,4821.0701,N,429.5376,W,10.00,262.24,161016,,*38
$GPRMC,123107,A,4821.0689,N,429.5504,W,10.00,262.24,161016,,*3A
$GPRMC,123107,A,4821.0678,N,429.5631,W,10.00,262.24,161016,,*31
$GPRMC,123107,A,4821.0666,N,429.5759,W,10.00,262.24,161016,,*31
$GPRMC,123107,A,4821.0654,N,429.5886,W,10.00,262.24,161016,,*3D
$GPRMC,123107,A,4821.0643,N,429.6014,W,10.00,262.24,161016,,*3B
$GPRMC,123107,A,4821.0631,N,429.6142,W,10.00,262.24,161016,,*3C
$GPRMC,123107,A,4821.0620,N,429.6269,W,10.00,262.24,161016,,*36
$GPRMC,123107,A,4821.0608,N,429.6397,W,10.00,262.24,161016,,*3C
$GPRMC,123107,A,4821.0596,N,429.6524,W,10.00,262.24,161016,,*36
$GPRMC,123107,A,4821.0585,N,429.6652,W,10.00,262.24,161016,,*36
$GPRMC,123107,A,4821.0573,N,429.6779,W,10.00,262.24,161016,,*37
$GPRMC,123107,A,4821.0562,N,429.6907,W,10.00,262.24,161016,,*30
$GPRMC,123107,A,4821.0550,N,429.7034,W,10.00,262.24,161016,,*39
$GPRMC,123107,A,4821.0538,N,429.7162,W,10.00,262.24,161016,,*35
$GPRMC,123107,A,4821.0527,N,429.7290,W,10.00,262.24,161016,,*35
$GPRMC,123107,A,4821.0515,N,429.7417,W,10.00,262.24,161016,,*3D
$GPRMC,123107,A,4821.0504,N,429.7545,W,10.00,262.24,161016,,*3B
$GPRMC,123107,A,4821.0492,N,429.7672,W,10.00,262.24,161016,,*32
$GPRMC,123107,A,4821.0480,N,429.7800,W,10.00,262.24,161016,,*3A
$GPRMC,123107,A,4821.0469,N,429.7927,W,10.00,262.24,161016,,*39
$GPRMC,123107,A,4821.0457,N,429.8055,W,10.00,262.24,161016,,*37
$GPRMC,123107,A,4821.0446,N,429.8182,W,10.00,262.24,161016,,*3C
$GPRMC,123107,A,4821.0434,N,429.8310,W,10.00,262.24,161016,,*30
$GPRMC,123107,A,4821.0422,N,429.8437,W,10.00,262.24,161016,,*35
$GPRMC,123107,A,4821.0411,N,429.8565,W,10.00,262.24,161016,,*33
$GPRMC,123107,A,4821.0399,N,429.8693,W,10.00,262.24,161016,,*3E
$GPRMC,123107,A,4821.0388,N,429.8820,W,10.00,262.24,161016,,*38
$GPRMC,123107,A,4821.0376,N,429.8948,W,10.00,262.24,161016,,*36
$GPRMC,123107,A,4821.0364,N,429.9075,W,10.00,262.24,161016,,*33
$GPRMC,123107,A,4821.0353,N,429.9203,W,10.00,262.24,161016,,*34
$GPRMC,123107,A,4821.0341,N,429.9330,W,10.00,262.24,161016,,*36
$GPRMC,123107,A,4821.0330,N,429.9458,W,10.00,262.24,161016,,*39
$GPRMC,123107,A,4821.0318,N,429.9585,W,10.00,262.24,161016,,*32
$GPRMC,123107,A,4821.0306,N,429.9713,W,10.00,262.24,161016,,*30
$GPRMC,123107,A,4821.0295,N,429.9841,W,10.00,262.24,161016,,*33
$GPRMC,123107,A,4821.0283,N,429.9968,W,10.00,262.24,161016,,*3E
$GPRMC,123107,A,4821.0272,N,430.0096,W,10.00,262.24,161016,,*39
$GPRMC,123107,A,4821.0260,N,430.0223,W,10.00,262.24,161016,,*36
$GPRMC,123107,A,4821.0248,N,430.0351,W,10.00,262.24,161016,,*38
$GPRMC,123107,A,4821.0237,N,430.0478,W,10.00,262.24,161016,,*3C
$GPRMC,123107,A,4821.0225,N,430.0606,W,10.00,262.24,161016,,*34
$GPRMC,123107,A,4821.0213,N,430.0733,W,10.00,262.24,161016,,*36
$GPRMC,123107,A,4821.0202,N,430.0861,W,10.00,262.24,161016,,*3E
$GPRMC,123107,A,4821.0190,N,430.0989,W,10.00,262.24,161016,,*31
$GPRMC,123107,A,4821.0179,N,430.1116,W,10.00,262.24,161016,,*39
$GPRMC,123107,A,4821.0167,N,430.1244,W,10.00,262.24,161016,,*32
$GPRMC,123107,A,4821.0155,N,430.1371,W,10.00,262.24,161016,,*34
$GPRMC,123107,A,4821.0144,N,430.1499,W,10.00,262.24,161016,,*35
$GPRMC,123107,A,4821.0132,N,430.1626,W,10.00,262.24,161016,,*32
$GPRMC,123107,A,4821.0121,N,430.1754,W,10.00,262.24,161016,,*34
$GPRMC,123107,A,4821.0109,N,430.1881,W,10.00,262.24,161016,,*39
$GPRMC,123107,A,4821.0097,N,430.2009,W,10.00,262.24,161016,,*34
$GPRMC,123107,A,4821.0086,N,430.2136,W,10.00,262.24,161016,,*39
$GPRMC,123107,A,4821.0074,N,430.2264,W,10.00,262.24,161016,,*30
$GPRMC,123107,A,4821.0063,N,430.2392,W,10.00,262.24,161016,,*3E
$GPRMC,123107,A,4821.0051,N,430.2519,W,10.00,262.24,161016,,*3A
$GPRMC,123107,A,4821.0039,N,430.2647,W,10.00,262.24,161016,,*3C
$GPRMC,123107,A,4821.0028,N,430.2774,W,10.00,262.24,161016,,*3D
$GPRMC,123107,A,4821.0016,N,430.2902,W,10.00,262.24,161016,,*3F
$GPRMC,123107,A,4821.0005,N,430.3029,W,10.00,262.24,161016,,*3C
$GPRMC,123107,A,4820.9993,N,430.3157,W,10.00,262.24,161016,,*3A
$GPRMC,123107,A,4820.9981,N,430.3284,W,10.00,262.24,161016,,*34
$GPRMC,123107,A,4820.9970,N,430.3412,W,10.00,262.24,161016,,*33
$GPRMC,123107,A,4820.9958,N,430.3540,W,10.00,262.24,161016,,*3F
$GPRMC,123107,A,4820.9946,N,430.3667,W,10.00,262.24,161016,,*36
$GPRMC,123107,A,4820.9935,N,430.3795,W,10.00,262.24,161016,,*3E
$GPRMC,123107,A,4820.9923,N,430.3922,W,10.00,262.24,161016,,*3B
$GPRMC,123107,A,4820.9912,N,430.4050,W,10.00,262.24,161016,,*32
$GPRMC,123107,A,4820.9900,N,430.4177,W,10.00,262.24,161016,,*35
$GPRMC,123107,A,4820.9888,N,430.4305,W,10.00,262.24,161016,,*33
$GPRMC,123107,A,4820.9877,N,430.4432,W,10.00,262.24,161016,,*30
$GPRMC,123107,A,4820.9865,N,430.4560,W,10.00,262.24,161016,,*35
$GPRMC,123107,A,4820.9854,N,430.4687,W,10.00,262.24,161016,,*3D
$GPRMC,123107,A,4820.9844,N,430.4797,W,10.00,276.48,161016,,*33
$GPRMC,123107,A,4820.9858,N,430.4980,W,10.00,276.48,161016,,*36
$GPRMC,123107,A,4820.9871,N,430.5164,W,10.00,276.48,161016,,*3E
$GPRMC,123107,A,4820.9885,N,430.5347,W,10.00,276.48,161016,,*36
$GPRMC,123107,A,4820.9899,N,430.5531,W,10.00,276.48,161016,,*3C
$GPRMC,123107,A,4820.9913,N,430.5714,W,10.00,276.48,161016,,*3A
$GPRMC,123107,A,4820.9927,N,430.5898,W,10.00,276.48,161016,,*36
$GPRMC,123107,A,4820.9941,N,430.6081,W,10.00,276.48,161016,,*35
$GPRMC,123107,A,4820.9955,N,430.6265,W,10.00,276.48,161016,,*38
$GPRMC,123107,A,4820.9969,N,430.6448,W,10.00,276.48,161016,,*3E
$GPRMC,123107,A,4820.9983,N,430.6632,W,10.00,276.48,161016,,*35
$GPRMC,123107,A,4820.9996,N,430.6815,W,10.00,276.48,161016,,*3A
$GPRMC,123107,A,4821.0010,N,430.6999,W,10.00,276.48,161016,,*30
$GPRMC,123107,A,4821.0024,N,430.7182,W,10.00,276.48,161016,,*34
$GPRMC,123107,A,4821.0038,N,430.7366,W,10.00,276.48,161016,,*31
$GPRMC,123107,A,4821.0052,N,430.7549,W,10.00,276.48,161016,,*36
$GPRMC,123107,A,4821.0066,N,430.7733,W,10.00,276.48,161016,,*3E
$GPRMC,123107,A,4821.0080,N,430.7917,W,10.00,276.48,161016,,*3E
$GPRMC,123107,A,4821.0094,N,430.8100,W,10.00,276.48,161016,,*3A
$GPRMC,123107,A,4821.0108,N,430.8284,W,10.00,276.48,161016,,*31
$GPRMC,123107,A,4821.0121,N,430.8467,W,10.00,276.48,161016,,*31
$GPRMC,123107,A,4821.0135,N,430.8651,W,10.00,276.48,161016,,*33
$GPRMC,123107,A,4821.0149,N,430.8834,W,10.00,276.48,161016,,*35
$GPRMC,123107,A,4821.0163,N,430.9018,W,10.00,276.48,161016,,*3A
$GPRMC,123107,A,4821.0177,N,430.9201,W,10.00,276.48,161016,,*35
$GPRMC,123107,A,4821.0191,N,430.9385,W,10.00,276.48,161016,,*30
$GPRMC,123107,A,4821.0205,N,430.9568,W,10.00,276.48,161016,,*3B
$GPRMC,123107,A,4821.0219,N,430.9752,W,10.00,276.48,161016,,*3D
$GPRMC,123107,A,4821.0233,N,430.9935,W,10.00,276.48,161016,,*3A
$GPRMC,123107,A,4821.0246,N,431.0119,W,10.00,276.48,161016,,*36
$GPRMC,123107,A,4821.0260,N,431.0302,W,10.00,276.48,161016,,*3A
$GPRMC,123107,A,4821.0274,N,431.0486,W,10.00,276.48,161016,,*34
$GPRMC,123107,A,4821.0288,N,431.0669,W,10.00,276.48,161016,,*34
$GPRMC,123107,A,4821.0302,N,431.0853,W,10.00,276.48,161016,,*30
$GPRMC,123107,A,4821.0316,N,431.1036,W,10.00,276.48,161016,,*3F
$GPRMC,123107,A,4821.0330,N,431.1220,W,10.00,276.48,161016,,*3E
$GPRMC,123107,A,4821.0344,N,431.1404,W,10.00,276.48,161016,,*3D
$GPRMC,123107,A,4821.0357,N,431.1587,W,10.00,276.48,161016,,*35
$GPRMC,123107,A,4821.0371,N,431.1771,W,10.00,276.48,161016,,*3A
$GPRMC,123107,A,4821.0385,N,431.1954,W,10.00,276.48,161016,,*38
$GPRMC,123107,A,4821.0399,N,431.2138,W,10.00,276.48,161016,,*34
$GPRMC,123107,A,4821.0413,N,431.2321,W,10.00,276.48,161016,,*3B
$GPRMC,123107,A,4821.0427,N,431.2505,W,10.00,276.48,161016,,*3C
$GPRMC,123107,A,4821.0441,N,431.2688,W,10.00,276.48,161016,,*3A
$GPRMC,123107,A,4821.0455,N,431.2872,W,10.00,276.48,161016,,*34
$GPRMC,123107,A,4821.0468,N,431.3055,W,10.00,276.48,161016,,*36
$GPRMC,123107,A,4821.0482,N,431.3239,W,10.00,276.48,161016,,*3A
$GPRMC,123107,A,4821.0496,N,431.3422,W,10.00,276.48,161016,,*33
$GPRMC,123107,A,4821.0510,N,431.3606,W,10.00,276.48,161016,,*38
$GPRMC,123107,A,4821.0510,N,431.3610,W,10.00,253.61,161016,,*33
$GPRMC,123107,A,4821.0481,N,431.3757,W,10.00,253.61,161016,,*38
$GPRMC,123107,A,4821.0453,N,431.3904,W,10.00,253.61,161016,,*3F
$GPRMC,123107,A,4821.0424,N,431.4051,W,10.00,253.61,161016,,*31
$GPRMC,123107,A,4821.0395,N,431.4198,W,10.00,253.61,161016,,*38
$GPRMC,123107,A,4821.0366,N,431.4346,W,10.00,253.61,161016,,*35
$GPRMC,123107,A,4821.0337,N,431.4493,W,10.00,253.61,161016,,*3E
$GPRMC,123107,A,4821.0308,N,431.4640,W,10.00,253.61,161016,,*3E
$GPRMC,123107,A,4821.0279,N,431.4787,W,10.00,253.61,161016,,*33
$GPRMC,123107,A,4821.0251,N,431.4934,W,10.00,253.61,161016,,*3F
$GPRMC,123107,A,4821.0222,N,431.5081,W,10.00,253.61,161016,,*3D
$GPRMC,123107,A,4821.0193,N,431.5229,W,10.00,253.61,161016,,*34
$GPRMC,123107,A,4821.0164,N,431.5376,W,10.00,253.61,161016,,*37
$GPRMC,123107,A,4821.0135,N,431.5523,W,10.00,253.61,161016,,*35
$GPRMC,123107,A,4821.0106,N,431.5670,W,10.00,253.61,161016,,*30
$GPRMC,123107,A,4821.0077,N,431.5817,W,10.00,253.61,161016,,*38
$GPRMC,123107,A,4821.0049,N,431.5964,W,10.00,253.61,161016,,*30
$GPRMC,123107,A,4821.0020,N,431.6111,W,10.00,253.61,161016,,*36
$GPRMC,123107,A,4820.9991,N,431.6259,W,10.00,253.61,161016,,*32
$GPRMC,123107,A,4820.9962,N,431.6406,W,10.00,253.61,161016,,*32
$GPRMC,123107,A,4820.9933,N,431.6553,W,10.00,253.61,161016,,*37
$GPRMC,123107,A,4820.9904,N,431.6700,W,10.00,253.61,161016,,*37
$GPRMC,123107,A,4820.9875,N,431.6847,W,10.00,253.61,161016,,*3C
$GPRMC,123107,A,4820.9847,N,431.6994,W,10.00,253.61,161016,,*32
$GPRMC,123107,A,4820.9818,N,431.7142,W,10.00,253.61,161016,,*3A
$GPRMC,123107,A,4820.9789,N,431.7289,W,10.00,253.61,161016,,*39
$GPRMC,123107,A,4820.9760,N,431.7436,W,10.00,253.61,161016,,*3C
$GPRMC,123107,A,4820.9731,N,431.7583,W,10.00,253.61,161016,,*37
$GPRMC,123107,A,4820.9702,N,431.7730,W,10.00,253.61,161016,,*3D
$GPRMC,123107,A,4820.9673,N,431.7877,W,10.00,253.61,161016,,*36
$GPRMC,123107,A,4820.9645,N,431.8025,W,10.00,253.61,161016,,*33
$GPRMC,123107,A,4820.9616,N,431.8172,W,10.00,253.61,161016,,*36
$GPRMC,123107,A,4820.9587,N,431.8319,W,10.00,253.61,161016,,*32
$GPRMC,123107,A,4820.9558,N,431.8466,W,10.00,253.61,161016,,*3F
$GPRMC,123107,A,4820.9529,N,431.8613,W,10.00,253.61,161016,,*39
$GPRMC,123107,A,4820.9500,N,431.8760,W,10.00,253.61,161016,,*37
$GPRMC,123107,A,4820.9471,N,431.8907,W,10.00,253.61,161016,,*3F
$GPRMC,123107,A,4820.9443,N,431.9055,W,10.00,253.61,161016,,*31
$GPRMC,123107,A,4820.9414,N,431.9202,W,10.00,253.61,161016,,*33
$GPRMC,123107,A,4820.9385,N,431.9349,W,10.00,253.61,161016,,*32
$GPRMC,123107,A,4820.9356,N,431.9496,W,10.00,253.61,161016,,*39
$GPRMC,123107,A,4820.9327,N,431.9643,W,10.00,253.61,161016,,*35
$GPRMC,123107,A,4820.9298,N,431.9790,W,10.00,253.61,161016,,*3F
$GPRMC,123107,A,4820.9269,N,431.9938,W,10.00,253.61,161016,,*3D
$GPRMC,123107,A,4820.9240,N,432.0085,W,10.00,253.61,161016,,*33
$GPRMC,123107,A,4820.9212,N,432.0232,W,10.00,253.61,161016,,*3A
$GPRMC,123107,A,4820.9183,N,432.0379,W,10.00,253.61,161016,,*3F
$GPRMC,123107,A,4820.9154,N,432.0526,W,10.00,253.61,161016,,*39
$GPRMC,123107,A,4820.9125,N,432.0673,W,10.00,253.61,161016,,*3C
$GPRMC,123107,A,4820.9096,N,432.0820,W,10.00,253.61,161016,,*3D
$GPRMC,123107,A,4820.9067,N,432.0968,W,10.00,253.61,161016,,*3E
$GPRMC,123107,A,4820.9038,N,432.1115,W,10.00,253.61,161016,,*37
$GPRMC,123107,A,4820.9010,N,432.1262,W,10.00,253.61,161016,,*3E
$GPRMC,123107,A,4820.8981,N,432.1409,W,10.00,253.61,161016,,*35
$GPRMC,123107,A,4820.8952,N,432.1556,W,10.00,253.61,161016,,*30
$GPRMC,123107,A,4820.8923,N,432.1703,W,10.00,253.61,161016,,*34
$GPRMC,123107,A,4820.8894,N,432.1851,W,10.00,253.61,161016,,*31
$GPRMC,123107,A,4820.8865,N,432.1998,W,10.00,253.61,161016,,*3B
$GPRMC,123107,A,4820.8836,N,432.2145,W,10.00,253.61,161016,,*36
$GPRMC,123107,A,4820.8807,N,432.2292,W,10.00,253.61,161016,,*3D
$GPRMC,123107,A,4820.8779,N,432.2439,W,10.00,253.61,161016,,*3C
$GPRMC,123107,A,4820.8750,N,432.2586,W,10.00,253.61,161016,,*32
$GPRMC,123107,A,4820.8721,N,432.2733,W,10.00,253.61,161016,,*38
$GPRMC,123107,A,4820.8692,N,432.2881,W,10.00,253.61,161016,,*37
$GPRMC,123107,A,4820.8663,N,432.3028,W,10.00,253.61,161016,,*33
$GPRMC,123107,A,4820.8634,N,432.3175,W,10.00,253.61,161016,,*38
$GPRMC,123107,A,4820.8605,N,432.3322,W,10.00,253.61,161016,,*3A
$GPRMC,123107,A,4820.8576,N,432.3469,W,10.00,253.61,161016,,*35
$GPRMC,123107,A,4820.8548,N,432.3616,W,10.00,253.61,161016,,*32
$GPRMC,123107,A,4820.8519,N,432.3763,W,10.00,253.61,161016,,*35
