$GPRMC,081814,A,4819.1794,N,443.2945,W,10.00,265.27,110316,,*3C
$GPRMC,081814,A,4819.1773,N,443.3319,W,10.00,265.27,110316,,*37
$GPRMC,081814,A,4819.1753,N,443.3693,W,10.00,265.27,110316,,*32
$GPRMC,081814,A,4819.1732,N,443.4067,W,10.00,265.27,110316,,*3F
$GPRMC,081814,A,4819.1711,N,443.4441,W,10.00,265.27,110316,,*3E
$GPRMC,081814,A,4819.1691,N,443.4815,W,10.00,265.27,110316,,*3A
$GPRMC,081814,A,4819.1670,N,443.5189,W,10.00,265.27,110316,,*38
$GPRMC,081814,A,4819.1650,N,443.5563,W,10.00,265.27,110316,,*3A
$GPRMC,081814,A,4819.1629,N,443.5937,W,10.00,265.27,110316,,*39
$GPRMC,081814,A,4819.1608,N,443.6311,W,10.00,265.27,110316,,*37
$GPRMC,081814,A,4819.1588,N,443.6686,W,10.00,265.27,110316,,*37
$GPRMC,081814,A,4819.1567,N,443.7060,W,10.00,265.27,110316,,*39
$GPRMC,081814,A,4819.1546,N,443.7434,W,10.00,265.27,110316,,*3F
$GPRMC,081814,A,4819.1526,N,443.7808,W,10.00,265.27,110316,,*3A
$GPRMC,081814,A,4819.1505,N,443.8182,W,10.00,265.27,110316,,*3F
$GPRMC,081814,A,4819.1484,N,443.8556,W,10.00,265.27,110316,,*3A
$GPRMC,081814,A,4819.1464,N,443.8930,W,10.00,265.27,110316,,*38
$GPRMC,081814,A,4819.1443,N,443.9304,W,10.00,265.27,110316,,*31
$GPRMC,081814,A,4819.1422,N,443.9678,W,10.00,265.27,110316,,*38
$GPRMC,081814,A,4819.1402,N,444.0052,W,10.00,265.27,110316,,*3A
$GPRMC,081814,A,4819.1381,N,444.0426,W,10.00,265.27,110316,,*31
$GPRMC,081814,A,4819.1360,N,444.0800,W,10.00,265.27,110316,,*36
$GPRMC,081814,A,4819.1340,N,444.1174,W,10.00,265.27,110316,,*3F
$GPRMC,081814,A,4819.1319,N,444.1548,W,10.00,265.27,110316,,*38
$GPRMC,081814,A,4819.1298,N,444.1922,W,10.00,265.27,110316,,*30
$GPRMC,081814,A,4819.1278,N,444.2297,W,10.00,265.27,110316,,*38
$GPRMC,081814,A,4819.1257,N,444.2671,W,10.00,265.27,110316,,*39
$GPRMC,081814,A,4819.1236,N,444.3045,W,10.00,265.27,110316,,*3E
$GPRMC,081814,A,4819.1216,N,444.3419,W,10.00,265.27,110316,,*31
$GPRMC,081814,A,4819.1195,N,444.3793,W,10.00,265.27,110316,,*38
$GPRMC,081814,A,4819.1174,N,444.4167,W,10.00,265.27,110316,,*3D
$GPRMC,081814,A,4819.1154,N,444.4541,W,10.00,265.27,110316,,*3F
$GPRMC,081814,A,4819.1133,N,444.4915,W,10.00,265.27,110316,,*33
$GPRMC,081814,A,4819.1112,N,444.5289,W,10.00,265.27,110316,,*3F
$GPRMC,081814,A,4819.1092,N,444.5663,W,10.00,265.27,110316,,*36
$GPRMC,081814,A,4819.1071,N,444.6037,W,10.00,265.27,110316,,*3F
$GPRMC,081814,A,4819.1050,N,444.6411,W,10.00,265.27,110316,,*3C
$GPRMC,081814,A,4819.1030,N,444.6785,W,10.00,265.27,110316,,*34
$GPRMC,081814,A,4819.1009,N,444.7159,W,10.00,265.27,110316,,*38
$GPRMC,081814,A,4819.0988,N,444.7533,W,10.00,265.27,110316,,*31
$GPRMC,081814,A,4819.0967,N,444.7907,W,10.00,265.27,110316,,*3B
$GPRMC,081814,A,4819.0947,N,444.8281,W,10.00,265.27,110316,,*33
$GPRMC,081814,A,4819.0926,N,444.8655,W,10.00,265.27,110316,,*39
$GPRMC,081814,A,4819.0905,N,444.9030,W,10.00,265.27,110316,,*3C
$GPRMC,081814,A,4819.0885,N,444.9404,W,10.00,265.27,110316,,*36
$GPRMC,081814,A,4819.0864,N,444.9778,W,10.00,265.27,110316,,*31
$GPRMC,081814,A,4819.0843,N,445.0152,W,10.00,265.27,110316,,*32
$GPRMC,081814,A,4819.0822,N,445.0526,W,10.00,265.27,110316,,*32
$GPRMC,081814,A,4819.0802,N,445.0900,W,10.00,265.27,110316,,*38
$GPRMC,081814,A,4819.0781,N,445.1274,W,10.00,265.27,110316,,*35
$GPRMC,081814,A,4819.0760,N,445.1648,W,10.00,265.27,110316,,*31
$GPRMC,081814,A,4819.0740,N,445.2022,W,10.00,265.27,110316,,*3A
$GPRMC,081814,A,4819.0719,N,445.2396,W,10.00,265.27,110316,,*3A
$GPRMC,081814,A,4819.0698,N,445.2770,W,10.00,265.27,110316,,*3E
$GPRMC,081814,A,4819.0677,N,445.3144,W,10.00,265.27,110316,,*3F
$GPRMC,081814,A,4819.0657,N,445.3518,W,10.00,265.27,110316,,*30
$GPRMC,081814,A,4819.0636,N,445.3892,W,10.00,265.27,110316,,*38
$GPRMC,081814,A,4819.0615,N,445.4266,W,10.00,265.27,110316,,*3F
$GPRMC,081814,A,4819.0594,N,445.4640,W,10.00,265.27,110316,,*35
$GPRMC,081814,A,4819.0574,N,445.5014,W,10.00,265.27,110316,,*3D
$GPRMC,081814,A,4819.0553,N,445.5388,W,10.00,265.27,110316,,*3E
$GPRMC,081814,A,4819.0532,N,445.5762,W,10.00,265.27,110316,,*39
$GPRMC,081814,A,4819.0511,N,445.6136,W,10.00,265.27,110316,,*3C
$GPRMC,081814,A,4819.0491,N,445.6511,W,10.00,265.27,110316,,*34
$GPRMC,081814,A,4819.0470,N,445.6885,W,10.00,265.27,110316,,*3B
$GPRMC,081814,A,4819.0449,N,445.7259,W,10.00,265.27,110316,,*3B
$GPRMC,081814,A,4819.0428,N,445.7633,W,10.00,265.27,110316,,*34
$GPRMC,081814,A,4819.0408,N,445.8007,W,10.00,265.27,110316,,*38
$GPRMC,081814,A,4819.0387,N,445.8381,W,10.00,265.27,110316,,*35
$GPRMC,081814,A,4819.0366,N,445.8755,W,10.00,265.27,110316,,*37
$GPRMC,081814,A,4819.0345,N,445.9129,W,10.00,265.27,110316,,*3A
$GPRMC,081814,A,4819.0325,N,445.9503,W,10.00,265.27,110316,,*30
$GPRMC,081814,A,4819.0304,N,445.9877,W,10.00,265.27,110316,,*3D
$GPRMC,081814,A,4819.0283,N,446.0251,W,10.00,265.27,110316,,*37
$GPRMC,081814,A,4819.0262,N,446.0625,W,10.00,265.27,110316,,*3F
$GPRMC,081814,A,4819.0241,N,446.0999,W,10.00,265.27,110316,,*36
$GPRMC,081814,A,4819.0221,N,446.1373,W,10.00,265.27,110316,,*3F
$GPRMC,081814,A,4819.0200,N,446.1747,W,10.00,265.27,110316,,*3F
$GPRMC,081814,A,4819.0179,N,446.2121,W,10.00,265.27,110316,,*37
$GPRMC,081814,A,4819.0158,N,446.2495,W,10.00,265.27,110316,,*3E
$GPRMC,081814,A,4819.0138,N,446.2869,W,10.00,265.27,110316,,*37
$GPRMC,081814,A,4819.0117,N,446.3243,W,10.00,265.27,110316,,*39
$GPRMC,081814,A,4819.0096,N,446.3617,W,10.00,265.27,110316,,*34
$GPRMC,081814,A,4819.0075,N,446.3991,W,10.00,265.27,110316,,*38
$GPRMC,081814,A,4819.0054,N,446.4365,W,10.00,265.27,110316,,*3D
$GPRMC,081814,A,4819.0034,N,446.4739,W,10.00,265.27,110316,,*36
$GPRMC,081814,A,4819.0013,N,446.5113,W,10.00,265.27,110316,,*3C
$GPRMC,081814,A,4818.9992,N,446.5487,W,10.00,265.27,110316,,*3C
$GPRMC,081814,A,4818.9971,N,446.5861,W,10.00,265.27,110316,,*35
$GPRMC,081814,A,4818.9950,N,446.6235,W,10.00,265.27,110316,,*3E
$GPRMC,081814,A,4818.9930,N,446.6609,W,10.00,265.27,110316,,*33
$GPRMC,081814,A,4818.9909,N,446.6984,W,10.00,265.27,110316,,*33
$GPRMC,081814,A,4818.9888,N,446.7358,W,10.00,265.27,110316,,*31
$GPRMC,081814,A,4818.9867,N,446.7732,W,10.00,265.27,110316,,*38
$GPRMC,081814,A,4818.9846,N,446.8106,W,10.00,265.27,110316,,*35
$GPRMC,081814,A,4818.9826,N,446.8480,W,10.00,265.27,110316,,*38
$GPRMC,081814,A,4818.9805,N,446.8854,W,10.00,265.27,110316,,*3C
$GPRMC,081814,A,4818.9784,N,446.9228,W,10.00,265.27,110316,,*3A
$GPRMC,081814,A,4818.9763,N,446.9602,W,10.00,265.27,110316,,*3F
$GPRMC,081814,A,4818.9742,N,446.9976,W,10.00,265.27,110316,,*30
$GPRMC,081814,A,4818.9721,N,447.0350,W,10.00,265.27,110316,,*33
$GPRMC,081814,A,4818.9701,N,447.0724,W,10.00,265.27,110316,,*36
$GPRMC,081814,A,4818.9680,N,447.1098,W,10.00,265.27,110316,,*3F
$GPRMC,081814,A,4818.9659,N,447.1472,W,10.00,265.27,110316,,*3B
$GPRMC,081814,A,4818.9638,N,447.1846,W,10.00,265.27,110316,,*37
$GPRMC,081814,A,4818.9617,N,447.2220,W,10.00,265.27,110316,,*33
$GPRMC,081814,A,4818.9596,N,447.2594,W,10.00,265.27,110316,,*31
$GPRMC,081814,A,4818.9576,N,447.2968,W,10.00,265.27,110316,,*30
$GPRMC,081814,A,4818.9555,N,447.3342,W,10.00,265.27,110316,,*32
$GPRMC,081814,A,4818.9534,N,447.3716,W,10.00,265.27,110316,,*30
$GPRMC,081814,A,4818.9513,N,447.4090,W,10.00,265.27,110316,,*3B
$GPRMC,081814,A,4818.9492,N,447.4464,W,10.00,265.27,110316,,*3C
$GPRMC,081814,A,4818.9471,N,447.4838,W,10.00,265.27,110316,,*34
$GPRMC,081814,A,4818.9451,N,447.5212,W,10.00,265.27,110316,,*35
$GPRMC,081814,A,4818.9430,N,447.5586,W,10.00,265.27,110316,,*38
$GPRMC,081814,A,4818.9409,N,447.5960,W,10.00,265.27,110316,,*36
$GPRMC,081814,A,4818.9388,N,447.6334,W,10.00,265.27,110316,,*30
$GPRMC,081814,A,4818.9385,N,447.6387,W,10.00,7.87,110316,,*39
$GPRMC,081814,A,4818.9830,N,447.6295,W,10.00,7.87,110316,,*3E
$GPRMC,081814,A,4819.0275,N,447.6203,W,10.00,7.87,110316,,*32
$GPRMC,081814,A,4819.0720,N,447.6111,W,10.00,7.87,110316,,*37
$GPRMC,081814,A,4819.1165,N,447.6018,W,10.00,7.87,110316,,*39
$GPRMC,081814,A,4819.1610,N,447.5926,W,10.00,7.87,110316,,*3B
$GPRMC,081814,A,4819.2054,N,447.5834,W,10.00,7.87,110316,,*3C
$GPRMC,081814,A,4819.2499,N,447.5742,W,10.00,7.87,110316,,*37
$GPRMC,081814,A,4819.2944,N,447.5649,W,10.00,7.87,110316,,*30
$GPRMC,081814,A,4819.3389,N,447.5557,W,10.00,7.87,110316,,*36
$GPRMC,081814,A,4819.3834,N,447.5465,W,10.00,7.87,110316,,*3B
$GPRMC,081814,A,4819.4279,N,447.5373,W,10.00,7.87,110316,,*3F
$GPRMC,081814,A,4819.4724,N,447.5280,W,10.00,7.87,110316,,*3F
$GPRMC,081814,A,4819.5169,N,447.5188,W,10.00,7.87,110316,,*3A
$GPRMC,081814,A,4819.5614,N,447.5096,W,10.00,7.87,110316,,*39
$GPRMC,081814,A,4819.6059,N,447.5003,W,10.00,7.87,110316,,*39
$GPRMC,081814,A,4819.6504,N,447.4911,W,10.00,7.87,110316,,*3F
$GPRMC,081814,A,4819.6948,N,447.4819,W,10.00,7.87,110316,,*32
$GPRMC,081814,A,4819.7393,N,447.4727,W,10.00,7.87,110316,,*3D
$GPRMC,081814,A,4819.7838,N,447.4634,W,10.00,7.87,110316,,*34
$GPRMC,081814,A,4819.8283,N,447.4542,W,10.00,7.87,110316,,*33
$GPRMC,081814,A,4819.8728,N,447.4450,W,10.00,7.87,110316,,*35
$GPRMC,081814,A,4819.9173,N,447.4357,W,10.00,7.87,110316,,*3C
$GPRMC,081814,A,4819.9618,N,447.4265,W,10.00,7.87,110316,,*36
$GPRMC,081814,A,4820.0063,N,447.4173,W,10.00,7.87,110316,,*3B
$GPRMC,081814,A,4820.0508,N,447.4081,W,10.00,7.87,110316,,*3F
$GPRMC,081814,A,4820.0953,N,447.3988,W,10.00,7.87,110316,,*3A
$GPRMC,081814,A,4820.1398,N,447.3896,W,10.00,7.87,110316,,*38
$GPRMC,081814,A,4820.1842,N,447.3804,W,10.00,7.87,110316,,*3F
$GPRMC,081814,A,4820.2287,N,447.3711,W,10.00,7.87,110316,,*34
$GPRMC,081814,A,4820.2732,N,447.3619,W,10.00,7.87,110316,,*36
$GPRMC,081814,A,4820.3177,N,447.3527,W,10.00,7.87,110316,,*3E
$GPRMC,081814,A,4820.3622,N,447.3434,W,10.00,7.87,110316,,*3A
$GPRMC,081814,A,4820.4067,N,447.3342,W,10.00,7.87,110316,,*3C
$GPRMC,081814,A,4820.4512,N,447.3250,W,10.00,7.87,110316,,*39
$GPRMC,081814,A,4820.4957,N,447.3157,W,10.00,7.87,110316,,*30
$GPRMC,081814,A,4820.5402,N,447.3065,W,10.00,7.87,110316,,*3C
$GPRMC,081814,A,4820.5438,N,447.3057,W,10.00,321.16,110316,,*3B
$GPRMC,081814,A,4820.6006,N,447.3744,W,10.00,321.16,110316,,*34
$GPRMC,081814,A,4820.6574,N,447.4430,W,10.00,321.16,110316,,*33
$GPRMC,081814,A,4820.7142,N,447.5116,W,10.00,321.16,110316,,*33
$GPRMC,081814,A,4820.7711,N,447.5802,W,10.00,321.16,110316,,*3F
$GPRMC,081814,A,4820.8279,N,447.6489,W,10.00,321.16,110316,,*37
$GPRMC,081814,A,4820.8847,N,447.7175,W,10.00,321.16,110316,,*37
$GPRMC,081814,A,4820.9415,N,447.7861,W,10.00,321.16,110316,,*31
$GPRMC,081814,A,4820.9983,N,447.8547,W,10.00,321.16,110316,,*35
$GPRMC,081814,A,4821.0551,N,447.9234,W,10.00,321.16,110316,,*3C
$GPRMC,081814,A,4821.1119,N,447.9920,W,10.00,321.16,110316,,*3B
$GPRMC,081814,A,4821.1687,N,448.0607,W,10.00,321.16,110316,,*37
$GPRMC,081814,A,4821.2255,N,448.1293,W,10.00,321.16,110316,,*37
$GPRMC,081814,A,4821.2823,N,448.1980,W,10.00,321.16,110316,,*35
$GPRMC,081814,A,4821.3210,N,448.2447,W,10.00,18.14,110316,,*00
$GPRMC,081814,A,4821.3744,N,448.2185,W,10.00,18.14,110316,,*0F
$GPRMC,081814,A,4821.4278,N,448.1922,W,10.00,18.14,110316,,*04
$GPRMC,081814,A,4821.4811,N,448.1660,W,10.00,18.14,110316,,*08
$GPRMC,081814,A,4821.5345,N,448.1398,W,10.00,18.14,110316,,*01
$GPRMC,081814,A,4821.5879,N,448.1135,W,10.00,18.14,110316,,*00
$GPRMC,081814,A,4821.6413,N,448.0873,W,10.00,18.14,110316,,*09
$GPRMC,081814,A,4821.6946,N,448.0610,W,10.00,18.14,110316,,*0F
$GPRMC,081814,A,4821.7480,N,448.0348,W,10.00,18.14,110316,,*01
$GPRMC,081814,A,4821.8014,N,448.0085,W,10.00,18.14,110316,,*05
$GPRMC,081814,A,4821.8547,N,447.9823,W,10.00,18.14,110316,,*04
$GPRMC,081814,A,4821.9081,N,447.9560,W,10.00,18.14,110316,,*00
$GPRMC,081814,A,4821.9615,N,447.9298,W,10.00,18.14,110316,,*0B
$GPRMC,081814,A,4822.0149,N,447.9035,W,10.00,18.14,110316,,*0A
$GPRMC,081814,A,4822.0682,N,447.8773,W,10.00,18.14,110316,,*0E
$GPRMC,081814,A,4822.1216,N,447.8510,W,10.00,18.14,110316,,*01
$GPRMC,081814,A,4822.1750,N,447.8248,W,10.00,18.14,110316,,*0C
$GPRMC,081814,A,4822.2283,N,447.7985,W,10.00,18.14,110316,,*01
$GPRMC,081814,A,4822.2817,N,447.7723,W,10.00,18.14,110316,,*04
$GPRMC,081814,A,4822.3351,N,447.7460,W,10.00,18.14,110316,,*08
$GPRMC,081814,A,4822.3884,N,447.7198,W,10.00,18.14,110316,,*09
$GPRMC,081814,A,4822.4418,N,447.6935,W,10.00,18.14,110316,,*09
$GPRMC,081814,A,4822.4952,N,447.6672,W,10.00,18.14,110316,,*06
$GPRMC,081814,A,4822.5486,N,447.6410,W,10.00,18.14,110316,,*05
$GPRMC,081814,A,4822.5525,N,447.6390,W,10.00,288.17,110316,,*3A
$GPRMC,081814,A,4822.5685,N,447.7119,W,10.00,288.17,110316,,*31
$GPRMC,081814,A,4822.5844,N,447.7849,W,10.00,288.17,110316,,*3E
$GPRMC,081814,A,4822.6004,N,447.8578,W,10.00,288.17,110316,,*31
$GPRMC,081814,A,4822.6163,N,447.9307,W,10.00,288.17,110316,,*3E
$GPRMC,081814,A,4822.6323,N,448.0036,W,10.00,288.17,110316,,*3F
$GPRMC,081814,A,4822.6482,N,448.0765,W,10.00,288.17,110316,,*32
$GPRMC,081814,A,4822.6641,N,448.1494,W,10.00,288.17,110316,,*33
$GPRMC,081814,A,4822.6801,N,448.2224,W,10.00,288.17,110316,,*37
$GPRMC,081814,A,4822.6960,N,448.2953,W,10.00,288.17,110316,,*3A
$GPRMC,081814,A,4822.7120,N,448.3682,W,10.00,288.17,110316,,*35
$GPRMC,081814,A,4822.7279,N,448.4411,W,10.00,288.17,110316,,*35
$GPRMC,081814,A,4822.7438,N,448.5140,W,10.00,288.17,110316,,*36
$GPRMC,081814,A,4822.7598,N,448.5870,W,10.00,288.17,110316,,*37
$GPRMC,081814,A,4822.7757,N,448.6599,W,10.00,288.17,110316,,*3F
$GPRMC,081814,A,4822.7916,N,448.7328,W,10.00,288.17,110316,,*39
$GPRMC,081814,A,4822.8076,N,448.8057,W,10.00,288.17,110316,,*3D
$GPRMC,081814,A,4822.8235,N,448.8787,W,10.00,288.17,110316,,*32
$GPRMC,081814,A,4822.8395,N,448.9516,W,10.00,288.17,110316,,*32
$GPRMC,081814,A,4822.8554,N,449.0245,W,10.00,288.17,110316,,*30
$GPRMC,081814,A,4822.8713,N,449.0974,W,10.00,288.17,110316,,*38
$GPRMC,081814,A,4822.8872,N,449.1704,W,10.00,288.17,110316,,*38
$GPRMC,081814,A,4822.9032,N,449.2433,W,10.00,288.17,110316,,*31
$GPRMC,081814,A,4822.9191,N,449.3162,W,10.00,288.17,110316,,*39
$GPRMC,081814,A,4822.9350,N,449.3892,W,10.00,288.17,110316,,*30
$GPRMC,081814,A,4822.9510,N,449.4621,W,10.00,288.17,110316,,*33
$GPRMC,081814,A,4822.9669,N,449.5350,W,10.00,288.17,110316,,*3C
$GPRMC,081814,A,4822.9828,N,449.6080,W,10.00,288.17,110316,,*3A
$GPRMC,081814,A,4822.9963,N,449.6696,W,10.00,349.89,110316,,*3E
$GPRMC,081814,A,4823.0351,N,449.6800,W,10.00,349.89,110316,,*3C
$GPRMC,081814,A,4823.0739,N,449.6904,W,10.00,349.89,110316,,*33
$GPRMC,081814,A,4823.1128,N,449.7008,W,10.00,349.89,110316,,*30
$GPRMC,081814,A,4823.1516,N,449.7112,W,10.00,349.89,110316,,*33
$GPRMC,081814,A,4823.1904,N,449.7216,W,10.00,349.89,110316,,*3B
$GPRMC,081814,A,4823.2292,N,449.7320,W,10.00,349.89,110316,,*38
$GPRMC,081814,A,4823.2681,N,449.7424,W,10.00,349.89,110316,,*3D
$GPRMC,081814,A,4823.3069,N,449.7528,W,10.00,349.89,110316,,*31
$GPRMC,081814,A,4823.3457,N,449.7632,W,10.00,349.89,110316,,*30
$GPRMC,081814,A,4823.3845,N,449.7736,W,10.00,349.89,110316,,*3A
$GPRMC,081814,A,4823.4234,N,449.7840,W,10.00,349.89,110316,,*3F
$GPRMC,081814,A,4823.4622,N,449.7944,W,10.00,349.89,110316,,*39
$GPRMC,081814,A,4823.5010,N,449.8048,W,10.00,349.89,110316,,*35
$GPRMC,081814,A,4823.5399,N,449.8152,W,10.00,349.89,110316,,*3D
$GPRMC,081814,A,4823.5787,N,449.8256,W,10.00,349.89,110316,,*31
$GPRMC,081814,A,4823.6175,N,449.8360,W,10.00,349.89,110316,,*3D
$GPRMC,081814,A,4823.6563,N,449.8464,W,10.00,349.89,110316,,*3D
$GPRMC,081814,A,4823.6952,N,449.8568,W,10.00,349.89,110316,,*3E
$GPRMC,081814,A,4823.7340,N,449.8672,W,10.00,349.89,110316,,*3E
$GPRMC,081814,A,4823.7728,N,449.8776,W,10.00,349.89,110316,,*31
$GPRMC,081814,A,4823.8116,N,449.8880,W,10.00,349.89,110316,,*33
$GPRMC,081814,A,4823.8505,N,449.8984,W,10.00,349.89,110316,,*30
$GPRMC,081814,A,4823.8893,N,449.9088,W,10.00,349.89,110316,,*36
$GPRMC,081814,A,4823.9281,N,449.9192,W,10.00,349.89,110316,,*34
$GPRMC,081814,A,4823.9669,N,449.9296,W,10.00,349.89,110316,,*31
$GPRMC,081814,A,4824.0058,N,449.9400,W,10.00,349.89,110316,,*32
$GPRMC,081814,A,4824.0446,N,449.9504,W,10.00,349.89,110316,,*3C
$GPRMC,081814,A,4824.0834,N,449.9608,W,10.00,349.89,110316,,*3A
$GPRMC,081814,A,4824.1222,N,449.9712,W,10.00,349.89,110316,,*3C
$GPRMC,081814,A,4824.1611,N,449.9816,W,10.00,349.89,110316,,*33
$GPRMC,081814,A,4824.1999,N,449.9920,W,10.00,349.89,110316,,*38
$GPRMC,081814,A,4824.2387,N,450.0024,W,10.00,349.89,110316,,*32
$GPRMC,081814,A,4824.2775,N,450.0128,W,10.00,349.89,110316,,*36
$GPRMC,081814,A,4824.3164,N,450.0232,W,10.00,349.89,110316,,*39
$GPRMC,081814,A,4824.3552,N,450.0336,W,10.00,349.89,110316,,*3D
$GPRMC,081814,A,4824.3940,N,450.0440,W,10.00,349.89,110316,,*34
$GPRMC,081814,A,4824.4328,N,450.0544,W,10.00,349.89,110316,,*32
$GPRMC,081814,A,4824.4717,N,450.0648,W,10.00,349.89,110316,,*35
$GPRMC,081814,A,4824.5105,N,450.0752,W,10.00,349.89,110316,,*3B
$GPRMC,081814,A,4824.5493,N,450.0856,W,10.00,349.89,110316,,*3A
$GPRMC,081814,A,4824.5881,N,450.0960,W,10.00,349.89,110316,,*31
$GPRMC,081814,A,4824.6270,N,450.1064,W,10.00,349.89,110316,,*3A
$GPRMC,081814,A,4824.6658,N,450.1169,W,10.00,349.89,110316,,*38
$GPRMC,081814,A,4824.7046,N,450.1273,W,10.00,349.89,110316,,*38
$GPRMC,081814,A,4824.7434,N,450.1377,W,10.00,349.89,110316,,*3C
$GPRMC,081814,A,4824.7823,N,450.1481,W,10.00,349.89,110316,,*38
