$GPRMC,024803,A,4822.6183,N,432.8438,W,10.00,17.71,151016,,*03
$GPRMC,024803,A,4822.6306,N,432.8379,W,10.00,17.71,151016,,*0E
$GPRMC,024803,A,4822.6429,N,432.8320,W,10.00,17.71,151016,,*08
$GPRMC,024803,A,4822.6552,N,432.8261,W,10.00,17.71,151016,,*01
$GPRMC,024803,A,4822.6675,N,432.8202,W,10.00,17.71,151016,,*02
$GPRMC,024803,A,4822.6798,N,432.8143,W,10.00,17.71,151016,,*06
$GPRMC,024803,A,4822.6921,N,432.8084,W,10.00,17.71,151016,,*00
$GPRMC,024803,A,4822.7045,N,432.8025,W,10.00,17.71,151016,,*01
$GPRMC,024803,A,4822.7168,N,432.7966,W,10.00,17.71,151016,,*0E
$GPRMC,024803,A,4822.7291,N,432.7907,W,10.00,17.71,151016,,*0C
$GPRMC,024803,A,4822.7414,N,432.7848,W,10.00,17.71,151016,,*0D
$GPRMC,024803,A,4822.7537,N,432.7789,W,10.00,17.71,151016,,*0F
$GPRMC,024803,A,4822.7660,N,432.7730,W,10.00,17.71,151016,,*0C
$GPRMC,024803,A,4822.7783,N,432.7671,W,10.00,17.71,151016,,*04
$GPRMC,024803,A,4822.7906,N,432.7612,W,10.00,17.71,151016,,*02
$GPRMC,024803,A,4822.8029,N,432.7553,W,10.00,17.71,151016,,*0F
$GPRMC,024803,A,4822.8152,N,432.7494,W,10.00,17.71,151016,,*08
$GPRMC,024803,A,4822.8275,N,432.7435,W,10.00,17.71,151016,,*05
$GPRMC,024803,A,4822.8398,N,432.7376,W,10.00,17.71,151016,,*07
$GPRMC,024803,A,4822.8522,N,432.7317,W,10.00,17.71,151016,,*07
$GPRMC,024803,A,4822.8645,N,432.7258,W,10.00,17.71,151016,,*0F
$GPRMC,024803,A,4822.8768,N,432.7199,W,10.00,17.71,151016,,*0F
$GPRMC,024803,A,4822.8891,N,432.7140,W,10.00,17.71,151016,,*02
$GPRMC,024803,A,4822.9014,N,432.7081,W,10.00,17.71,151016,,*0A
$GPRMC,024803,A,4822.9137,N,432.7022,W,10.00,17.71,151016,,*03
$GPRMC,024803,A,4822.9260,N,432.6963,W,10.00,17.71,151016,,*0F
$GPRMC,024803,A,4822.9383,N,432.6904,W,10.00,17.71,151016,,*02
$GPRMC,024803,A,4822.9506,N,432.6845,W,10.00,17.71,151016,,*0D
$GPRMC,024803,A,4822.9629,N,432.6786,W,10.00,17.71,151016,,*03
$GPRMC,024803,A,4822.9752,N,432.6727,W,10.00,17.71,151016,,*05
$GPRMC,024803,A,4822.9875,N,432.6668,W,10.00,17.71,151016,,*05
$GPRMC,024803,A,4822.9998,N,432.6609,W,10.00,17.71,151016,,*00
$GPRMC,024803,A,4823.0122,N,432.6550,W,10.00,17.71,151016,,*0E
$GPRMC,024803,A,4823.0245,N,432.6491,W,10.00,17.71,151016,,*00
$GPRMC,024803,A,4823.0368,N,432.6432,W,10.00,17.71,151016,,*07
$GPRMC,024803,A,4823.0491,N,432.6373,W,10.00,17.71,151016,,*04
$GPRMC,024803,A,4823.0614,N,432.6314,W,10.00,17.71,151016,,*0A
$GPRMC,024803,A,4823.0737,N,432.6255,W,10.00,17.71,151016,,*0E
$GPRMC,024803,A,4823.0860,N,432.6196,W,10.00,17.71,151016,,*0F
$GPRMC,024803,A,4823.0983,N,432.6136,W,10.00,17.71,151016,,*09
$GPRMC,024803,A,4823.1106,N,432.6077,W,10.00,17.71,151016,,*09
$GPRMC,024803,A,4823.1229,N,432.6018,W,10.00,17.71,151016,,*0E
$GPRMC,024803,A,4823.1352,N,432.5959,W,10.00,17.71,151016,,*0C
$GPRMC,024803,A,4823.1475,N,432.5900,W,10.00,17.71,151016,,*02
$GPRMC,024803,A,4823.1599,N,432.5841,W,10.00,17.71,151016,,*05
$GPRMC,024803,A,4823.1722,N,432.5782,W,10.00,17.71,151016,,*07
$GPRMC,024803,A,4823.1845,N,432.5723,W,10.00,17.71,151016,,*02
$GPRMC,024803,A,4823.1968,N,432.5664,W,10.00,17.71,151016,,*0E
$GPRMC,024803,A,4823.2091,N,432.5605,W,10.00,17.71,151016,,*05
$GPRMC,024803,A,4823.2214,N,432.5546,W,10.00,17.71,151016,,*0E
$GPRMC,024803,A,4823.2337,N,432.5487,W,10.00,17.71,151016,,*02
$GPRMC,024803,A,4823.2460,N,432.5428,W,10.00,17.71,151016,,*02
$GPRMC,024803,A,4823.2583,N,432.5369,W,10.00,17.71,151016,,*0C
$GPRMC,024803,A,4823.2706,N,432.5310,W,10.00,17.71,151016,,*0D
$GPRMC,024803,A,4823.2829,N,432.5251,W,10.00,17.71,151016,,*0B
$GPRMC,024803,A,4823.2952,N,432.5192,W,10.00,17.71,151016,,*0A
$GPRMC,024803,A,4823.3075,N,432.5133,W,10.00,17.71,151016,,*0C
$GPRMC,024803,A,4823.3199,N,432.5074,W,10.00,17.71,151016,,*0D
$GPRMC,024803,A,4823.3322,N,432.5015,W,10.00,17.71,151016,,*08
$GPRMC,024803,A,4823.3445,N,432.4956,W,10.00,17.71,151016,,*01
$GPRMC,024803,A,4823.3568,N,432.4897,W,10.00,17.71,151016,,*03
$GPRMC,024803,A,4823.3691,N,432.4838,W,10.00,17.71,151016,,*03
$GPRMC,024803,A,4823.3814,N,432.4779,W,10.00,17.71,151016,,*0A
$GPRMC,024803,A,4823.3937,N,432.4720,W,10.00,17.71,151016,,*06
$GPRMC,024803,A,4823.4060,N,432.4661,W,10.00,17.71,151016,,*0E
$GPRMC,024803,A,4823.4183,N,432.4602,W,10.00,17.71,151016,,*07
$GPRMC,024803,A,4823.4306,N,432.4543,W,10.00,17.71,151016,,*0E
$GPRMC,024803,A,4823.4429,N,432.4484,W,10.00,17.71,151016,,*0E
$GPRMC,024803,A,4823.4552,N,432.4425,W,10.00,17.71,151016,,*08
$GPRMC,024803,A,4823.4675,N,432.4366,W,10.00,17.71,151016,,*0E
$GPRMC,024803,A,4823.4799,N,432.4306,W,10.00,17.71,151016,,*0B
$GPRMC,024803,A,4823.4922,N,432.4247,W,10.00,17.71,151016,,*01
$GPRMC,024803,A,4823.5045,N,432.4188,W,10.00,17.71,151016,,*08
$GPRMC,024803,A,4823.5168,N,432.4129,W,10.00,17.71,151016,,*0D
$GPRMC,024803,A,4823.5291,N,432.4070,W,10.00,17.71,151016,,*05
$GPRMC,024803,A,4823.5414,N,432.4011,W,10.00,17.71,151016,,*09
$GPRMC,024803,A,4823.5537,N,432.3952,W,10.00,17.71,151016,,*00
$GPRMC,024803,A,4823.5660,N,432.3893,W,10.00,17.71,151016,,*0D
$GPRMC,024803,A,4823.5783,N,432.3834,W,10.00,17.71,151016,,*0C
$GPRMC,024803,A,4823.5906,N,432.3775,W,10.00,17.71,151016,,*05
$GPRMC,024803,A,4823.6029,N,432.3716,W,10.00,17.71,151016,,*07
$GPRMC,024803,A,4823.6152,N,432.3657,W,10.00,17.71,151016,,*0E
$GPRMC,024803,A,4823.6275,N,432.3598,W,10.00,17.71,151016,,*08
$GPRMC,024803,A,4823.6399,N,432.3539,W,10.00,17.71,151016,,*00
$GPRMC,024803,A,4823.6522,N,432.3480,W,10.00,17.71,151016,,*05
$GPRMC,024803,A,4823.6645,N,432.3421,W,10.00,17.71,151016,,*0C
$GPRMC,024803,A,4823.6768,N,432.3362,W,10.00,17.71,151016,,*02
$GPRMC,024803,A,4823.6891,N,432.3303,W,10.00,17.71,151016,,*0C
$GPRMC,024803,A,4823.7014,N,432.3244,W,10.00,17.71,151016,,*0A
$GPRMC,024803,A,4823.7137,N,432.3185,W,10.00,17.71,151016,,*04
$GPRMC,024803,A,4823.7260,N,432.3126,W,10.00,17.71,151016,,*0C
$GPRMC,024803,A,4823.7383,N,432.3067,W,10.00,17.71,151016,,*04
$GPRMC,024803,A,4823.7506,N,432.3007,W,10.00,17.71,151016,,*09
$GPRMC,024803,A,4823.7629,N,432.2948,W,10.00,17.71,151016,,*04
$GPRMC,024803,A,4823.7752,N,432.2889,W,10.00,17.71,151016,,*05
$GPRMC,024803,A,4823.7875,N,432.2830,W,10.00,17.71,151016,,*0D
$GPRMC,024803,A,4823.7999,N,432.2771,W,10.00,17.71,151016,,*04
$GPRMC,024803,A,4823.8122,N,432.2712,W,10.00,17.71,151016,,*06
$GPRMC,024803,A,4823.8245,N,432.2653,W,10.00,17.71,151016,,*00
$GPRMC,024803,A,4823.8368,N,432.2594,W,10.00,17.71,151016,,*06
$GPRMC,024803,A,4823.8491,N,432.2535,W,10.00,17.71,151016,,*0C
$GPRMC,024803,A,4823.8614,N,432.2476,W,10.00,17.71,151016,,*05
$GPRMC,024803,A,4823.8737,N,432.2417,W,10.00,17.71,151016,,*02
$GPRMC,024803,A,4823.8860,N,432.2358,W,10.00,17.71,151016,,*03
$GPRMC,024803,A,4823.8983,N,432.2299,W,10.00,17.71,151016,,*03
$GPRMC,024803,A,4823.9106,N,432.2240,W,10.00,17.71,151016,,*03
$GPRMC,024803,A,4823.9229,N,432.2181,W,10.00,17.71,151016,,*03
$GPRMC,024803,A,4823.9352,N,432.2122,W,10.00,17.71,151016,,*07
$GPRMC,024803,A,4823.9475,N,432.2063,W,10.00,17.71,151016,,*01
$GPRMC,024803,A,4823.9598,N,432.2004,W,10.00,17.71,151016,,*02
$GPRMC,024803,A,4823.9722,N,432.1945,W,10.00,17.71,151016,,*0E
$GPRMC,024803,A,4823.9845,N,432.1885,W,10.00,17.71,151016,,*0D
$GPRMC,024803,A,4823.9968,N,432.1826,W,10.00,17.71,151016,,*0A
$GPRMC,024803,A,4824.0091,N,432.1767,W,10.00,17.71,151016,,*01
$GPRMC,024803,A,4824.0214,N,432.1708,W,10.00,17.71,151016,,*07
$GPRMC,024803,A,4824.0337,N,432.1649,W,10.00,17.71,151016,,*03
$GPRMC,024803,A,4824.0460,N,432.1590,W,10.00,17.71,151016,,*01
$GPRMC,024803,A,4824.0583,N,432.1531,W,10.00,17.71,151016,,*06
$GPRMC,024803,A,4824.0706,N,432.1472,W,10.00,17.71,151016,,*0F
$GPRMC,024803,A,4824.0829,N,432.1413,W,10.00,17.71,151016,,*0A
$GPRMC,024803,A,4824.0952,N,432.1354,W,10.00,17.71,151016,,*03
$GPRMC,024803,A,4824.1075,N,432.1295,W,10.00,17.71,151016,,*02
$GPRMC,024803,A,4824.1198,N,432.1236,W,10.00,17.71,151016,,*09
$GPRMC,024803,A,4824.1322,N,432.1177,W,10.00,17.71,151016,,*0C
$GPRMC,024803,A,4824.1445,N,432.1118,W,10.00,17.71,151016,,*03
$GPRMC,024803,A,4824.1568,N,432.1059,W,10.00,17.71,151016,,*09
$GPRMC,024803,A,4824.1691,N,432.1000,W,10.00,17.71,151016,,*00
$GPRMC,024803,A,4824.1814,N,432.0940,W,10.00,17.71,151016,,*0F
$GPRMC,024803,A,4824.1937,N,432.0881,W,10.00,17.71,151016,,*03
$GPRMC,024803,A,4824.2060,N,432.0822,W,10.00,17.71,151016,,*02
$GPRMC,024803,A,4824.2183,N,432.0763,W,10.00,17.71,151016,,*04
$GPRMC,024803,A,4824.2306,N,432.0704,W,10.00,17.71,151016,,*0A
$GPRMC,024803,A,4824.2429,N,432.0645,W,10.00,17.71,151016,,*04
$GPRMC,024803,A,4824.2552,N,432.0586,W,10.00,17.71,151016,,*05
$GPRMC,024803,A,4824.2675,N,432.0527,W,10.00,17.71,151016,,*08
$GPRMC,024803,A,4824.2798,N,432.0468,W,10.00,17.71,151016,,*00
$GPRMC,024803,A,4824.2921,N,432.0409,W,10.00,17.71,151016,,*0B
$GPRMC,024803,A,4824.3045,N,432.0350,W,10.00,17.71,151016,,*0A
$GPRMC,024803,A,4824.3168,N,432.0291,W,10.00,17.71,151016,,*08
$GPRMC,024803,A,4824.3291,N,432.0232,W,10.00,17.71,151016,,*04
$GPRMC,024803,A,4824.3414,N,432.0173,W,10.00,17.71,151016,,*09
$GPRMC,024803,A,4824.3537,N,432.0113,W,10.00,17.71,151016,,*0F
$GPRMC,024803,A,4824.3660,N,432.0054,W,10.00,17.71,151016,,*0C
$GPRMC,024803,A,4824.3783,N,431.9995,W,10.00,17.71,151016,,*0E
$GPRMC,024803,A,4824.3906,N,431.9936,W,10.00,17.71,151016,,*04
$GPRMC,024803,A,4824.4029,N,431.9877,W,10.00,17.71,151016,,*03
$GPRMC,024803,A,4824.4152,N,431.9818,W,10.00,17.71,151016,,*07
$GPRMC,024803,A,4824.4275,N,431.9759,W,10.00,17.71,151016,,*0B
$GPRMC,024803,A,4824.4398,N,431.9700,W,10.00,17.71,151016,,*05
$GPRMC,024803,A,4824.4521,N,431.9641,W,10.00,17.71,151016,,*05
$GPRMC,024803,A,4824.4645,N,431.9582,W,10.00,17.71,151016,,*08
$GPRMC,024803,A,4824.4768,N,431.9523,W,10.00,17.71,151016,,*0D
$GPRMC,024803,A,4824.4891,N,431.9464,W,10.00,17.71,151016,,*06
$GPRMC,024803,A,4824.5014,N,431.9405,W,10.00,17.71,151016,,*05
$GPRMC,024803,A,4824.5137,N,431.9345,W,10.00,17.71,151016,,*06
$GPRMC,024803,A,4824.5260,N,431.9286,W,10.00,17.71,151016,,*09
$GPRMC,024803,A,4824.5383,N,431.9227,W,10.00,17.71,151016,,*0E
$GPRMC,024803,A,4824.5506,N,431.9168,W,10.00,17.71,151016,,*0D
$GPRMC,024803,A,4824.5629,N,431.9109,W,10.00,17.71,151016,,*04
$GPRMC,024803,A,4824.5752,N,431.9050,W,10.00,17.71,151016,,*04
$GPRMC,024803,A,4824.5875,N,431.8991,W,10.00,17.71,151016,,*0B
$GPRMC,024803,A,4824.5998,N,431.8932,W,10.00,17.71,151016,,*00
$GPRMC,024803,A,4824.6121,N,431.8873,W,10.00,17.71,151016,,*0D
$GPRMC,024803,A,4824.6244,N,431.8814,W,10.00,17.71,151016,,*0C
$GPRMC,024803,A,4824.6368,N,431.8755,W,10.00,17.71,151016,,*09
$GPRMC,024803,A,4824.6491,N,431.8696,W,10.00,17.71,151016,,*06
$GPRMC,024803,A,4824.6614,N,431.8636,W,10.00,17.71,151016,,*03
$GPRMC,024803,A,4824.6737,N,431.8577,W,10.00,17.71,151016,,*05
$GPRMC,024803,A,4824.6860,N,431.8518,W,10.00,17.71,151016,,*01
$GPRMC,024803,A,4824.6983,N,431.8459,W,10.00,17.71,151016,,*09
$GPRMC,024803,A,4824.7106,N,431.8400,W,10.00,17.71,151016,,*01
$GPRMC,024803,A,4824.7229,N,431.8341,W,10.00,17.71,151016,,*0D
$GPRMC,024803,A,4824.7352,N,431.8282,W,10.00,17.71,151016,,*0E
$GPRMC,024803,A,4824.7475,N,431.8223,W,10.00,17.71,151016,,*07
$GPRMC,024803,A,4824.7598,N,431.8164,W,10.00,17.71,151016,,*05
$GPRMC,024803,A,4824.7721,N,431.8105,W,10.00,17.71,151016,,*02
$GPRMC,024803,A,4824.7844,N,431.8046,W,10.00,17.71,151016,,*08
$GPRMC,024803,A,4824.7967,N,431.7987,W,10.00,17.71,151016,,*03
$GPRMC,024803,A,4824.8091,N,431.7927,W,10.00,17.71,151016,,*06
$GPRMC,024803,A,4824.8214,N,431.7868,W,10.00,17.71,151016,,*03
$GPRMC,024803,A,4824.8337,N,431.7809,W,10.00,17.71,151016,,*04
$GPRMC,024803,A,4824.8460,N,431.7750,W,10.00,17.71,151016,,*02
$GPRMC,024803,A,4824.8583,N,431.7691,W,10.00,17.71,151016,,*02
$GPRMC,024803,A,4824.8706,N,431.7632,W,10.00,17.71,151016,,*04
$GPRMC,024803,A,4824.8829,N,431.7573,W,10.00,17.71,151016,,*00
$GPRMC,024803,A,4824.8952,N,431.7514,W,10.00,17.71,151016,,*0C
$GPRMC,024803,A,4824.9075,N,431.7455,W,10.00,17.71,151016,,*05
$GPRMC,024803,A,4824.9198,N,431.7396,W,10.00,17.71,151016,,*0F
$GPRMC,024803,A,4824.9321,N,431.7336,W,10.00,17.71,151016,,*05
$GPRMC,024803,A,4824.9444,N,431.7277,W,10.00,17.71,151016,,*05
$GPRMC,024803,A,4824.9567,N,431.7218,W,10.00,17.71,151016,,*0C
$GPRMC,024803,A,4824.9690,N,431.7159,W,10.00,17.71,151016,,*01
$GPRMC,024803,A,4824.9814,N,431.7100,W,10.00,17.71,151016,,*0F
$GPRMC,024803,A,4824.9937,N,431.7041,W,10.00,17.71,151016,,*0B
$GPRMC,024803,A,4825.0060,N,431.6982,W,10.00,17.71,151016,,*0F
$GPRMC,024803,A,4825.0183,N,431.6923,W,10.00,17.71,151016,,*08
$GPRMC,024803,A,4825.0306,N,431.6864,W,10.00,17.71,151016,,*05
$GPRMC,024803,A,4825.0429,N,431.6805,W,10.00,17.71,151016,,*08
$GPRMC,024803,A,4825.0552,N,431.6746,W,10.00,17.71,151016,,*0D
$GPRMC,024803,A,4825.0675,N,431.6686,W,10.00,17.71,151016,,*06
$GPRMC,024803,A,4825.0798,N,431.6627,W,10.00,17.71,151016,,*0F
$GPRMC,024803,A,4825.0921,N,431.6568,W,10.00,17.71,151016,,*0B
$GPRMC,024803,A,4825.1044,N,431.6509,W,10.00,17.71,151016,,*07
$GPRMC,024803,A,4825.1167,N,431.6450,W,10.00,17.71,151016,,*0A
$GPRMC,024803,A,4825.1290,N,431.6391,W,10.00,17.71,151016,,*0B
$GPRMC,024803,A,4825.1413,N,431.6332,W,10.00,17.71,151016,,*0F
$GPRMC,024803,A,4825.1537,N,431.6273,W,10.00,17.71,151016,,*0C
$GPRMC,024803,A,4825.1660,N,431.6214,W,10.00,17.71,151016,,*0C
$GPRMC,024803,A,4825.1783,N,431.6154,W,10.00,17.71,151016,,*07
$GPRMC,024803,A,4825.1906,N,431.6095,W,10.00,17.71,151016,,*08
$GPRMC,024803,A,4825.2029,N,431.6036,W,10.00,17.71,151016,,*06
$GPRMC,024803,A,4825.2152,N,431.5977,W,10.00,17.71,151016,,*04
$GPRMC,024803,A,4825.2275,N,431.5918,W,10.00,17.71,151016,,*0B
$GPRMC,024803,A,4825.2398,N,431.5859,W,10.00,17.71,151016,,*0D
$GPRMC,024803,A,4825.2521,N,431.5800,W,10.00,17.71,151016,,*05
$GPRMC,024803,A,4825.2644,N,431.5741,W,10.00,17.71,151016,,*0F
$GPRMC,024803,A,4825.2767,N,431.5682,W,10.00,17.71,151016,,*01
$GPRMC,024803,A,4825.2890,N,431.5623,W,10.00,17.71,151016,,*0D
$GPRMC,024803,A,4825.3013,N,431.5563,W,10.00,17.71,151016,,*08
$GPRMC,024803,A,4825.3136,N,431.5504,W,10.00,17.71,151016,,*0F
$GPRMC,024803,A,4825.3259,N,431.5445,W,10.00,17.71,151016,,*01
$GPRMC,024803,A,4825.3383,N,431.5386,W,10.00,17.71,151016,,*0F
$GPRMC,024803,A,4825.3506,N,431.5327,W,10.00,17.71,151016,,*0F
$GPRMC,024803,A,4825.3629,N,431.5268,W,10.00,17.71,151016,,*0B
$GPRMC,024803,A,4825.3752,N,431.5209,W,10.00,17.71,151016,,*01
$GPRMC,024803,A,4825.3875,N,431.5150,W,10.00,17.71,151016,,*04
$GPRMC,024803,A,4825.3998,N,431.5091,W,10.00,17.71,151016,,*0A
$GPRMC,024803,A,4825.4121,N,431.5031,W,10.00,17.71,151016,,*0D
$GPRMC,024803,A,4825.4244,N,431.4972,W,10.00,17.71,151016,,*02
$GPRMC,024803,A,4825.4367,N,431.4913,W,10.00,17.71,151016,,*05
$GPRMC,024803,A,4825.4490,N,431.4854,W,10.00,17.71,151016,,*08
$GPRMC,024803,A,4825.4613,N,431.4795,W,10.00,17.71,151016,,*03
$GPRMC,024803,A,4825.4736,N,431.4736,W,10.00,17.71,151016,,*0C
$GPRMC,024803,A,4825.4859,N,431.4677,W,10.00,17.71,151016,,*0E
$GPRMC,024803,A,4825.4982,N,431.4618,W,10.00,17.71,151016,,*00
$GPRMC,024803,A,4825.5106,N,431.4558,W,10.00,17.71,151016,,*02
$GPRMC,024803,A,4825.5229,N,431.4499,W,10.00,17.71,151016,,*00
$GPRMC,024803,A,4825.5352,N,431.4440,W,10.00,17.71,151016,,*09
$GPRMC,024803,A,4825.5475,N,431.4381,W,10.00,17.71,151016,,*01
$GPRMC,024803,A,4825.5598,N,431.4322,W,10.00,17.71,151016,,*0A
$GPRMC,024803,A,4825.5721,N,431.4263,W,10.00,17.71,151016,,*0E
$GPRMC,024803,A,4825.5844,N,431.4204,W,10.00,17.71,151016,,*03
$GPRMC,024803,A,4825.5967,N,431.4145,W,10.00,17.71,151016,,*05
$GPRMC,024803,A,4825.6090,N,431.4085,W,10.00,17.71,151016,,*0A
$GPRMC,024803,A,4825.6213,N,431.4026,W,10.00,17.71,151016,,*0A
$GPRMC,024803,A,4825.6336,N,431.3967,W,10.00,17.71,151016,,*07
$GPRMC,024803,A,4825.6459,N,431.3908,W,10.00,17.71,151016,,*00
$GPRMC,024803,A,4825.6582,N,431.3849,W,10.00,17.71,151016,,*03
$GPRMC,024803,A,4825.6705,N,431.3790,W,10.00,17.71,151016,,*05
$GPRMC,024803,A,4825.6828,N,431.3731,W,10.00,17.71,151016,,*0E
$GPRMC,024803,A,4825.6952,N,431.3672,W,10.00,17.71,151016,,*04
$GPRMC,024803,A,4825.7075,N,431.3613,W,10.00,17.71,151016,,*0E
$GPRMC,024803,A,4825.7198,N,431.3553,W,10.00,17.71,151016,,*0B
$GPRMC,024803,A,4825.7321,N,431.3494,W,10.00,17.71,151016,,*01
$GPRMC,024803,A,4825.7444,N,431.3435,W,10.00,17.71,151016,,*0E
$GPRMC,024803,A,4825.7567,N,431.3376,W,10.00,17.71,151016,,*0E
$GPRMC,024803,A,4825.7690,N,431.3317,W,10.00,17.71,151016,,*02
$GPRMC,024803,A,4825.7813,N,431.3258,W,10.00,17.71,151016,,*0D
$GPRMC,024803,A,4825.7936,N,431.3199,W,10.00,17.71,151016,,*05
$GPRMC,024803,A,4825.8059,N,431.3139,W,10.00,17.71,151016,,*00
$GPRMC,024803,A,4825.8182,N,431.3080,W,10.00,17.71,151016,,*04
$GPRMC,024803,A,4825.8305,N,431.3021,W,10.00,17.71,151016,,*02
$GPRMC,024803,A,4825.8428,N,431.2962,W,10.00,17.71,151016,,*05
$GPRMC,024803,A,4825.8551,N,431.2903,W,10.00,17.71,151016,,*0D
$GPRMC,024803,A,4825.8674,N,431.2844,W,10.00,17.71,151016,,*0B
$GPRMC,024803,A,4825.8798,N,431.2785,W,10.00,17.71,151016,,*0A
$GPRMC,024803,A,4825.8921,N,431.2726,W,10.00,17.71,151016,,*0F
$GPRMC,024803,A,4825.9044,N,431.2666,W,10.00,17.71,151016,,*01
$GPRMC,024803,A,4825.9167,N,431.2607,W,10.00,17.71,151016,,*06
$GPRMC,024803,A,4825.9290,N,431.2548,W,10.00,17.71,151016,,*05
$GPRMC,024803,A,4825.9413,N,431.2489,W,10.00,17.71,151016,,*04
$GPRMC,024803,A,4825.9536,N,431.2430,W,10.00,17.71,151016,,*00
$GPRMC,024803,A,4825.9659,N,431.2371,W,10.00,17.71,151016,,*08
$GPRMC,024803,A,4825.9782,N,431.2312,W,10.00,17.71,151016,,*0A
$GPRMC,024803,A,4825.9905,N,431.2252,W,10.00,17.71,151016,,*0E
$GPRMC,024803,A,4826.0028,N,431.2193,W,10.00,17.71,151016,,*0C
$GPRMC,024803,A,4826.0151,N,431.2134,W,10.00,17.71,151016,,*0E
$GPRMC,024803,A,4826.0274,N,431.2075,W,10.00,17.71,151016,,*0E
$GPRMC,024803,A,4826.0397,N,431.2016,W,10.00,17.71,151016,,*07
$GPRMC,024803,A,4826.0520,N,431.1957,W,10.00,17.71,151016,,*02
$GPRMC,024803,A,4826.0644,N,431.1898,W,10.00,17.71,151016,,*01
$GPRMC,024803,A,4826.0767,N,431.1839,W,10.00,17.71,151016,,*0A
$GPRMC,024803,A,4826.0890,N,431.1779,W,10.00,17.71,151016,,*06
$GPRMC,024803,A,4826.1013,N,431.1720,W,10.00,17.71,151016,,*08
$GPRMC,024803,A,4826.1136,N,431.1661,W,10.00,17.71,151016,,*0A
$GPRMC,024803,A,4826.1259,N,431.1602,W,10.00,17.71,151016,,*05
$GPRMC,024803,A,4826.1382,N,431.1543,W,10.00,17.71,151016,,*04
$GPRMC,024803,A,4826.1505,N,431.1484,W,10.00,17.71,151016,,*07
$GPRMC,024803,A,4826.1628,N,431.1425,W,10.00,17.71,151016,,*00
$GPRMC,024803,A,4826.1751,N,431.1365,W,10.00,17.71,151016,,*0C
$GPRMC,024803,A,4826.1874,N,431.1306,W,10.00,17.71,151016,,*01
$GPRMC,024803,A,4826.1997,N,431.1247,W,10.00,17.71,151016,,*09
$GPRMC,024803,A,4826.2120,N,431.1188,W,10.00,17.71,151016,,*0E
$GPRMC,024803,A,4826.2243,N,431.1129,W,10.00,17.71,151016,,*03
$GPRMC,024803,A,4826.2366,N,431.1070,W,10.00,17.71,151016,,*08
$GPRMC,024803,A,4826.2489,N,431.1011,W,10.00,17.71,151016,,*09
$GPRMC,024803,A,4826.2613,N,431.0951,W,10.00,17.71,151016,,*04
$GPRMC,024803,A,4826.2736,N,431.0892,W,10.00,17.71,151016,,*0C
$GPRMC,024803,A,4826.2859,N,431.0833,W,10.00,17.71,151016,,*01
$GPRMC,024803,A,4826.2982,N,431.0774,W,10.00,17.71,151016,,*0A
$GPRMC,024803,A,4826.3105,N,431.0715,W,10.00,17.71,151016,,*0B
$GPRMC,024803,A,4826.3228,N,431.0656,W,10.00,17.71,151016,,*01
$GPRMC,024803,A,4826.3351,N,431.0596,W,10.00,17.71,151016,,*01
$GPRMC,024803,A,4826.3474,N,431.0537,W,10.00,17.71,151016,,*0A
$GPRMC,024803,A,4826.3597,N,431.0478,W,10.00,17.71,151016,,*0C
$GPRMC,024803,A,4826.3720,N,431.0419,W,10.00,17.71,151016,,*05
$GPRMC,024803,A,4826.3843,N,431.0360,W,10.00,17.71,151016,,*06
$GPRMC,024803,A,4826.3966,N,431.0301,W,10.00,17.71,151016,,*07
$GPRMC,024803,A,4826.4089,N,431.0242,W,10.00,17.71,151016,,*0E
$GPRMC,024803,A,4826.4212,N,431.0182,W,10.00,17.71,151016,,*01
$GPRMC,024803,A,4826.4335,N,431.0123,W,10.00,17.71,151016,,*0E
$GPRMC,024803,A,4826.4459,N,431.0064,W,10.00,17.71,151016,,*01
$GPRMC,024803,A,4826.4582,N,431.0005,W,10.00,17.71,151016,,*01
$GPRMC,024803,A,4826.4705,N,430.9946,W,10.00,17.71,151016,,*0A
$GPRMC,024803,A,4826.4828,N,430.9887,W,10.00,17.71,151016,,*06
$GPRMC,024803,A,4826.4951,N,430.9827,W,10.00,17.71,151016,,*03
$GPRMC,024803,A,4826.5074,N,430.9768,W,10.00,17.71,151016,,*08
$GPRMC,024803,A,4826.5197,N,430.9709,W,10.00,17.71,151016,,*03
$GPRMC,024803,A,4826.5320,N,430.9650,W,10.00,17.71,151016,,*00
$GPRMC,024803,A,4826.5443,N,430.9591,W,10.00,17.71,151016,,*0C
$GPRMC,024803,A,4826.5566,N,430.9532,W,10.00,17.71,151016,,*03
$GPRMC,024803,A,4826.5689,N,430.9473,W,10.00,17.71,151016,,*05
$GPRMC,024803,A,4826.5812,N,430.9413,W,10.00,17.71,151016,,*0F
$GPRMC,024803,A,4826.5935,N,430.9354,W,10.00,17.71,151016,,*0F
$GPRMC,024803,A,4826.6058,N,430.9295,W,10.00,17.71,151016,,*02
$GPRMC,024803,A,4826.6181,N,430.9236,W,10.00,17.71,151016,,*0E
$GPRMC,024803,A,4826.6304,N,430.9177,W,10.00,17.71,151016,,*07
$GPRMC,024803,A,4826.6428,N,430.9118,W,10.00,17.71,151016,,*07
$GPRMC,024803,A,4826.6551,N,430.9058,W,10.00,17.71,151016,,*0D
$GPRMC,024803,A,4826.6674,N,430.8999,W,10.00,17.71,151016,,*0C
$GPRMC,024803,A,4826.6797,N,430.8940,W,10.00,17.71,151016,,*04
$GPRMC,024803,A,4826.6920,N,430.8881,W,10.00,17.71,151016,,*0A
$GPRMC,024803,A,4826.7043,N,430.8822,W,10.00,17.71,151016,,*0E
$GPRMC,024803,A,4826.7166,N,430.8763,W,10.00,17.71,151016,,*02
$GPRMC,024803,A,4826.7289,N,430.8703,W,10.00,17.71,151016,,*06
$GPRMC,024803,A,4826.7412,N,430.8644,W,10.00,17.71,151016,,*00
$GPRMC,024803,A,4826.7535,N,430.8585,W,10.00,17.71,151016,,*0A
$GPRMC,024803,A,4826.7658,N,430.8526,W,10.00,17.71,151016,,*0B
$GPRMC,024803,A,4826.7781,N,430.8467,W,10.00,17.71,151016,,*0A
$GPRMC,024803,A,4826.7904,N,430.8408,W,10.00,17.71,151016,,*00
$GPRMC,024803,A,4826.8027,N,430.8348,W,10.00,17.71,151016,,*04
$GPRMC,024803,A,4826.8150,N,430.8289,W,10.00,17.71,151016,,*09
$GPRMC,024803,A,4826.8273,N,430.8230,W,10.00,17.71,151016,,*09
$GPRMC,024803,A,4826.8397,N,430.8171,W,10.00,17.71,151016,,*04
$GPRMC,024803,A,4826.8520,N,430.8112,W,10.00,17.71,151016,,*0B
$GPRMC,024803,A,4826.8643,N,430.8053,W,10.00,17.71,151016,,*09
$GPRMC,024803,A,4826.8766,N,430.7993,W,10.00,17.71,151016,,*05
$GPRMC,024803,A,4826.8889,N,430.7934,W,10.00,17.71,151016,,*06
$GPRMC,024803,A,4826.9012,N,430.7875,W,10.00,17.71,151016,,*09
$GPRMC,024803,A,4826.9135,N,430.7816,W,10.00,17.71,151016,,*08
$GPRMC,024803,A,4826.9258,N,430.7757,W,10.00,17.71,151016,,*0A
$GPRMC,024803,A,4826.9381,N,430.7698,W,10.00,17.71,151016,,*0D
$GPRMC,024803,A,4826.9504,N,430.7638,W,10.00,17.71,151016,,*0C
$GPRMC,024803,A,4826.9627,N,430.7579,W,10.00,17.71,151016,,*08
$GPRMC,024803,A,4826.9750,N,430.7520,W,10.00,17.71,151016,,*05
$GPRMC,024803,A,4826.9873,N,430.7461,W,10.00,17.71,151016,,*0F
$GPRMC,024803,A,4826.9996,N,430.7402,W,10.00,17.71,151016,,*00
$GPRMC,024803,A,4827.0119,N,430.7342,W,10.00,17.71,151016,,*04
$GPRMC,024803,A,4827.0242,N,430.7283,W,10.00,17.71,151016,,*05
$GPRMC,024803,A,4827.0366,N,430.7224,W,10.00,17.71,151016,,*0F
$GPRMC,024803,A,4827.0489,N,430.7165,W,10.00,17.71,151016,,*0F
$GPRMC,024803,A,4827.0612,N,430.7106,W,10.00,17.71,151016,,*0A
$GPRMC,024803,A,4827.0735,N,430.7047,W,10.00,17.71,151016,,*0A
$GPRMC,024803,A,4827.0858,N,430.6987,W,10.00,17.71,151016,,*0A
$GPRMC,024803,A,4827.0981,N,430.6928,W,10.00,17.71,151016,,*0A
$GPRMC,024803,A,4827.1104,N,430.6869,W,10.00,17.71,151016,,*0A
$GPRMC,024803,A,4827.1227,N,430.6810,W,10.00,17.71,151016,,*06
$GPRMC,024803,A,4827.1350,N,430.6751,W,10.00,17.71,151016,,*0D
$GPRMC,024803,A,4827.1473,N,430.6692,W,10.00,17.71,151016,,*05
$GPRMC,024803,A,4827.1596,N,430.6632,W,10.00,17.71,151016,,*05
$GPRMC,024803,A,4827.1719,N,430.6573,W,10.00,17.71,151016,,*06
$GPRMC,024803,A,4827.1842,N,430.6514,W,10.00,17.71,151016,,*06
$GPRMC,024803,A,4827.1965,N,430.6455,W,10.00,17.71,151016,,*06
$GPRMC,024803,A,4827.2088,N,430.6396,W,10.00,17.71,151016,,*07
$GPRMC,024803,A,4827.2211,N,430.6336,W,10.00,17.71,151016,,*0F
$GPRMC,024803,A,4827.2335,N,430.6277,W,10.00,17.71,151016,,*0C
$GPRMC,024803,A,4827.2458,N,430.6218,W,10.00,17.71,151016,,*09
$GPRMC,024803,A,4827.2581,N,430.6159,W,10.00,17.71,151016,,*0A
$GPRMC,024803,A,4827.2704,N,430.6100,W,10.00,17.71,151016,,*09
$GPRMC,024803,A,4827.2827,N,430.6040,W,10.00,17.71,151016,,*02
$GPRMC,024803,A,4827.2950,N,430.5981,W,10.00,17.71,151016,,*04
$GPRMC,024803,A,4827.3073,N,430.5922,W,10.00,17.71,151016,,*04
$GPRMC,024803,A,4827.3196,N,430.5863,W,10.00,17.71,151016,,*0A
$GPRMC,024803,A,4827.3319,N,430.5804,W,10.00,17.71,151016,,*0E
$GPRMC,024803,A,4827.3442,N,430.5745,W,10.00,17.71,151016,,*0D
$GPRMC,024803,A,4827.3565,N,430.5685,W,10.00,17.71,151016,,*04
$GPRMC,024803,A,4827.3688,N,430.5626,W,10.00,17.71,151016,,*0D
$GPRMC,024803,A,4827.3811,N,430.5567,W,10.00,17.71,151016,,*05
$GPRMC,024803,A,4827.3934,N,430.5508,W,10.00,17.71,151016,,*0A
$GPRMC,024803,A,4827.4057,N,430.5449,W,10.00,17.71,151016,,*05
$GPRMC,024803,A,4827.4180,N,430.5389,W,10.00,17.71,151016,,*05
$GPRMC,024803,A,4827.4303,N,430.5330,W,10.00,17.71,151016,,*0E
$GPRMC,024803,A,4827.4427,N,430.5271,W,10.00,17.71,151016,,*0B
$GPRMC,024803,A,4827.4550,N,430.5212,W,10.00,17.71,151016,,*0F
$GPRMC,024803,A,4827.4673,N,430.5153,W,10.00,17.71,151016,,*0B
$GPRMC,024803,A,4827.4796,N,430.5093,W,10.00,17.71,151016,,*0C
$GPRMC,024803,A,4827.4919,N,430.5034,W,10.00,17.71,151016,,*08
$GPRMC,024803,A,4827.5042,N,430.4975,W,10.00,17.71,151016,,*03
$GPRMC,024803,A,4827.5165,N,430.4916,W,10.00,17.71,151016,,*02
$GPRMC,024803,A,4827.5288,N,430.4857,W,10.00,17.71,151016,,*06
$GPRMC,024803,A,4827.5411,N,430.4797,W,10.00,17.71,151016,,*03
$GPRMC,024803,A,4827.5534,N,430.4738,W,10.00,17.71,151016,,*00
$GPRMC,024803,A,4827.5657,N,430.4679,W,10.00,17.71,151016,,*02
$GPRMC,024803,A,4827.5780,N,430.4620,W,10.00,17.71,151016,,*05
$GPRMC,024803,A,4827.5903,N,430.4561,W,10.00,17.71,151016,,*06
$GPRMC,024803,A,4827.6026,N,430.4501,W,10.00,17.71,151016,,*0D
$GPRMC,024803,A,4827.6149,N,430.4442,W,10.00,17.71,151016,,*03
$GPRMC,024803,A,4827.6272,N,430.4383,W,10.00,17.71,151016,,*02
$GPRMC,024803,A,4827.6395,N,430.4324,W,10.00,17.71,151016,,*07
$GPRMC,024803,A,4827.6519,N,430.4265,W,10.00,17.71,151016,,*01
$GPRMC,024803,A,4827.6642,N,430.4205,W,10.00,17.71,151016,,*0A
$GPRMC,024803,A,4827.6765,N,430.4146,W,10.00,17.71,151016,,*0A
$GPRMC,024803,A,4827.6888,N,430.4087,W,10.00,17.71,151016,,*0A
$GPRMC,024803,A,4827.7011,N,430.4028,W,10.00,17.71,151016,,*06
$GPRMC,024803,A,4827.7134,N,430.3969,W,10.00,17.71,151016,,*0B
$GPRMC,024803,A,4827.7257,N,430.3909,W,10.00,17.71,151016,,*0B
$GPRMC,024803,A,4827.7380,N,430.3850,W,10.00,17.71,151016,,*0D
$GPRMC,024803,A,4827.7503,N,430.3791,W,10.00,17.71,151016,,*02
$GPRMC,024803,A,4827.7626,N,430.3732,W,10.00,17.71,151016,,*0F
$GPRMC,024803,A,4827.7749,N,430.3673,W,10.00,17.71,151016,,*03
$GPRMC,024803,A,4827.7872,N,430.3613,W,10.00,17.71,151016,,*02
$GPRMC,024803,A,4827.7995,N,430.3554,W,10.00,17.71,151016,,*0A
$GPRMC,024803,A,4827.8118,N,430.3495,W,10.00,17.71,151016,,*04
$GPRMC,024803,A,4827.8241,N,430.3436,W,10.00,17.71,151016,,*02
$GPRMC,024803,A,4827.8364,N,430.3377,W,10.00,17.71,151016,,*06
$GPRMC,024803,A,4827.8487,N,430.3317,W,10.00,17.71,151016,,*0A
$GPRMC,024803,A,4827.8611,N,430.3258,W,10.00,17.71,151016,,*0D
$GPRMC,024803,A,4827.8734,N,430.3199,W,10.00,17.71,151016,,*05
$GPRMC,024803,A,4827.8857,N,430.3140,W,10.00,17.71,151016,,*0B
$GPRMC,024803,A,4827.8980,N,430.3081,W,10.00,17.71,151016,,*0C
$GPRMC,024803,A,4827.9103,N,430.3021,W,10.00,17.71,151016,,*04
$GPRMC,024803,A,4827.9226,N,430.2962,W,10.00,17.71,151016,,*0F
$GPRMC,024803,A,4827.9349,N,430.2903,W,10.00,17.71,151016,,*00
$GPRMC,024803,A,4827.9472,N,430.2844,W,10.00,17.71,151016,,*0D
$GPRMC,024803,A,4827.9595,N,430.2785,W,10.00,17.71,151016,,*07
$GPRMC,024803,A,4827.9718,N,430.2725,W,10.00,17.71,151016,,*0A
