$GPRMC,104525,A,4819.8065,N,436.5864,W,10.00,265.32,111115,,*3C
$GPRMC,104525,A,4819.8054,N,436.6070,W,10.00,265.32,111115,,*30
$GPRMC,104525,A,4819.8043,N,436.6276,W,10.00,265.32,111115,,*32
$GPRMC,104525,A,4819.8031,N,436.6482,W,10.00,265.32,111115,,*3A
$GPRMC,104525,A,4819.8020,N,436.6688,W,10.00,265.32,111115,,*32
$GPRMC,104525,A,4819.8009,N,436.6895,W,10.00,265.32,111115,,*3B
$GPRMC,104525,A,4819.7998,N,436.7101,W,10.00,265.32,111115,,*30
$GPRMC,104525,A,4819.7986,N,436.7307,W,10.00,265.32,111115,,*3B
$GPRMC,104525,A,4819.7975,N,436.7513,W,10.00,265.32,111115,,*34
$GPRMC,104525,A,4819.7964,N,436.7719,W,10.00,265.32,111115,,*3C
$GPRMC,104525,A,4819.7953,N,436.7925,W,10.00,265.32,111115,,*39
$GPRMC,104525,A,4819.7941,N,436.8131,W,10.00,265.32,111115,,*38
$GPRMC,104525,A,4819.7930,N,436.8337,W,10.00,265.32,111115,,*3A
$GPRMC,104525,A,4819.7919,N,436.8543,W,10.00,265.32,111115,,*34
$GPRMC,104525,A,4819.7908,N,436.8750,W,10.00,265.32,111115,,*34
$GPRMC,104525,A,4819.7896,N,436.8956,W,10.00,265.32,111115,,*3A
$GPRMC,104525,A,4819.7885,N,436.9162,W,10.00,265.32,111115,,*36
$GPRMC,104525,A,4819.7874,N,436.9368,W,10.00,265.32,111115,,*30
$GPRMC,104525,A,4819.7863,N,436.9574,W,10.00,265.32,111115,,*3D
$GPRMC,104525,A,4819.7851,N,436.9780,W,10.00,265.32,111115,,*35
$GPRMC,104525,A,4819.7840,N,436.9986,W,10.00,265.32,111115,,*3D
$GPRMC,104525,A,4819.7829,N,437.0192,W,10.00,265.32,111115,,*37
$GPRMC,104525,A,4819.7818,N,437.0398,W,10.00,265.32,111115,,*3D
$GPRMC,104525,A,4819.7806,N,437.0605,W,10.00,265.32,111115,,*33
$GPRMC,104525,A,4819.7795,N,437.0811,W,10.00,265.32,111115,,*3D
$GPRMC,104525,A,4819.7784,N,437.1017,W,10.00,265.32,111115,,*32
$GPRMC,104525,A,4819.7773,N,437.1223,W,10.00,265.32,111115,,*3F
$GPRMC,104525,A,4819.7761,N,437.1429,W,10.00,265.32,111115,,*30
$GPRMC,104525,A,4819.7750,N,437.1635,W,10.00,265.32,111115,,*3D
$GPRMC,104525,A,4819.7739,N,437.1841,W,10.00,265.32,111115,,*3F
$GPRMC,104525,A,4819.7728,N,437.2047,W,10.00,265.32,111115,,*32
$GPRMC,104525,A,4819.7716,N,437.2253,W,10.00,265.32,111115,,*38
$GPRMC,104525,A,4819.7705,N,437.2459,W,10.00,265.32,111115,,*36
$GPRMC,104525,A,4819.7694,N,437.2666,W,10.00,265.32,111115,,*31
$GPRMC,104525,A,4819.7682,N,437.2872,W,10.00,265.32,111115,,*3D
$GPRMC,104525,A,4819.7671,N,437.3078,W,10.00,265.32,111115,,*32
$GPRMC,104525,A,4819.7660,N,437.3284,W,10.00,265.32,111115,,*33
$GPRMC,104525,A,4819.7649,N,437.3490,W,10.00,265.32,111115,,*3B
$GPRMC,104525,A,4819.7637,N,437.3696,W,10.00,265.32,111115,,*36
$GPRMC,104525,A,4819.7626,N,437.3902,W,10.00,265.32,111115,,*34
$GPRMC,104525,A,4819.7615,N,437.4108,W,10.00,265.32,111115,,*31
$GPRMC,104525,A,4819.7604,N,437.4314,W,10.00,265.32,111115,,*3E
$GPRMC,104525,A,4819.7592,N,437.4521,W,10.00,265.32,111115,,*32
$GPRMC,104525,A,4819.7581,N,437.4727,W,10.00,265.32,111115,,*34
$GPRMC,104525,A,4819.7570,N,437.4933,W,10.00,265.32,111115,,*31
$GPRMC,104525,A,4819.7559,N,437.5139,W,10.00,265.32,111115,,*39
$GPRMC,104525,A,4819.7547,N,437.5345,W,10.00,265.32,111115,,*3F
$GPRMC,104525,A,4819.7536,N,437.5551,W,10.00,265.32,111115,,*3A
$GPRMC,104525,A,4819.7525,N,437.5757,W,10.00,265.32,111115,,*3C
$GPRMC,104525,A,4819.7513,N,437.5963,W,10.00,265.32,111115,,*30
$GPRMC,104525,A,4819.7502,N,437.6169,W,10.00,265.32,111115,,*31
$GPRMC,104525,A,4819.7491,N,437.6375,W,10.00,265.32,111115,,*35
$GPRMC,104525,A,4819.7480,N,437.6582,W,10.00,265.32,111115,,*3B
$GPRMC,104525,A,4819.7468,N,437.6788,W,10.00,265.32,111115,,*35
$GPRMC,104525,A,4819.7457,N,437.6994,W,10.00,265.32,111115,,*3A
$GPRMC,104525,A,4819.7446,N,437.7200,W,10.00,265.32,111115,,*3D
$GPRMC,104525,A,4819.7435,N,437.7406,W,10.00,265.32,111115,,*39
$GPRMC,104525,A,4819.7423,N,437.7612,W,10.00,265.32,111115,,*39
$GPRMC,104525,A,4819.7412,N,437.7818,W,10.00,265.32,111115,,*3F
$GPRMC,104525,A,4819.7401,N,437.8024,W,10.00,265.32,111115,,*35
$GPRMC,104525,A,4819.7389,N,437.8230,W,10.00,265.32,111115,,*35
$GPRMC,104525,A,4819.7378,N,437.8436,W,10.00,265.32,111115,,*3B
$GPRMC,104525,A,4819.7367,N,437.8643,W,10.00,265.32,111115,,*35
$GPRMC,104525,A,4819.7356,N,437.8849,W,10.00,265.32,111115,,*33
$GPRMC,104525,A,4819.7344,N,437.9055,W,10.00,265.32,111115,,*34
$GPRMC,104525,A,4819.7333,N,437.9261,W,10.00,265.32,111115,,*31
$GPRMC,104525,A,4819.7322,N,437.9467,W,10.00,265.32,111115,,*31
$GPRMC,104525,A,4819.7310,N,437.9673,W,10.00,265.32,111115,,*37
$GPRMC,104525,A,4819.7299,N,437.9879,W,10.00,265.32,111115,,*33
$GPRMC,104525,A,4819.7288,N,438.0085,W,10.00,265.32,111115,,*3E
$GPRMC,104525,A,4819.7277,N,438.0291,W,10.00,265.32,111115,,*39
$GPRMC,104525,A,4819.7265,N,438.0498,W,10.00,265.32,111115,,*35
$GPRMC,104525,A,4819.7254,N,438.0704,W,10.00,265.32,111115,,*31
$GPRMC,104525,A,4819.7243,N,438.0910,W,10.00,265.32,111115,,*3C
$GPRMC,104525,A,4819.7231,N,438.1116,W,10.00,265.32,111115,,*36
$GPRMC,104525,A,4819.7220,N,438.1322,W,10.00,265.32,111115,,*33
$GPRMC,104525,A,4819.7209,N,438.1528,W,10.00,265.32,111115,,*34
$GPRMC,104525,A,4819.7198,N,438.1734,W,10.00,265.32,111115,,*30
$GPRMC,104525,A,4819.7186,N,438.1940,W,10.00,265.32,111115,,*32
$GPRMC,104525,A,4819.7175,N,438.2146,W,10.00,265.32,111115,,*33
$GPRMC,104525,A,4819.7164,N,438.2352,W,10.00,265.32,111115,,*34
$GPRMC,104525,A,4819.7152,N,438.2558,W,10.00,265.32,111115,,*3D
$GPRMC,104525,A,4819.7141,N,438.2765,W,10.00,265.32,111115,,*33
$GPRMC,104525,A,4819.7130,N,438.2971,W,10.00,265.32,111115,,*3E
$GPRMC,104525,A,4819.7118,N,438.3177,W,10.00,265.32,111115,,*3B
$GPRMC,104525,A,4819.7107,N,438.3383,W,10.00,265.32,111115,,*3C
$GPRMC,104525,A,4819.7096,N,438.3589,W,10.00,265.32,111115,,*39
$GPRMC,104525,A,4819.7085,N,438.3795,W,10.00,265.32,111115,,*34
$GPRMC,104525,A,4819.7073,N,438.4001,W,10.00,265.32,111115,,*30
$GPRMC,104525,A,4819.7062,N,438.4207,W,10.00,265.32,111115,,*34
$GPRMC,104525,A,4819.7051,N,438.4413,W,10.00,265.32,111115,,*37
$GPRMC,104525,A,4819.7039,N,438.4619,W,10.00,265.32,111115,,*31
$GPRMC,104525,A,4819.7028,N,438.4826,W,10.00,265.32,111115,,*33
$GPRMC,104525,A,4819.7017,N,438.5032,W,10.00,265.32,111115,,*33
$GPRMC,104525,A,4819.7006,N,438.5238,W,10.00,265.32,111115,,*3B
$GPRMC,104525,A,4819.6994,N,438.5444,W,10.00,265.32,111115,,*35
$GPRMC,104525,A,4819.6983,N,438.5650,W,10.00,265.32,111115,,*34
$GPRMC,104525,A,4819.6972,N,438.5856,W,10.00,265.32,111115,,*32
$GPRMC,104525,A,4819.6960,N,438.6062,W,10.00,265.32,111115,,*3D
$GPRMC,104525,A,4819.6949,N,438.6268,W,10.00,265.32,111115,,*3E
$GPRMC,104525,A,4819.6938,N,438.6474,W,10.00,265.32,111115,,*33
$GPRMC,104525,A,4819.6926,N,438.6680,W,10.00,265.32,111115,,*35
$GPRMC,104525,A,4819.6915,N,438.6887,W,10.00,265.32,111115,,*3C
$GPRMC,104525,A,4819.6904,N,438.7093,W,10.00,265.32,111115,,*30
$GPRMC,104525,A,4819.6892,N,438.7299,W,10.00,265.32,111115,,*36
$GPRMC,104525,A,4819.6881,N,438.7505,W,10.00,265.32,111115,,*36
$GPRMC,104525,A,4819.6870,N,438.7711,W,10.00,265.32,111115,,*3F
$GPRMC,104525,A,4819.6859,N,438.7917,W,10.00,265.32,111115,,*3C
$GPRMC,104525,A,4819.6847,N,438.8123,W,10.00,265.32,111115,,*33
$GPRMC,104525,A,4819.6836,N,438.8329,W,10.00,265.32,111115,,*3D
$GPRMC,104525,A,4819.6825,N,438.8535,W,10.00,265.32,111115,,*34
$GPRMC,104525,A,4819.6813,N,438.8741,W,10.00,265.32,111115,,*30
$GPRMC,104525,A,4819.6802,N,438.8947,W,10.00,265.32,111115,,*38
$GPRMC,104525,A,4819.6791,N,438.9154,W,10.00,265.32,111115,,*36
$GPRMC,104525,A,4819.6779,N,438.9360,W,10.00,265.32,111115,,*35
$GPRMC,104525,A,4819.6768,N,438.9566,W,10.00,265.32,111115,,*35
$GPRMC,104525,A,4819.6757,N,438.9772,W,10.00,265.32,111115,,*3E
$GPRMC,104525,A,4819.6745,N,438.9978,W,10.00,265.32,111115,,*39
$GPRMC,104525,A,4819.6734,N,439.0184,W,10.00,265.32,111115,,*3C
$GPRMC,104525,A,4819.6723,N,439.0390,W,10.00,265.32,111115,,*3D
$GPRMC,104525,A,4819.6711,N,439.0596,W,10.00,265.32,111115,,*3C
$GPRMC,104525,A,4819.6700,N,439.0802,W,10.00,265.32,111115,,*3C
$GPRMC,104525,A,4819.6689,N,439.1008,W,10.00,265.32,111115,,*3F
$GPRMC,104525,A,4819.6678,N,439.1214,W,10.00,265.32,111115,,*3E
$GPRMC,104525,A,4819.6666,N,439.1421,W,10.00,265.32,111115,,*31
$GPRMC,104525,A,4819.6655,N,439.1627,W,10.00,265.32,111115,,*35
$GPRMC,104525,A,4819.6644,N,439.1833,W,10.00,265.32,111115,,*3E
$GPRMC,104525,A,4819.6632,N,439.2039,W,10.00,265.32,111115,,*3E
$GPRMC,104525,A,4819.6621,N,439.2245,W,10.00,265.32,111115,,*35
$GPRMC,104525,A,4819.6610,N,439.2451,W,10.00,265.32,111115,,*34
$GPRMC,104525,A,4819.6598,N,439.2657,W,10.00,265.32,111115,,*33
$GPRMC,104525,A,4819.6587,N,439.2863,W,10.00,265.32,111115,,*34
$GPRMC,104525,A,4819.6576,N,439.3069,W,10.00,265.32,111115,,*39
$GPRMC,104525,A,4819.6564,N,439.3275,W,10.00,265.32,111115,,*35
$GPRMC,104525,A,4819.6553,N,439.3481,W,10.00,265.32,111115,,*3C
$GPRMC,104525,A,4819.6542,N,439.3688,W,10.00,265.32,111115,,*37
$GPRMC,104525,A,4819.6530,N,439.3894,W,10.00,265.32,111115,,*31
$GPRMC,104525,A,4819.6519,N,439.4100,W,10.00,265.32,111115,,*39
$GPRMC,104525,A,4819.6508,N,439.4306,W,10.00,265.32,111115,,*3D
$GPRMC,104525,A,4819.6496,N,439.4512,W,10.00,265.32,111115,,*38
$GPRMC,104525,A,4819.6485,N,439.4718,W,10.00,265.32,111115,,*32
$GPRMC,104525,A,4819.6474,N,439.4924,W,10.00,265.32,111115,,*3D
$GPRMC,104525,A,4819.6462,N,439.5130,W,10.00,265.32,111115,,*36
$GPRMC,104525,A,4819.6451,N,439.5336,W,10.00,265.32,111115,,*32
$GPRMC,104525,A,4819.6440,N,439.5542,W,10.00,265.32,111115,,*37
$GPRMC,104525,A,4819.6428,N,439.5748,W,10.00,265.32,111115,,*31
$GPRMC,104525,A,4819.6417,N,439.5955,W,10.00,265.32,111115,,*3F
$GPRMC,104525,A,4819.6406,N,439.6161,W,10.00,265.32,111115,,*33
$GPRMC,104525,A,4819.6394,N,439.6367,W,10.00,265.32,111115,,*3B
$GPRMC,104525,A,4819.6383,N,439.6573,W,10.00,265.32,111115,,*3E
$GPRMC,104525,A,4819.6372,N,439.6779,W,10.00,265.32,111115,,*38
$GPRMC,104525,A,4819.6360,N,439.6985,W,10.00,265.32,111115,,*36
$GPRMC,104525,A,4819.6349,N,439.7191,W,10.00,265.32,111115,,*31
$GPRMC,104525,A,4819.6338,N,439.7397,W,10.00,265.32,111115,,*33
$GPRMC,104525,A,4819.6326,N,439.7603,W,10.00,265.32,111115,,*34
$GPRMC,104525,A,4819.6315,N,439.7809,W,10.00,265.32,111115,,*30
$GPRMC,104525,A,4819.6304,N,439.8015,W,10.00,265.32,111115,,*3A
$GPRMC,104525,A,4819.6292,N,439.8222,W,10.00,265.32,111115,,*32
$GPRMC,104525,A,4819.6281,N,439.8428,W,10.00,265.32,111115,,*3C
$GPRMC,104525,A,4819.6270,N,439.8634,W,10.00,265.32,111115,,*3D
$GPRMC,104525,A,4819.6258,N,439.8840,W,10.00,265.32,111115,,*3A
$GPRMC,104525,A,4819.6247,N,439.9046,W,10.00,265.32,111115,,*3B
$GPRMC,104525,A,4819.6236,N,439.9252,W,10.00,265.32,111115,,*3A
$GPRMC,104525,A,4819.6224,N,439.9458,W,10.00,265.32,111115,,*35
$GPRMC,104525,A,4819.6213,N,439.9664,W,10.00,265.32,111115,,*3C
$GPRMC,104525,A,4819.6202,N,439.9870,W,10.00,265.32,111115,,*37
$GPRMC,104525,A,4819.6190,N,440.0076,W,10.00,265.32,111115,,*36
$GPRMC,104525,A,4819.6179,N,440.0282,W,10.00,265.32,111115,,*38
$GPRMC,104525,A,4819.6168,N,440.0488,W,10.00,265.32,111115,,*34
$GPRMC,104525,A,4819.6156,N,440.0695,W,10.00,265.32,111115,,*37
$GPRMC,104525,A,4819.6145,N,440.0901,W,10.00,265.32,111115,,*37
$GPRMC,104525,A,4819.6134,N,440.1107,W,10.00,265.32,111115,,*3E
$GPRMC,104525,A,4819.6122,N,440.1313,W,10.00,265.32,111115,,*3E
$GPRMC,104525,A,4819.6111,N,440.1519,W,10.00,265.32,111115,,*32
$GPRMC,104525,A,4819.6099,N,440.1725,W,10.00,265.32,111115,,*3E
$GPRMC,104525,A,4819.6088,N,440.1931,W,10.00,265.32,111115,,*35
$GPRMC,104525,A,4819.6077,N,440.2137,W,10.00,265.32,111115,,*38
$GPRMC,104525,A,4819.6065,N,440.2343,W,10.00,265.32,111115,,*3A
$GPRMC,104525,A,4819.6054,N,440.2549,W,10.00,265.32,111115,,*34
$GPRMC,104525,A,4819.6043,N,440.2755,W,10.00,265.32,111115,,*3D
$GPRMC,104525,A,4819.6031,N,440.2961,W,10.00,265.32,111115,,*31
$GPRMC,104525,A,4819.6020,N,440.3168,W,10.00,265.32,111115,,*31
$GPRMC,104525,A,4819.6009,N,440.3374,W,10.00,265.32,111115,,*35
$GPRMC,104525,A,4819.5997,N,440.3580,W,10.00,265.32,111115,,*35
$GPRMC,104525,A,4819.5986,N,440.3786,W,10.00,265.32,111115,,*31
$GPRMC,104525,A,4819.5975,N,440.3992,W,10.00,265.32,111115,,*36
$GPRMC,104525,A,4819.5963,N,440.4198,W,10.00,265.32,111115,,*34
$GPRMC,104525,A,4819.5952,N,440.4404,W,10.00,265.32,111115,,*36
$GPRMC,104525,A,4819.5941,N,440.4610,W,10.00,265.32,111115,,*33
$GPRMC,104525,A,4819.5929,N,440.4816,W,10.00,265.32,111115,,*35
$GPRMC,104525,A,4819.5918,N,440.5022,W,10.00,265.32,111115,,*39
$GPRMC,104525,A,4819.5906,N,440.5228,W,10.00,265.32,111115,,*3E
$GPRMC,104525,A,4819.5895,N,440.5434,W,10.00,265.32,111115,,*3E
$GPRMC,104525,A,4819.5884,N,440.5641,W,10.00,265.32,111115,,*3E
$GPRMC,104525,A,4819.5872,N,440.5847,W,10.00,265.32,111115,,*3F
$GPRMC,104525,A,4819.5861,N,440.6053,W,10.00,265.32,111115,,*33
$GPRMC,104525,A,4819.5850,N,440.6259,W,10.00,265.32,111115,,*39
$GPRMC,104525,A,4819.5838,N,440.6465,W,10.00,265.32,111115,,*3E
$GPRMC,104525,A,4819.5827,N,440.6671,W,10.00,265.32,111115,,*37
$GPRMC,104525,A,4819.5816,N,440.6877,W,10.00,265.32,111115,,*3D
$GPRMC,104525,A,4819.5804,N,440.7083,W,10.00,265.32,111115,,*3C
$GPRMC,104525,A,4819.5793,N,440.7289,W,10.00,265.32,111115,,*35
$GPRMC,104525,A,4819.5781,N,440.7495,W,10.00,265.32,111115,,*3D
$GPRMC,104525,A,4819.5770,N,440.7701,W,10.00,265.32,111115,,*3D
$GPRMC,104525,A,4819.5759,N,440.7907,W,10.00,265.32,111115,,*3E
$GPRMC,104525,A,4819.5747,N,440.8114,W,10.00,265.32,111115,,*34
$GPRMC,104525,A,4819.5736,N,440.8320,W,10.00,265.32,111115,,*37
$GPRMC,104525,A,4819.5725,N,440.8526,W,10.00,265.32,111115,,*35
$GPRMC,104525,A,4819.5713,N,440.8732,W,10.00,265.32,111115,,*37
$GPRMC,104525,A,4819.5702,N,440.8938,W,10.00,265.32,111115,,*33
$GPRMC,104525,A,4819.5690,N,440.9144,W,10.00,265.32,111115,,*3B
$GPRMC,104525,A,4819.5679,N,440.9350,W,10.00,265.32,111115,,*3B
$GPRMC,104525,A,4819.5668,N,440.9556,W,10.00,265.32,111115,,*3B
$GPRMC,104525,A,4819.5656,N,440.9762,W,10.00,265.32,111115,,*33
$GPRMC,104525,A,4819.5645,N,440.9968,W,10.00,265.32,111115,,*35
$GPRMC,104525,A,4819.5634,N,441.0174,W,10.00,265.32,111115,,*3E
$GPRMC,104525,A,4819.5622,N,441.0380,W,10.00,265.32,111115,,*30
$GPRMC,104525,A,4819.5611,N,441.0586,W,10.00,265.32,111115,,*30
$GPRMC,104525,A,4819.5599,N,441.0793,W,10.00,265.32,111115,,*35
$GPRMC,104525,A,4819.5588,N,441.0999,W,10.00,265.32,111115,,*31
$GPRMC,104525,A,4819.5577,N,441.1205,W,10.00,265.32,111115,,*3E
$GPRMC,104525,A,4819.5565,N,441.1411,W,10.00,265.32,111115,,*3E
$GPRMC,104525,A,4819.5554,N,441.1617,W,10.00,265.32,111115,,*38
$GPRMC,104525,A,4819.5543,N,441.1823,W,10.00,265.32,111115,,*37
$GPRMC,104525,A,4819.5531,N,441.2029,W,10.00,265.32,111115,,*33
$GPRMC,104525,A,4819.5520,N,441.2235,W,10.00,265.32,111115,,*3C
$GPRMC,104525,A,4819.5508,N,441.2441,W,10.00,265.32,111115,,*33
$GPRMC,104525,A,4819.5497,N,441.2647,W,10.00,265.32,111115,,*30
$GPRMC,104525,A,4819.5486,N,441.2853,W,10.00,265.32,111115,,*3B
$GPRMC,104525,A,4819.5474,N,441.3059,W,10.00,265.32,111115,,*35
$GPRMC,104525,A,4819.5463,N,441.3265,W,10.00,265.32,111115,,*3E
$GPRMC,104525,A,4819.5452,N,441.3472,W,10.00,265.32,111115,,*3C
$GPRMC,104525,A,4819.5440,N,441.3678,W,10.00,265.32,111115,,*37
$GPRMC,104525,A,4819.5429,N,441.3884,W,10.00,265.32,111115,,*35
$GPRMC,104525,A,4819.5417,N,441.4090,W,10.00,265.32,111115,,*32
$GPRMC,104525,A,4819.5406,N,441.4296,W,10.00,265.32,111115,,*36
$GPRMC,104525,A,4819.5395,N,441.4502,W,10.00,265.32,111115,,*31
$GPRMC,104525,A,4819.5383,N,441.4708,W,10.00,265.32,111115,,*3E
$GPRMC,104525,A,4819.5372,N,441.4914,W,10.00,265.32,111115,,*33
$GPRMC,104525,A,4819.5360,N,441.5120,W,10.00,265.32,111115,,*3E
$GPRMC,104525,A,4819.5349,N,441.5326,W,10.00,265.32,111115,,*31
$GPRMC,104525,A,4819.5338,N,441.5532,W,10.00,265.32,111115,,*34
$GPRMC,104525,A,4819.5326,N,441.5738,W,10.00,265.32,111115,,*33
$GPRMC,104525,A,4819.5315,N,441.5944,W,10.00,265.32,111115,,*36
$GPRMC,104525,A,4819.5303,N,441.6150,W,10.00,265.32,111115,,*3F
$GPRMC,104525,A,4819.5292,N,441.6357,W,10.00,265.32,111115,,*33
$GPRMC,104525,A,4819.5281,N,441.6563,W,10.00,265.32,111115,,*30
$GPRMC,104525,A,4819.5269,N,441.6769,W,10.00,265.32,111115,,*3E
$GPRMC,104525,A,4819.5258,N,441.6975,W,10.00,265.32,111115,,*3F
$GPRMC,104525,A,4819.5246,N,441.7181,W,10.00,265.32,111115,,*32
$GPRMC,104525,A,4819.5235,N,441.7387,W,10.00,265.32,111115,,*32
$GPRMC,104525,A,4819.5224,N,441.7593,W,10.00,265.32,111115,,*31
$GPRMC,104525,A,4819.5212,N,441.7799,W,10.00,265.32,111115,,*3C
$GPRMC,104525,A,4819.5201,N,441.8005,W,10.00,265.32,111115,,*33
$GPRMC,104525,A,4819.5189,N,441.8211,W,10.00,265.32,111115,,*37
$GPRMC,104525,A,4819.5178,N,441.8417,W,10.00,265.32,111115,,*39
$GPRMC,104525,A,4819.5167,N,441.8623,W,10.00,265.32,111115,,*32
$GPRMC,104525,A,4819.5155,N,441.8829,W,10.00,265.32,111115,,*37
$GPRMC,104525,A,4819.5144,N,441.9036,W,10.00,265.32,111115,,*30
$GPRMC,104525,A,4819.5132,N,441.9242,W,10.00,265.32,111115,,*30
$GPRMC,104525,A,4819.5121,N,441.9448,W,10.00,265.32,111115,,*3E
$GPRMC,104525,A,4819.5110,N,441.9654,W,10.00,265.32,111115,,*33
$GPRMC,104525,A,4819.5098,N,441.9860,W,10.00,265.32,111115,,*3B
$GPRMC,104525,A,4819.5087,N,442.0066,W,10.00,265.32,111115,,*31
$GPRMC,104525,A,4819.5075,N,442.0272,W,10.00,265.32,111115,,*3B
$GPRMC,104525,A,4819.5064,N,442.0478,W,10.00,265.32,111115,,*37
$GPRMC,104525,A,4819.5053,N,442.0684,W,10.00,265.32,111115,,*32
$GPRMC,104525,A,4819.5041,N,442.0890,W,10.00,265.32,111115,,*3A
$GPRMC,104525,A,4819.5030,N,442.1096,W,10.00,265.32,111115,,*33
$GPRMC,104525,A,4819.5018,N,442.1302,W,10.00,265.32,111115,,*37
$GPRMC,104525,A,4819.5007,N,442.1508,W,10.00,265.32,111115,,*35
$GPRMC,104525,A,4819.4996,N,442.1714,W,10.00,265.32,111115,,*3A
$GPRMC,104525,A,4819.4984,N,442.1920,W,10.00,265.32,111115,,*30
$GPRMC,104525,A,4819.4973,N,442.2127,W,10.00,265.32,111115,,*34
$GPRMC,104525,A,4819.4961,N,442.2333,W,10.00,265.32,111115,,*30
$GPRMC,104525,A,4819.4950,N,442.2539,W,10.00,265.32,111115,,*3E
$GPRMC,104525,A,4819.4939,N,442.2745,W,10.00,265.32,111115,,*38
$GPRMC,104525,A,4819.4927,N,442.2951,W,10.00,265.32,111115,,*3C
$GPRMC,104525,A,4819.4916,N,442.3157,W,10.00,265.32,111115,,*31
$GPRMC,104525,A,4819.4904,N,442.3363,W,10.00,265.32,111115,,*37
$GPRMC,104525,A,4819.4893,N,442.3569,W,10.00,265.32,111115,,*34
$GPRMC,104525,A,4819.4881,N,442.3775,W,10.00,265.32,111115,,*38
$GPRMC,104525,A,4819.4870,N,442.3981,W,10.00,265.32,111115,,*33
$GPRMC,104525,A,4819.4859,N,442.4187,W,10.00,265.32,111115,,*31
$GPRMC,104525,A,4819.4847,N,442.4393,W,10.00,265.32,111115,,*39
$GPRMC,104525,A,4819.4836,N,442.4599,W,10.00,265.32,111115,,*33
$GPRMC,104525,A,4819.4824,N,442.4805,W,10.00,265.32,111115,,*38
$GPRMC,104525,A,4819.4813,N,442.5012,W,10.00,265.32,111115,,*33
$GPRMC,104525,A,4819.4802,N,442.5218,W,10.00,265.32,111115,,*3B
$GPRMC,104525,A,4819.4790,N,442.5424,W,10.00,265.32,111115,,*36
$GPRMC,104525,A,4819.4779,N,442.5630,W,10.00,265.32,111115,,*36
$GPRMC,104525,A,4819.4767,N,442.5836,W,10.00,265.32,111115,,*31
$GPRMC,104525,A,4819.4756,N,442.6042,W,10.00,265.32,111115,,*3B
$GPRMC,104525,A,4819.4744,N,442.6248,W,10.00,265.32,111115,,*30
$GPRMC,104525,A,4819.4733,N,442.6454,W,10.00,265.32,111115,,*3B
$GPRMC,104525,A,4819.4722,N,442.6660,W,10.00,265.32,111115,,*3E
$GPRMC,104525,A,4819.4710,N,442.6866,W,10.00,265.32,111115,,*37
$GPRMC,104525,A,4819.4699,N,442.7072,W,10.00,265.32,111115,,*3B
$GPRMC,104525,A,4819.4687,N,442.7278,W,10.00,265.32,111115,,*3C
$GPRMC,104525,A,4819.4676,N,442.7484,W,10.00,265.32,111115,,*37
$GPRMC,104525,A,4819.4664,N,442.7690,W,10.00,265.32,111115,,*33
$GPRMC,104525,A,4819.4653,N,442.7896,W,10.00,265.32,111115,,*3F
$GPRMC,104525,A,4819.4642,N,442.8102,W,10.00,265.32,111115,,*34
$GPRMC,104525,A,4819.4630,N,442.8309,W,10.00,265.32,111115,,*38
$GPRMC,104525,A,4819.4619,N,442.8515,W,10.00,265.32,111115,,*38
$GPRMC,104525,A,4819.4607,N,442.8721,W,10.00,265.32,111115,,*32
$GPRMC,104525,A,4819.4596,N,442.8927,W,10.00,265.32,111115,,*31
$GPRMC,104525,A,4819.4584,N,442.9133,W,10.00,265.32,111115,,*3E
$GPRMC,104525,A,4819.4573,N,442.9339,W,10.00,265.32,111115,,*3E
$GPRMC,104525,A,4819.4562,N,442.9545,W,10.00,265.32,111115,,*33
$GPRMC,104525,A,4819.4550,N,442.9751,W,10.00,265.32,111115,,*35
$GPRMC,104525,A,4819.4539,N,442.9957,W,10.00,265.32,111115,,*32
$GPRMC,104525,A,4819.4527,N,443.0163,W,10.00,265.32,111115,,*3A
$GPRMC,104525,A,4819.4516,N,443.0369,W,10.00,265.32,111115,,*30
$GPRMC,104525,A,4819.4504,N,443.0575,W,10.00,265.32,111115,,*38
$GPRMC,104525,A,4819.4493,N,443.0781,W,10.00,265.32,111115,,*3E
$GPRMC,104525,A,4819.4482,N,443.0987,W,10.00,265.32,111115,,*36
$GPRMC,104525,A,4819.4470,N,443.1193,W,10.00,265.32,111115,,*37
$GPRMC,104525,A,4819.4459,N,443.1400,W,10.00,265.32,111115,,*33
$GPRMC,104525,A,4819.4447,N,443.1606,W,10.00,265.32,111115,,*38
$GPRMC,104525,A,4819.4436,N,443.1812,W,10.00,265.32,111115,,*35
$GPRMC,104525,A,4819.4424,N,443.2018,W,10.00,265.32,111115,,*37
$GPRMC,104525,A,4819.4413,N,443.2224,W,10.00,265.32,111115,,*3E
$GPRMC,104525,A,4819.4401,N,443.2430,W,10.00,265.32,111115,,*3E
$GPRMC,104525,A,4819.4390,N,443.2636,W,10.00,265.32,111115,,*35
$GPRMC,104525,A,4819.4379,N,443.2842,W,10.00,265.32,111115,,*3F
$GPRMC,104525,A,4819.4367,N,443.3048,W,10.00,265.32,111115,,*33
$GPRMC,104525,A,4819.4356,N,443.3254,W,10.00,265.32,111115,,*3E
$GPRMC,104525,A,4819.4344,N,443.3460,W,10.00,265.32,111115,,*3C
$GPRMC,104525,A,4819.4333,N,443.3666,W,10.00,265.32,111115,,*38
$GPRMC,104525,A,4819.4321,N,443.3872,W,10.00,265.32,111115,,*30
$GPRMC,104525,A,4819.4310,N,443.4078,W,10.00,265.32,111115,,*37
$GPRMC,104525,A,4819.4298,N,443.4284,W,10.00,265.32,111115,,*37
$GPRMC,104525,A,4819.4287,N,443.4490,W,10.00,265.32,111115,,*3A
$GPRMC,104525,A,4819.4276,N,443.4696,W,10.00,265.32,111115,,*30
$GPRMC,104525,A,4819.4264,N,443.4903,W,10.00,265.32,111115,,*30
$GPRMC,104525,A,4819.4253,N,443.5109,W,10.00,265.32,111115,,*37
$GPRMC,104525,A,4819.4241,N,443.5315,W,10.00,265.32,111115,,*3B
$GPRMC,104525,A,4819.4230,N,443.5521,W,10.00,265.32,111115,,*3C
$GPRMC,104525,A,4819.4218,N,443.5727,W,10.00,265.32,111115,,*32
$GPRMC,104525,A,4819.4207,N,443.5933,W,10.00,265.32,111115,,*37
$GPRMC,104525,A,4819.4195,N,443.6139,W,10.00,265.32,111115,,*3E
$GPRMC,104525,A,4819.4184,N,443.6345,W,10.00,265.32,111115,,*37
$GPRMC,104525,A,4819.4172,N,443.6551,W,10.00,265.32,111115,,*3D
$GPRMC,104525,A,4819.4161,N,443.6757,W,10.00,265.32,111115,,*3B
$GPRMC,104525,A,4819.4150,N,443.6963,W,10.00,265.32,111115,,*30
$GPRMC,104525,A,4819.4138,N,443.7169,W,10.00,265.32,111115,,*3D
$GPRMC,104525,A,4819.4127,N,443.7375,W,10.00,265.32,111115,,*3C
$GPRMC,104525,A,4819.4115,N,443.7581,W,10.00,265.32,111115,,*30
$GPRMC,104525,A,4819.4104,N,443.7787,W,10.00,265.32,111115,,*34
$GPRMC,104525,A,4819.4092,N,443.7993,W,10.00,265.32,111115,,*31
$GPRMC,104525,A,4819.4081,N,443.8199,W,10.00,265.32,111115,,*3E
$GPRMC,104525,A,4819.4069,N,443.8406,W,10.00,265.32,111115,,*3B
$GPRMC,104525,A,4819.4058,N,443.8612,W,10.00,265.32,111115,,*3E
$GPRMC,104525,A,4819.4046,N,443.8818,W,10.00,265.32,111115,,*35
$GPRMC,104525,A,4819.4035,N,443.9024,W,10.00,265.32,111115,,*37
$GPRMC,104525,A,4819.4024,N,443.9230,W,10.00,265.32,111115,,*30
$GPRMC,104525,A,4819.4012,N,443.9436,W,10.00,265.32,111115,,*35
$GPRMC,104525,A,4819.4001,N,443.9642,W,10.00,265.32,111115,,*36
$GPRMC,104525,A,4819.3989,N,443.9848,W,10.00,265.32,111115,,*3C
$GPRMC,104525,A,4819.3978,N,444.0054,W,10.00,265.32,111115,,*39
$GPRMC,104525,A,4819.3966,N,444.0260,W,10.00,265.32,111115,,*33
$GPRMC,104525,A,4819.3955,N,444.0466,W,10.00,265.32,111115,,*33
$GPRMC,104525,A,4819.3943,N,444.0672,W,10.00,265.32,111115,,*33
$GPRMC,104525,A,4819.3932,N,444.0878,W,10.00,265.32,111115,,*31
$GPRMC,104525,A,4819.3920,N,444.1084,W,10.00,265.32,111115,,*38
$GPRMC,104525,A,4819.3909,N,444.1290,W,10.00,265.32,111115,,*34
$GPRMC,104525,A,4819.3897,N,444.1496,W,10.00,265.32,111115,,*32
$GPRMC,104525,A,4819.3886,N,444.1702,W,10.00,265.32,111115,,*3C
$GPRMC,104525,A,4819.3874,N,444.1908,W,10.00,265.32,111115,,*35
$GPRMC,104525,A,4819.3863,N,444.2115,W,10.00,265.32,111115,,*34
$GPRMC,104525,A,4819.3852,N,444.2321,W,10.00,265.32,111115,,*33
$GPRMC,104525,A,4819.3840,N,444.2527,W,10.00,265.32,111115,,*30
$GPRMC,104525,A,4819.3829,N,444.2733,W,10.00,265.32,111115,,*38
$GPRMC,104525,A,4819.3817,N,444.2939,W,10.00,265.32,111115,,*31
$GPRMC,104525,A,4819.3806,N,444.3145,W,10.00,265.32,111115,,*33
$GPRMC,104525,A,4819.3794,N,444.3351,W,10.00,265.32,111115,,*30
$GPRMC,104525,A,4819.3783,N,444.3557,W,10.00,265.32,111115,,*36
$GPRMC,104525,A,4819.3771,N,444.3763,W,10.00,265.32,111115,,*3E
$GPRMC,104525,A,4819.3760,N,444.3969,W,10.00,265.32,111115,,*3A
$GPRMC,104525,A,4819.3748,N,444.4175,W,10.00,265.32,111115,,*32
$GPRMC,104525,A,4819.3737,N,444.4381,W,10.00,265.32,111115,,*33
$GPRMC,104525,A,4819.3725,N,444.4587,W,10.00,265.32,111115,,*30
$GPRMC,104525,A,4819.3716,N,444.4747,W,10.00,257.05,111115,,*3B
$GPRMC,104525,A,4819.3621,N,444.5371,W,10.00,257.05,111115,,*3E
$GPRMC,104525,A,4819.3525,N,444.5994,W,10.00,257.05,111115,,*38
$GPRMC,104525,A,4819.3430,N,444.6617,W,10.00,257.05,111115,,*3A
$GPRMC,104525,A,4819.3334,N,444.7240,W,10.00,257.05,111115,,*3E
$GPRMC,104525,A,4819.3239,N,444.7863,W,10.00,257.05,111115,,*39
$GPRMC,104525,A,4819.3143,N,444.8486,W,10.00,257.05,111115,,*3F
$GPRMC,104525,A,4819.3047,N,444.9109,W,10.00,257.05,111115,,*39
$GPRMC,104525,A,4819.2952,N,444.9732,W,10.00,257.05,111115,,*3B
$GPRMC,104525,A,4819.2856,N,445.0356,W,10.00,257.05,111115,,*30
$GPRMC,104525,A,4819.2761,N,445.0979,W,10.00,257.05,111115,,*3C
$GPRMC,104525,A,4819.2665,N,445.1602,W,10.00,257.05,111115,,*3B
$GPRMC,104525,A,4819.2569,N,445.2225,W,10.00,257.05,111115,,*36
$GPRMC,104525,A,4819.2474,N,445.2848,W,10.00,257.05,111115,,*3A
$GPRMC,104525,A,4819.2378,N,445.3471,W,10.00,257.05,111115,,*36
$GPRMC,104525,A,4819.2283,N,445.4094,W,10.00,257.05,111115,,*3B
$GPRMC,104525,A,4819.2187,N,445.4717,W,10.00,257.05,111115,,*30
$GPRMC,104525,A,4819.2091,N,445.5340,W,10.00,257.05,111115,,*31
$GPRMC,104525,A,4819.1996,N,445.5964,W,10.00,257.05,111115,,*30
$GPRMC,104525,A,4819.1900,N,445.6587,W,10.00,257.05,111115,,*3D
$GPRMC,104525,A,4819.1804,N,445.7210,W,10.00,257.05,111115,,*30
$GPRMC,104525,A,4819.1709,N,445.7833,W,10.00,257.05,111115,,*39
$GPRMC,104525,A,4819.1613,N,445.8456,W,10.00,257.05,111115,,*33
$GPRMC,104525,A,4819.1517,N,445.9079,W,10.00,257.05,111115,,*3C
$GPRMC,104525,A,4819.1422,N,445.9702,W,10.00,257.05,111115,,*30
$GPRMC,104525,A,4819.1326,N,446.0325,W,10.00,257.05,111115,,*38
$GPRMC,104525,A,4819.1230,N,446.0948,W,10.00,257.05,111115,,*3F
$GPRMC,104525,A,4819.1135,N,446.1571,W,10.00,257.05,111115,,*3E
$GPRMC,104525,A,4819.1039,N,446.2194,W,10.00,257.05,111115,,*3F
$GPRMC,104525,A,4819.0943,N,446.2817,W,10.00,257.05,111115,,*38
$GPRMC,104525,A,4819.0848,N,446.3440,W,10.00,257.05,111115,,*3D
$GPRMC,104525,A,4819.0752,N,446.4063,W,10.00,257.05,111115,,*3B
$GPRMC,104525,A,4819.0656,N,446.4686,W,10.00,257.05,111115,,*33
$GPRMC,104525,A,4819.0560,N,446.5309,W,10.00,257.05,111115,,*36
$GPRMC,104525,A,4819.0465,N,446.5932,W,10.00,257.05,111115,,*30
$GPRMC,104525,A,4819.0369,N,446.6555,W,10.00,257.05,111115,,*35
$GPRMC,104525,A,4819.0273,N,446.7179,W,10.00,257.05,111115,,*34
$GPRMC,104525,A,4819.0178,N,446.7802,W,10.00,257.05,111115,,*39
$GPRMC,104525,A,4819.0082,N,446.8425,W,10.00,257.05,111115,,*3B
$GPRMC,104525,A,4818.9986,N,446.9048,W,10.00,257.05,111115,,*30
$GPRMC,104525,A,4818.9890,N,446.9671,W,10.00,257.05,111115,,*3A
$GPRMC,104525,A,4818.9888,N,446.9688,W,10.00,326.64,111115,,*35
$GPRMC,104525,A,4819.0181,N,446.9977,W,10.00,326.64,111115,,*32
$GPRMC,104525,A,4819.0474,N,447.0266,W,10.00,326.64,111115,,*3E
$GPRMC,104525,A,4819.0767,N,447.0555,W,10.00,326.64,111115,,*38
$GPRMC,104525,A,4819.1060,N,447.0844,W,10.00,326.64,111115,,*34
$GPRMC,104525,A,4819.1353,N,447.1134,W,10.00,326.64,111115,,*38
$GPRMC,104525,A,4819.1646,N,447.1423,W,10.00,326.64,111115,,*3A
$GPRMC,104525,A,4819.1938,N,447.1712,W,10.00,326.64,111115,,*3D
$GPRMC,104525,A,4819.2231,N,447.2001,W,10.00,326.64,111115,,*3A
$GPRMC,104525,A,4819.2524,N,447.2290,W,10.00,326.64,111115,,*33
$GPRMC,104525,A,4819.2817,N,447.2580,W,10.00,326.64,111115,,*38
$GPRMC,104525,A,4819.3110,N,447.2869,W,10.00,326.64,111115,,*3D
$GPRMC,104525,A,4819.3403,N,447.3158,W,10.00,326.64,111115,,*30
$GPRMC,104525,A,4819.3696,N,447.3447,W,10.00,326.64,111115,,*35
$GPRMC,104525,A,4819.3989,N,447.3737,W,10.00,326.64,111115,,*30
$GPRMC,104525,A,4819.4282,N,447.4026,W,10.00,326.64,111115,,*37
$GPRMC,104525,A,4819.4575,N,447.4315,W,10.00,326.64,111115,,*3B
$GPRMC,104525,A,4819.4868,N,447.4604,W,10.00,326.64,111115,,*3F
$GPRMC,104525,A,4819.5161,N,447.4894,W,10.00,326.64,111115,,*39
$GPRMC,104525,A,4819.5454,N,447.5183,W,10.00,326.64,111115,,*34
$GPRMC,104525,A,4819.5747,N,447.5472,W,10.00,326.64,111115,,*3E
$GPRMC,104525,A,4819.6040,N,447.5761,W,10.00,326.64,111115,,*3C
$GPRMC,104525,A,4819.6333,N,447.6051,W,10.00,326.64,111115,,*3C
$GPRMC,104525,A,4819.6626,N,447.6340,W,10.00,326.64,111115,,*3E
$GPRMC,104525,A,4819.6919,N,447.6629,W,10.00,326.64,111115,,*37
$GPRMC,104525,A,4819.7212,N,447.6919,W,10.00,326.64,111115,,*3A
$GPRMC,104525,A,4819.7505,N,447.7208,W,10.00,326.64,111115,,*31
$GPRMC,104525,A,4819.7798,N,447.7497,W,10.00,326.64,111115,,*37
$GPRMC,104525,A,4819.8091,N,447.7787,W,10.00,326.64,111115,,*34
$GPRMC,104525,A,4819.8384,N,447.8076,W,10.00,326.64,111115,,*35
$GPRMC,104525,A,4819.8677,N,447.8365,W,10.00,326.64,111115,,*3D
$GPRMC,104525,A,4819.8970,N,447.8655,W,10.00,326.64,111115,,*33
$GPRMC,104525,A,4819.9262,N,447.8944,W,10.00,326.64,111115,,*35
$GPRMC,104525,A,4819.9555,N,447.9233,W,10.00,326.64,111115,,*3C
$GPRMC,104525,A,4819.9848,N,447.9523,W,10.00,326.64,111115,,*3B
$GPRMC,104525,A,4820.0141,N,447.9812,W,10.00,326.64,111115,,*37
$GPRMC,104525,A,4820.0434,N,448.0101,W,10.00,326.64,111115,,*3D
$GPRMC,104525,A,4820.0727,N,448.0391,W,10.00,326.64,111115,,*37
$GPRMC,104525,A,4820.1020,N,448.0680,W,10.00,326.64,111115,,*33
$GPRMC,104525,A,4820.1313,N,448.0970,W,10.00,326.64,111115,,*30
$GPRMC,104525,A,4820.1606,N,448.1259,W,10.00,326.64,111115,,*30
$GPRMC,104525,A,4820.1899,N,448.1548,W,10.00,326.64,111115,,*3F
$GPRMC,104525,A,4820.2192,N,448.1838,W,10.00,326.64,111115,,*34
$GPRMC,104525,A,4820.2485,N,448.2127,W,10.00,326.64,111115,,*33
$GPRMC,104525,A,4820.2778,N,448.2417,W,10.00,326.64,111115,,*34
$GPRMC,104525,A,4820.3071,N,448.2706,W,10.00,326.64,111115,,*38
$GPRMC,104525,A,4820.3364,N,448.2995,W,10.00,326.64,111115,,*3B
$GPRMC,104525,A,4820.3657,N,448.3285,W,10.00,326.64,111115,,*35
$GPRMC,104525,A,4820.3949,N,448.3574,W,10.00,326.64,111115,,*3C
$GPRMC,104525,A,4820.4242,N,448.3864,W,10.00,326.64,111115,,*37
$GPRMC,104525,A,4820.4535,N,448.4153,W,10.00,326.64,111115,,*3A
$GPRMC,104525,A,4820.4828,N,448.4443,W,10.00,326.64,111115,,*3F
$GPRMC,104525,A,4820.5121,N,448.4732,W,10.00,326.64,111115,,*3B
$GPRMC,104525,A,4820.5414,N,448.5021,W,10.00,326.64,111115,,*3C
$GPRMC,104525,A,4820.5707,N,448.5311,W,10.00,326.64,111115,,*3D
$GPRMC,104525,A,4820.6000,N,448.5600,W,10.00,326.64,111115,,*3B
$GPRMC,104525,A,4820.6293,N,448.5890,W,10.00,326.64,111115,,*34
$GPRMC,104525,A,4820.6586,N,448.6179,W,10.00,326.64,111115,,*3A
$GPRMC,104525,A,4820.6879,N,448.6469,W,10.00,326.64,111115,,*33
$GPRMC,104525,A,4820.7172,N,448.6758,W,10.00,326.64,111115,,*31
$GPRMC,104525,A,4820.7218,N,448.6804,W,10.00,7.33,111115,,*3A
$GPRMC,104525,A,4820.7921,N,448.6668,W,10.00,7.33,111115,,*3F
$GPRMC,104525,A,4820.8623,N,448.6533,W,10.00,7.33,111115,,*30
$GPRMC,104525,A,4820.9326,N,448.6397,W,10.00,7.33,111115,,*39
$GPRMC,104525,A,4821.0029,N,448.6262,W,10.00,7.33,111115,,*36
$GPRMC,104525,A,4821.0732,N,448.6126,W,10.00,7.33,111115,,*38
$GPRMC,104525,A,4821.1435,N,448.5991,W,10.00,7.33,111115,,*3A
$GPRMC,104525,A,4821.2138,N,448.5855,W,10.00,7.33,111115,,*38
$GPRMC,104525,A,4821.2840,N,448.5719,W,10.00,7.33,111115,,*39
$GPRMC,104525,A,4821.3543,N,448.5584,W,10.00,7.33,111115,,*30
$GPRMC,104525,A,4821.4246,N,448.5448,W,10.00,7.33,111115,,*34
$GPRMC,104525,A,4821.4949,N,448.5313,W,10.00,7.33,111115,,*39
$GPRMC,104525,A,4821.5652,N,448.5177,W,10.00,7.33,111115,,*3D
$GPRMC,104525,A,4821.6355,N,448.5041,W,10.00,7.33,111115,,*38
$GPRMC,104525,A,4821.7057,N,448.4906,W,10.00,7.33,111115,,*33
$GPRMC,104525,A,4821.7405,N,448.4839,W,10.00,311.64,111115,,*3B
$GPRMC,104525,A,4821.7625,N,448.5210,W,10.00,311.64,111115,,*3B
$GPRMC,104525,A,4821.7845,N,448.5581,W,10.00,311.64,111115,,*3C
$GPRMC,104525,A,4821.8065,N,448.5952,W,10.00,311.64,111115,,*3B
$GPRMC,104525,A,4821.8285,N,448.6323,W,10.00,311.64,111115,,*38
$GPRMC,104525,A,4821.8505,N,448.6694,W,10.00,311.64,111115,,*3E
$GPRMC,104525,A,4821.8724,N,448.7065,W,10.00,311.64,111115,,*36
$GPRMC,104525,A,4821.8944,N,448.7437,W,10.00,311.64,111115,,*3D
$GPRMC,104525,A,4821.9164,N,448.7808,W,10.00,311.64,111115,,*36
$GPRMC,104525,A,4821.9384,N,448.8179,W,10.00,311.64,111115,,*3A
$GPRMC,104525,A,4821.9604,N,448.8550,W,10.00,311.64,111115,,*38
$GPRMC,104525,A,4821.9824,N,448.8921,W,10.00,311.64,111115,,*3E
$GPRMC,104525,A,4822.0043,N,448.9292,W,10.00,311.64,111115,,*3F
$GPRMC,104525,A,4822.0263,N,448.9664,W,10.00,311.64,111115,,*32
$GPRMC,104525,A,4822.0483,N,449.0035,W,10.00,311.64,111115,,*30
$GPRMC,104525,A,4822.0703,N,449.0406,W,10.00,311.64,111115,,*3F
$GPRMC,104525,A,4822.0923,N,449.0777,W,10.00,311.64,111115,,*36
$GPRMC,104525,A,4822.1142,N,449.1148,W,10.00,311.64,111115,,*33
$GPRMC,104525,A,4822.1362,N,449.1520,W,10.00,311.64,111115,,*39
$GPRMC,104525,A,4822.1582,N,449.1891,W,10.00,311.64,111115,,*36
$GPRMC,104525,A,4822.1802,N,449.2262,W,10.00,311.64,111115,,*36
$GPRMC,104525,A,4822.2022,N,449.2633,W,10.00,311.64,111115,,*3F
$GPRMC,104525,A,4822.2241,N,449.3004,W,10.00,311.64,111115,,*3B
$GPRMC,104525,A,4822.2461,N,449.3376,W,10.00,311.64,111115,,*39
$GPRMC,104525,A,4822.2681,N,449.3747,W,10.00,311.64,111115,,*33
$GPRMC,104525,A,4822.2901,N,449.4118,W,10.00,311.64,111115,,*3F
$GPRMC,104525,A,4822.3121,N,449.4489,W,10.00,311.64,111115,,*39
$GPRMC,104525,A,4822.3340,N,449.4861,W,10.00,311.64,111115,,*36
$GPRMC,104525,A,4822.3560,N,449.5232,W,10.00,311.64,111115,,*3F
$GPRMC,104525,A,4822.3780,N,449.5603,W,10.00,311.64,111115,,*35
$GPRMC,104525,A,4822.4000,N,449.5974,W,10.00,311.64,111115,,*32
$GPRMC,104525,A,4822.4220,N,449.6346,W,10.00,311.64,111115,,*3A
$GPRMC,104525,A,4822.4439,N,449.6717,W,10.00,311.64,111115,,*34
$GPRMC,104525,A,4822.4659,N,449.7088,W,10.00,311.64,111115,,*30
$GPRMC,104525,A,4822.4879,N,449.7459,W,10.00,311.64,111115,,*34
$GPRMC,104525,A,4822.5099,N,449.7831,W,10.00,311.64,111115,,*31
$GPRMC,104525,A,4822.5318,N,449.8202,W,10.00,311.64,111115,,*3E
$GPRMC,104525,A,4822.5538,N,449.8573,W,10.00,311.64,111115,,*3B
$GPRMC,104525,A,4822.5758,N,449.8945,W,10.00,311.64,111115,,*36
$GPRMC,104525,A,4822.5978,N,449.9316,W,10.00,311.64,111115,,*37
$GPRMC,104525,A,4822.6197,N,449.9687,W,10.00,311.64,111115,,*30
$GPRMC,104525,A,4822.6417,N,450.0059,W,10.00,311.64,111115,,*39
$GPRMC,104525,A,4822.6637,N,450.0430,W,10.00,311.64,111115,,*32
$GPRMC,104525,A,4822.6857,N,450.0801,W,10.00,311.64,111115,,*34
$GPRMC,104525,A,4822.7077,N,450.1173,W,10.00,311.64,111115,,*32
$GPRMC,104525,A,4822.7296,N,450.1544,W,10.00,311.64,111115,,*3F
$GPRMC,104525,A,4822.7516,N,450.1915,W,10.00,311.64,111115,,*38
$GPRMC,104525,A,4822.7736,N,450.2287,W,10.00,311.64,111115,,*3B
$GPRMC,104525,A,4822.7956,N,450.2658,W,10.00,311.64,111115,,*35
$GPRMC,104525,A,4822.8175,N,450.3029,W,10.00,311.64,111115,,*32
$GPRMC,104525,A,4822.8395,N,450.3401,W,10.00,311.64,111115,,*30
$GPRMC,104525,A,4822.8615,N,450.3772,W,10.00,311.64,111115,,*3A
$GPRMC,104525,A,4822.8834,N,450.4144,W,10.00,311.64,111115,,*33
$GPRMC,104525,A,4822.9054,N,450.4515,W,10.00,311.64,111115,,*3C
$GPRMC,104525,A,4822.9274,N,450.4886,W,10.00,311.64,111115,,*3B
$GPRMC,104525,A,4822.9494,N,450.5258,W,10.00,311.64,111115,,*3B
$GPRMC,104525,A,4822.9713,N,450.5629,W,10.00,311.64,111115,,*35
$GPRMC,104525,A,4822.9933,N,450.6001,W,10.00,311.64,111115,,*36
$GPRMC,104525,A,4823.0153,N,450.6372,W,10.00,311.64,111115,,*37
$GPRMC,104525,A,4823.0373,N,450.6743,W,10.00,311.64,111115,,*31
$GPRMC,104525,A,4823.0592,N,450.7115,W,10.00,311.64,111115,,*3C
$GPRMC,104525,A,4823.0812,N,450.7486,W,10.00,311.64,111115,,*36
$GPRMC,104525,A,4823.1032,N,450.7858,W,10.00,311.64,111115,,*32
$GPRMC,104525,A,4823.1251,N,450.8229,W,10.00,311.64,111115,,*36
$GPRMC,104525,A,4823.1471,N,450.8601,W,10.00,311.64,111115,,*3C
$GPRMC,104525,A,4823.1691,N,450.8972,W,10.00,311.64,111115,,*3B
$GPRMC,104525,A,4823.1911,N,450.9344,W,10.00,311.64,111115,,*32
