$GPRMC,022417,A,4821.9214,N,429.2118,W,10.00,198.70,091115,,*32
$GPRMC,022417,A,4821.8895,N,429.2280,W,10.00,198.70,091115,,*32
$GPRMC,022417,A,4821.8576,N,429.2442,W,10.00,198.70,091115,,*3A
$GPRMC,022417,A,4821.8257,N,429.2603,W,10.00,198.70,091115,,*39
$GPRMC,022417,A,4821.7938,N,429.2765,W,10.00,198.70,091115,,*35
$GPRMC,022417,A,4821.7619,N,429.2927,W,10.00,198.70,091115,,*31
$GPRMC,022417,A,4821.7301,N,429.3089,W,10.00,198.70,091115,,*31
$GPRMC,022417,A,4821.6982,N,429.3251,W,10.00,198.70,091115,,*36
$GPRMC,022417,A,4821.6663,N,429.3413,W,10.00,198.70,091115,,*36
$GPRMC,022417,A,4821.6344,N,429.3575,W,10.00,198.70,091115,,*37
$GPRMC,022417,A,4821.6025,N,429.3737,W,10.00,198.70,091115,,*37
$GPRMC,022417,A,4821.5706,N,429.3899,W,10.00,198.70,091115,,*39
$GPRMC,022417,A,4821.5387,N,429.4060,W,10.00,198.70,091115,,*3D
$GPRMC,022417,A,4821.5117,N,429.4198,W,10.00,254.02,091115,,*36
$GPRMC,022417,A,4821.5106,N,429.4256,W,10.00,254.02,091115,,*37
$GPRMC,022417,A,4821.5095,N,429.4314,W,10.00,254.02,091115,,*3B
$GPRMC,022417,A,4821.5084,N,429.4372,W,10.00,254.02,091115,,*3B
$GPRMC,022417,A,4821.5073,N,429.4430,W,10.00,254.02,091115,,*32
$GPRMC,022417,A,4821.5062,N,429.4489,W,10.00,254.02,091115,,*30
$GPRMC,022417,A,4821.5050,N,429.4547,W,10.00,254.02,091115,,*32
$GPRMC,022417,A,4821.5039,N,429.4605,W,10.00,254.02,091115,,*38
$GPRMC,022417,A,4821.5028,N,429.4663,W,10.00,254.02,091115,,*38
$GPRMC,022417,A,4821.5017,N,429.4721,W,10.00,254.02,091115,,*33
$GPRMC,022417,A,4821.5006,N,429.4779,W,10.00,254.02,091115,,*3E
$GPRMC,022417,A,4821.4995,N,429.4838,W,10.00,254.02,091115,,*36
$GPRMC,022417,A,4821.4984,N,429.4896,W,10.00,254.02,091115,,*32
$GPRMC,022417,A,4821.4973,N,429.4954,W,10.00,254.02,091115,,*35
$GPRMC,022417,A,4821.4962,N,429.5012,W,10.00,254.02,091115,,*3F
$GPRMC,022417,A,4821.4951,N,429.5070,W,10.00,254.02,091115,,*3B
$GPRMC,022417,A,4821.4939,N,429.5128,W,10.00,254.02,091115,,*39
$GPRMC,022417,A,4821.4928,N,429.5187,W,10.00,254.02,091115,,*3C
$GPRMC,022417,A,4821.4917,N,429.5245,W,10.00,254.02,091115,,*3D
$GPRMC,022417,A,4821.4906,N,429.5303,W,10.00,254.02,091115,,*3E
$GPRMC,022417,A,4821.4895,N,429.5361,W,10.00,254.02,091115,,*31
$GPRMC,022417,A,4821.4884,N,429.5419,W,10.00,254.02,091115,,*39
$GPRMC,022417,A,4821.4873,N,429.5477,W,10.00,254.02,091115,,*39
$GPRMC,022417,A,4821.4862,N,429.5536,W,10.00,254.02,091115,,*3D
$GPRMC,022417,A,4821.4851,N,429.5594,W,10.00,254.02,091115,,*35
$GPRMC,022417,A,4821.4840,N,429.5652,W,10.00,254.02,091115,,*3C
$GPRMC,022417,A,4821.4828,N,429.5710,W,10.00,254.02,091115,,*35
$GPRMC,022417,A,4821.4817,N,429.5768,W,10.00,254.02,091115,,*36
$GPRMC,022417,A,4821.4806,N,429.5826,W,10.00,254.02,091115,,*33
$GPRMC,022417,A,4821.4795,N,429.5885,W,10.00,254.02,091115,,*3F
$GPRMC,022417,A,4821.4784,N,429.5943,W,10.00,254.02,091115,,*34
$GPRMC,022417,A,4821.4773,N,429.6001,W,10.00,254.02,091115,,*30
$GPRMC,022417,A,4821.4762,N,429.6059,W,10.00,254.02,091115,,*3D
$GPRMC,022417,A,4821.4751,N,429.6117,W,10.00,254.02,091115,,*36
$GPRMC,022417,A,4821.4740,N,429.6175,W,10.00,254.02,091115,,*32
$GPRMC,022417,A,4821.4729,N,429.6234,W,10.00,254.02,091115,,*3B
$GPRMC,022417,A,4821.4717,N,429.6292,W,10.00,254.02,091115,,*3A
$GPRMC,022417,A,4821.4706,N,429.6350,W,10.00,254.02,091115,,*35
$GPRMC,022417,A,4821.4695,N,429.6408,W,10.00,254.02,091115,,*34
$GPRMC,022417,A,4821.4684,N,429.6466,W,10.00,254.02,091115,,*3C
$GPRMC,022417,A,4821.4673,N,429.6524,W,10.00,254.02,091115,,*33
$GPRMC,022417,A,4821.4662,N,429.6583,W,10.00,254.02,091115,,*3E
$GPRMC,022417,A,4821.4651,N,429.6641,W,10.00,254.02,091115,,*33
$GPRMC,022417,A,4821.4640,N,429.6699,W,10.00,254.02,091115,,*36
$GPRMC,022417,A,4821.4629,N,429.6757,W,10.00,254.02,091115,,*3A
$GPRMC,022417,A,4821.4617,N,429.6815,W,10.00,254.02,091115,,*3E
$GPRMC,022417,A,4821.4606,N,429.6873,W,10.00,254.02,091115,,*3E
$GPRMC,022417,A,4821.4595,N,429.6931,W,10.00,254.02,091115,,*30
$GPRMC,022417,A,4821.4584,N,429.6990,W,10.00,254.02,091115,,*3B
$GPRMC,022417,A,4821.4573,N,429.7048,W,10.00,254.02,091115,,*3E
$GPRMC,022417,A,4821.4562,N,429.7106,W,10.00,254.02,091115,,*35
$GPRMC,022417,A,4821.4551,N,429.7164,W,10.00,254.02,091115,,*31
$GPRMC,022417,A,4821.4540,N,429.7222,W,10.00,254.02,091115,,*30
$GPRMC,022417,A,4821.4529,N,429.7280,W,10.00,254.02,091115,,*37
$GPRMC,022417,A,4821.4518,N,429.7339,W,10.00,254.02,091115,,*36
$GPRMC,022417,A,4821.4506,N,429.7397,W,10.00,254.02,091115,,*3D
$GPRMC,022417,A,4821.4495,N,429.7455,W,10.00,254.02,091115,,*3F
$GPRMC,022417,A,4821.4484,N,429.7513,W,10.00,254.02,091115,,*3C
$GPRMC,022417,A,4821.4473,N,429.7571,W,10.00,254.02,091115,,*30
$GPRMC,022417,A,4821.4462,N,429.7629,W,10.00,254.02,091115,,*3E
$GPRMC,022417,A,4821.4451,N,429.7688,W,10.00,254.02,091115,,*35
$GPRMC,022417,A,4821.4440,N,429.7746,W,10.00,254.02,091115,,*36
$GPRMC,022417,A,4821.4429,N,429.7804,W,10.00,254.02,091115,,*30
$GPRMC,022417,A,4821.4418,N,429.7862,W,10.00,254.02,091115,,*32
$GPRMC,022417,A,4821.4407,N,429.7920,W,10.00,254.02,091115,,*3B
$GPRMC,022417,A,4821.4395,N,429.7978,W,10.00,254.02,091115,,*3A
$GPRMC,022417,A,4821.4384,N,429.8037,W,10.00,254.02,091115,,*37
$GPRMC,022417,A,4821.4373,N,429.8095,W,10.00,254.02,091115,,*37
$GPRMC,022417,A,4821.4362,N,429.8153,W,10.00,254.02,091115,,*3C
$GPRMC,022417,A,4821.4351,N,429.8211,W,10.00,254.02,091115,,*39
$GPRMC,022417,A,4821.4340,N,429.8269,W,10.00,254.02,091115,,*36
$GPRMC,022417,A,4821.4329,N,429.8327,W,10.00,254.02,091115,,*32
$GPRMC,022417,A,4821.4318,N,429.8386,W,10.00,254.02,091115,,*3B
$GPRMC,022417,A,4821.4307,N,429.8444,W,10.00,254.02,091115,,*3C
$GPRMC,022417,A,4821.4296,N,429.8502,W,10.00,254.02,091115,,*36
$GPRMC,022417,A,4821.4284,N,429.8560,W,10.00,254.02,091115,,*31
$GPRMC,022417,A,4821.4273,N,429.8618,W,10.00,254.02,091115,,*35
$GPRMC,022417,A,4821.4262,N,429.8676,W,10.00,254.02,091115,,*3D
$GPRMC,022417,A,4821.4251,N,429.8735,W,10.00,254.02,091115,,*3B
$GPRMC,022417,A,4821.4240,N,429.8793,W,10.00,254.02,091115,,*37
$GPRMC,022417,A,4821.4229,N,429.8851,W,10.00,254.02,091115,,*39
$GPRMC,022417,A,4821.4218,N,429.8909,W,10.00,254.02,091115,,*37
$GPRMC,022417,A,4821.4207,N,429.8967,W,10.00,254.02,091115,,*31
$GPRMC,022417,A,4821.4196,N,429.9025,W,10.00,254.02,091115,,*34
$GPRMC,022417,A,4821.4184,N,429.9084,W,10.00,254.02,091115,,*3C
$GPRMC,022417,A,4821.4173,N,429.9142,W,10.00,254.02,091115,,*3F
$GPRMC,022417,A,4821.4162,N,429.9200,W,10.00,254.02,091115,,*3A
$GPRMC,022417,A,4821.4151,N,429.9258,W,10.00,254.02,091115,,*37
$GPRMC,022417,A,4821.4140,N,429.9316,W,10.00,254.02,091115,,*3C
$GPRMC,022417,A,4821.4129,N,429.9374,W,10.00,254.02,091115,,*37
$GPRMC,022417,A,4821.4118,N,429.9433,W,10.00,254.02,091115,,*31
$GPRMC,022417,A,4821.4107,N,429.9491,W,10.00,254.02,091115,,*37
$GPRMC,022417,A,4821.4096,N,429.9549,W,10.00,254.02,091115,,*3A
$GPRMC,022417,A,4821.4085,N,429.9607,W,10.00,254.02,091115,,*31
$GPRMC,022417,A,4821.4073,N,429.9665,W,10.00,254.02,091115,,*3C
$GPRMC,022417,A,4821.4062,N,429.9723,W,10.00,254.02,091115,,*3F
$GPRMC,022417,A,4821.4051,N,429.9781,W,10.00,254.02,091115,,*37
$GPRMC,022417,A,4821.4040,N,429.9840,W,10.00,254.02,091115,,*35
$GPRMC,022417,A,4821.4029,N,429.9898,W,10.00,254.02,091115,,*3F
$GPRMC,022417,A,4821.4018,N,429.9956,W,10.00,254.02,091115,,*3E
$GPRMC,022417,A,4821.4007,N,430.0014,W,10.00,254.02,091115,,*3E
$GPRMC,022417,A,4821.3996,N,430.0072,W,10.00,254.02,091115,,*38
$GPRMC,022417,A,4821.3985,N,430.0130,W,10.00,254.02,091115,,*3D
$GPRMC,022417,A,4821.3973,N,430.0189,W,10.00,254.02,091115,,*36
$GPRMC,022417,A,4821.3962,N,430.0247,W,10.00,254.02,091115,,*37
$GPRMC,022417,A,4821.3951,N,430.0305,W,10.00,254.02,091115,,*30
$GPRMC,022417,A,4821.3940,N,430.0363,W,10.00,254.02,091115,,*30
$GPRMC,022417,A,4821.3929,N,430.0421,W,10.00,254.02,091115,,*3E
$GPRMC,022417,A,4821.3918,N,430.0479,W,10.00,254.02,091115,,*31
$GPRMC,022417,A,4821.3907,N,430.0538,W,10.00,254.02,091115,,*3B
$GPRMC,022417,A,4821.3896,N,430.0596,W,10.00,254.02,091115,,*36
$GPRMC,022417,A,4821.3885,N,430.0654,W,10.00,254.02,091115,,*39
$GPRMC,022417,A,4821.3874,N,430.0712,W,10.00,254.02,091115,,*34
$GPRMC,022417,A,4821.3862,N,430.0770,W,10.00,254.02,091115,,*37
$GPRMC,022417,A,4821.3851,N,430.0828,W,10.00,254.02,091115,,*35
$GPRMC,022417,A,4821.3840,N,430.0887,W,10.00,254.02,091115,,*30
$GPRMC,022417,A,4821.3829,N,430.0945,W,10.00,254.02,091115,,*30
$GPRMC,022417,A,4821.3818,N,430.1003,W,10.00,254.02,091115,,*38
$GPRMC,022417,A,4821.3807,N,430.1061,W,10.00,254.02,091115,,*32
$GPRMC,022417,A,4821.3796,N,430.1119,W,10.00,254.02,091115,,*3B
$GPRMC,022417,A,4821.3785,N,430.1177,W,10.00,254.02,091115,,*31
$GPRMC,022417,A,4821.3774,N,430.1236,W,10.00,254.02,091115,,*39
$GPRMC,022417,A,4821.3762,N,430.1294,W,10.00,254.02,091115,,*36
$GPRMC,022417,A,4821.3751,N,430.1352,W,10.00,254.02,091115,,*3D
$GPRMC,022417,A,4821.3740,N,430.1410,W,10.00,254.02,091115,,*3C
$GPRMC,022417,A,4821.3729,N,430.1468,W,10.00,254.02,091115,,*3C
$GPRMC,022417,A,4821.3718,N,430.1526,W,10.00,254.02,091115,,*35
$GPRMC,022417,A,4821.3707,N,430.1584,W,10.00,254.02,091115,,*33
$GPRMC,022417,A,4821.3696,N,430.1643,W,10.00,254.02,091115,,*32
$GPRMC,022417,A,4821.3685,N,430.1701,W,10.00,254.02,091115,,*37
$GPRMC,022417,A,4821.3674,N,430.1759,W,10.00,254.02,091115,,*34
$GPRMC,022417,A,4821.3663,N,430.1817,W,10.00,254.02,091115,,*37
$GPRMC,022417,A,4821.3651,N,430.1875,W,10.00,254.02,091115,,*32
$GPRMC,022417,A,4821.3640,N,430.1933,W,10.00,254.02,091115,,*31
$GPRMC,022417,A,4821.3629,N,430.1992,W,10.00,254.02,091115,,*35
$GPRMC,022417,A,4821.3618,N,430.2050,W,10.00,254.02,091115,,*33
$GPRMC,022417,A,4821.3607,N,430.2108,W,10.00,254.02,091115,,*31
$GPRMC,022417,A,4821.3596,N,430.2166,W,10.00,254.02,091115,,*32
$GPRMC,022417,A,4821.3585,N,430.2224,W,10.00,254.02,091115,,*35
$GPRMC,022417,A,4821.3574,N,430.2282,W,10.00,254.02,091115,,*37
$GPRMC,022417,A,4821.3563,N,430.2341,W,10.00,254.02,091115,,*3F
$GPRMC,022417,A,4821.3551,N,430.2399,W,10.00,254.02,091115,,*3B
$GPRMC,022417,A,4821.3540,N,430.2457,W,10.00,254.02,091115,,*3E
$GPRMC,022417,A,4821.3529,N,430.2515,W,10.00,254.02,091115,,*36
$GPRMC,022417,A,4821.3518,N,430.2573,W,10.00,254.02,091115,,*34
$GPRMC,022417,A,4821.3507,N,430.2631,W,10.00,254.02,091115,,*3F
$GPRMC,022417,A,4821.3496,N,430.2690,W,10.00,254.02,091115,,*3D
$GPRMC,022417,A,4821.3485,N,430.2748,W,10.00,254.02,091115,,*3B
$GPRMC,022417,A,4821.3474,N,430.2806,W,10.00,254.02,091115,,*30
$GPRMC,022417,A,4821.3463,N,430.2864,W,10.00,254.02,091115,,*32
$GPRMC,022417,A,4821.3451,N,430.2922,W,10.00,254.02,091115,,*30
$GPRMC,022417,A,4821.3440,N,430.2980,W,10.00,254.02,091115,,*38
$GPRMC,022417,A,4821.3429,N,430.3038,W,10.00,254.02,091115,,*3C
$GPRMC,022417,A,4821.3418,N,430.3097,W,10.00,254.02,091115,,*3B
$GPRMC,022417,A,4821.3407,N,430.3155,W,10.00,254.02,091115,,*3A
$GPRMC,022417,A,4821.3396,N,430.3213,W,10.00,254.02,091115,,*34
$GPRMC,022417,A,4821.3385,N,430.3271,W,10.00,254.02,091115,,*32
$GPRMC,022417,A,4821.3374,N,430.3329,W,10.00,254.02,091115,,*30
$GPRMC,022417,A,4821.3363,N,430.3387,W,10.00,254.02,091115,,*32
$GPRMC,022417,A,4821.3352,N,430.3446,W,10.00,254.02,091115,,*3A
$GPRMC,022417,A,4821.3340,N,430.3504,W,10.00,254.02,091115,,*3E
$GPRMC,022417,A,4821.3329,N,430.3562,W,10.00,254.02,091115,,*31
$GPRMC,022417,A,4821.3318,N,430.3620,W,10.00,254.02,091115,,*36
$GPRMC,022417,A,4821.3307,N,430.3678,W,10.00,254.02,091115,,*35
$GPRMC,022417,A,4821.3296,N,430.3736,W,10.00,254.02,091115,,*37
$GPRMC,022417,A,4821.3285,N,430.3795,W,10.00,254.02,091115,,*3C
$GPRMC,022417,A,4821.3274,N,430.3853,W,10.00,254.02,091115,,*37
$GPRMC,022417,A,4821.3263,N,430.3911,W,10.00,254.02,091115,,*36
$GPRMC,022417,A,4821.3252,N,430.3969,W,10.00,254.02,091115,,*3B
$GPRMC,022417,A,4821.3240,N,430.4027,W,10.00,254.02,091115,,*3C
$GPRMC,022417,A,4821.3229,N,430.4085,W,10.00,254.02,091115,,*3B
$GPRMC,022417,A,4821.3218,N,430.4144,W,10.00,254.02,091115,,*35
$GPRMC,022417,A,4821.3207,N,430.4202,W,10.00,254.02,091115,,*3A
$GPRMC,022417,A,4821.3196,N,430.4260,W,10.00,254.02,091115,,*35
$GPRMC,022417,A,4821.3185,N,430.4318,W,10.00,254.02,091115,,*39
$GPRMC,022417,A,4821.3174,N,430.4376,W,10.00,254.02,091115,,*3F
$GPRMC,022417,A,4821.3163,N,430.4434,W,10.00,254.02,091115,,*38
$GPRMC,022417,A,4821.3152,N,430.4492,W,10.00,254.02,091115,,*36
$GPRMC,022417,A,4821.3140,N,430.4551,W,10.00,254.02,091115,,*3B
$GPRMC,022417,A,4821.3129,N,430.4609,W,10.00,254.02,091115,,*3A
$GPRMC,022417,A,4821.3118,N,430.4667,W,10.00,254.02,091115,,*30
$GPRMC,022417,A,4821.3107,N,430.4725,W,10.00,254.02,091115,,*39
$GPRMC,022417,A,4821.3096,N,430.4783,W,10.00,254.02,091115,,*3C
$GPRMC,022417,A,4821.3085,N,430.4841,W,10.00,254.02,091115,,*3F
$GPRMC,022417,A,4821.3074,N,430.4900,W,10.00,254.02,091115,,*35
$GPRMC,022417,A,4821.3063,N,430.4958,W,10.00,254.02,091115,,*3E
$GPRMC,022417,A,4821.3052,N,430.5016,W,10.00,254.02,091115,,*3E
$GPRMC,022417,A,4821.3040,N,430.5074,W,10.00,254.02,091115,,*39
$GPRMC,022417,A,4821.3029,N,430.5132,W,10.00,254.02,091115,,*35
$GPRMC,022417,A,4821.3018,N,430.5190,W,10.00,254.02,091115,,*3F
$GPRMC,022417,A,4821.3007,N,430.5249,W,10.00,254.02,091115,,*36
$GPRMC,022417,A,4821.2996,N,430.5307,W,10.00,254.02,091115,,*3D
$GPRMC,022417,A,4821.2985,N,430.5365,W,10.00,254.02,091115,,*3B
$GPRMC,022417,A,4821.2974,N,430.5423,W,10.00,254.02,091115,,*30
$GPRMC,022417,A,4821.2963,N,430.5481,W,10.00,254.02,091115,,*3E
$GPRMC,022417,A,4821.2952,N,430.5539,W,10.00,254.02,091115,,*3E
$GPRMC,022417,A,4821.2940,N,430.5597,W,10.00,254.02,091115,,*39
$GPRMC,022417,A,4821.2929,N,430.5656,W,10.00,254.02,091115,,*38
$GPRMC,022417,A,4821.2918,N,430.5714,W,10.00,254.02,091115,,*3D
$GPRMC,022417,A,4821.2907,N,430.5772,W,10.00,254.02,091115,,*33
$GPRMC,022417,A,4821.2896,N,430.5830,W,10.00,254.02,091115,,*33
$GPRMC,022417,A,4821.2885,N,430.5888,W,10.00,254.02,091115,,*32
$GPRMC,022417,A,4821.2874,N,430.5946,W,10.00,254.02,091115,,*3F
$GPRMC,022417,A,4821.2863,N,430.6005,W,10.00,254.02,091115,,*34
$GPRMC,022417,A,4821.2852,N,430.6063,W,10.00,254.02,091115,,*36
$GPRMC,022417,A,4821.2840,N,430.6121,W,10.00,254.02,091115,,*32
$GPRMC,022417,A,4821.2829,N,430.6179,W,10.00,254.02,091115,,*30
$GPRMC,022417,A,4821.2818,N,430.6237,W,10.00,254.02,091115,,*3B
$GPRMC,022417,A,4821.2807,N,430.6295,W,10.00,254.02,091115,,*3D
$GPRMC,022417,A,4821.2796,N,430.6354,W,10.00,254.02,091115,,*36
$GPRMC,022417,A,4821.2785,N,430.6412,W,10.00,254.02,091115,,*31
$GPRMC,022417,A,4821.2774,N,430.6470,W,10.00,254.02,091115,,*3B
$GPRMC,022417,A,4821.2763,N,430.6528,W,10.00,254.02,091115,,*31
$GPRMC,022417,A,4821.2752,N,430.6586,W,10.00,254.02,091115,,*37
$GPRMC,022417,A,4821.2741,N,430.6644,W,10.00,254.02,091115,,*38
$GPRMC,022417,A,4821.2729,N,430.6702,W,10.00,254.02,091115,,*35
$GPRMC,022417,A,4821.2718,N,430.6761,W,10.00,254.02,091115,,*32
$GPRMC,022417,A,4821.2707,N,430.6819,W,10.00,254.02,091115,,*3C
$GPRMC,022417,A,4821.2696,N,430.6877,W,10.00,254.02,091115,,*3D
$GPRMC,022417,A,4821.2685,N,430.6935,W,10.00,254.02,091115,,*38
$GPRMC,022417,A,4821.2674,N,430.6993,W,10.00,254.02,091115,,*3A
$GPRMC,022417,A,4821.2663,N,430.7051,W,10.00,254.02,091115,,*3A
$GPRMC,022417,A,4821.2652,N,430.7110,W,10.00,254.02,091115,,*3C
$GPRMC,022417,A,4821.2641,N,430.7168,W,10.00,254.02,091115,,*31
$GPRMC,022417,A,4821.2629,N,430.7226,W,10.00,254.02,091115,,*36
$GPRMC,022417,A,4821.2618,N,430.7284,W,10.00,254.02,091115,,*3C
$GPRMC,022417,A,4821.2607,N,430.7342,W,10.00,254.02,091115,,*39
$GPRMC,022417,A,4821.2596,N,430.7400,W,10.00,254.02,091115,,*33
$GPRMC,022417,A,4821.2585,N,430.7459,W,10.00,254.02,091115,,*3D
$GPRMC,022417,A,4821.2574,N,430.7517,W,10.00,254.02,091115,,*38
$GPRMC,022417,A,4821.2563,N,430.7575,W,10.00,254.02,091115,,*3A
$GPRMC,022417,A,4821.2552,N,430.7633,W,10.00,254.02,091115,,*39
$GPRMC,022417,A,4821.2541,N,430.7691,W,10.00,254.02,091115,,*33
$GPRMC,022417,A,4821.2529,N,430.7749,W,10.00,254.02,091115,,*39
$GPRMC,022417,A,4821.2518,N,430.7807,W,10.00,254.02,091115,,*3E
$GPRMC,022417,A,4821.2507,N,430.7866,W,10.00,254.02,091115,,*37
$GPRMC,022417,A,4821.2496,N,430.7924,W,10.00,254.02,091115,,*39
$GPRMC,022417,A,4821.2485,N,430.7982,W,10.00,254.02,091115,,*37
$GPRMC,022417,A,4821.2474,N,430.8040,W,10.00,254.02,091115,,*31
$GPRMC,022417,A,4821.2463,N,430.8098,W,10.00,254.02,091115,,*32
$GPRMC,022417,A,4821.2452,N,430.8156,W,10.00,254.02,091115,,*33
$GPRMC,022417,A,4821.2441,N,430.8215,W,10.00,254.02,091115,,*35
$GPRMC,022417,A,4821.2429,N,430.8273,W,10.00,254.02,091115,,*3B
$GPRMC,022417,A,4821.2418,N,430.8331,W,10.00,254.02,091115,,*3E
$GPRMC,022417,A,4821.2407,N,430.8389,W,10.00,254.02,091115,,*33
$GPRMC,022417,A,4821.2396,N,430.8447,W,10.00,254.02,091115,,*39
$GPRMC,022417,A,4821.2385,N,430.8505,W,10.00,254.02,091115,,*3C
$GPRMC,022417,A,4821.2374,N,430.8563,W,10.00,254.02,091115,,*32
$GPRMC,022417,A,4821.2363,N,430.8622,W,10.00,254.02,091115,,*32
$GPRMC,022417,A,4821.2352,N,430.8680,W,10.00,254.02,091115,,*38
$GPRMC,022417,A,4821.2340,N,430.8738,W,10.00,254.02,091115,,*39
$GPRMC,022417,A,4821.2329,N,430.8796,W,10.00,254.02,091115,,*32
$GPRMC,022417,A,4821.2318,N,430.8854,W,10.00,254.02,091115,,*31
$GPRMC,022417,A,4821.2307,N,430.8912,W,10.00,254.02,091115,,*3C
$GPRMC,022417,A,4821.2296,N,430.8971,W,10.00,254.02,091115,,*30
$GPRMC,022417,A,4821.2285,N,430.9029,W,10.00,254.02,091115,,*37
$GPRMC,022417,A,4821.2274,N,430.9087,W,10.00,254.02,091115,,*3D
$GPRMC,022417,A,4821.2263,N,430.9145,W,10.00,254.02,091115,,*34
$GPRMC,022417,A,4821.2252,N,430.9203,W,10.00,254.02,091115,,*37
$GPRMC,022417,A,4821.2240,N,430.9261,W,10.00,254.02,091115,,*30
$GPRMC,022417,A,4821.2229,N,430.9319,W,10.00,254.02,091115,,*31
$GPRMC,022417,A,4821.2218,N,430.9378,W,10.00,254.02,091115,,*34
$GPRMC,022417,A,4821.2207,N,430.9436,W,10.00,254.02,091115,,*37
$GPRMC,022417,A,4821.2196,N,430.9494,W,10.00,254.02,091115,,*34
$GPRMC,022417,A,4821.2185,N,430.9552,W,10.00,254.02,091115,,*3D
$GPRMC,022417,A,4821.2174,N,430.9610,W,10.00,254.02,091115,,*36
$GPRMC,022417,A,4821.2163,N,430.9668,W,10.00,254.02,091115,,*3F
$GPRMC,022417,A,4821.2152,N,430.9727,W,10.00,254.02,091115,,*37
$GPRMC,022417,A,4821.2140,N,430.9785,W,10.00,254.02,091115,,*3C
$GPRMC,022417,A,4821.2129,N,430.9843,W,10.00,254.02,091115,,*36
$GPRMC,022417,A,4821.2118,N,430.9901,W,10.00,254.02,091115,,*33
$GPRMC,022417,A,4821.2107,N,430.9959,W,10.00,254.02,091115,,*30
$GPRMC,022417,A,4821.2096,N,431.0017,W,10.00,254.02,091115,,*32
$GPRMC,022417,A,4821.2085,N,431.0076,W,10.00,254.02,091115,,*37
$GPRMC,022417,A,4821.2074,N,431.0134,W,10.00,254.02,091115,,*3E
$GPRMC,022417,A,4821.2063,N,431.0192,W,10.00,254.02,091115,,*34
$GPRMC,022417,A,4821.2052,N,431.0250,W,10.00,254.02,091115,,*3B
$GPRMC,022417,A,4821.2040,N,431.0308,W,10.00,254.02,091115,,*34
$GPRMC,022417,A,4821.2029,N,431.0366,W,10.00,254.02,091115,,*33
$GPRMC,022417,A,4821.2018,N,431.0424,W,10.00,254.02,091115,,*30
$GPRMC,022417,A,4821.2007,N,431.0483,W,10.00,254.02,091115,,*33
$GPRMC,022417,A,4821.1996,N,431.0541,W,10.00,254.02,091115,,*3E
$GPRMC,022417,A,4821.1985,N,431.0599,W,10.00,254.02,091115,,*39
$GPRMC,022417,A,4821.1974,N,431.0657,W,10.00,254.02,091115,,*36
$GPRMC,022417,A,4821.1963,N,431.0715,W,10.00,254.02,091115,,*37
$GPRMC,022417,A,4821.1952,N,431.0773,W,10.00,254.02,091115,,*35
$GPRMC,022417,A,4821.1940,N,431.0832,W,10.00,254.02,091115,,*3C
$GPRMC,022417,A,4821.1929,N,431.0890,W,10.00,254.02,091115,,*3B
$GPRMC,022417,A,4821.1918,N,431.0948,W,10.00,254.02,091115,,*3D
$GPRMC,022417,A,4821.1907,N,431.1006,W,10.00,254.02,091115,,*31
$GPRMC,022417,A,4821.1896,N,431.1064,W,10.00,254.02,091115,,*3C
$GPRMC,022417,A,4821.1885,N,431.1122,W,10.00,254.02,091115,,*3D
$GPRMC,022417,A,4821.1874,N,431.1180,W,10.00,254.02,091115,,*3B
$GPRMC,022417,A,4821.1863,N,431.1239,W,10.00,254.02,091115,,*3C
$GPRMC,022417,A,4821.1852,N,431.1297,W,10.00,254.02,091115,,*3A
$GPRMC,022417,A,4821.1840,N,431.1355,W,10.00,254.02,091115,,*36
$GPRMC,022417,A,4821.1829,N,431.1413,W,10.00,254.02,091115,,*3C
$GPRMC,022417,A,4821.1818,N,431.1471,W,10.00,254.02,091115,,*3A
$GPRMC,022417,A,4821.1807,N,431.1529,W,10.00,254.02,091115,,*38
$GPRMC,022417,A,4821.1796,N,431.1588,W,10.00,254.02,091115,,*34
$GPRMC,022417,A,4821.1785,N,431.1646,W,10.00,254.02,091115,,*37
$GPRMC,022417,A,4821.1774,N,431.1704,W,10.00,254.02,091115,,*3E
$GPRMC,022417,A,4821.1763,N,431.1762,W,10.00,254.02,091115,,*38
$GPRMC,022417,A,4821.1751,N,431.1820,W,10.00,254.02,091115,,*30
$GPRMC,022417,A,4821.1740,N,431.1878,W,10.00,254.02,091115,,*3D
$GPRMC,022417,A,4821.1729,N,431.1936,W,10.00,254.02,091115,,*39
$GPRMC,022417,A,4821.1718,N,431.1995,W,10.00,254.02,091115,,*32
$GPRMC,022417,A,4821.1707,N,431.2053,W,10.00,254.02,091115,,*3C
$GPRMC,022417,A,4821.1696,N,431.2111,W,10.00,254.02,091115,,*32
$GPRMC,022417,A,4821.1685,N,431.2169,W,10.00,254.02,091115,,*3F
$GPRMC,022417,A,4821.1674,N,431.2227,W,10.00,254.02,091115,,*38
$GPRMC,022417,A,4821.1663,N,431.2285,W,10.00,254.02,091115,,*36
$GPRMC,022417,A,4821.1651,N,431.2344,W,10.00,254.02,091115,,*3B
$GPRMC,022417,A,4821.1640,N,431.2402,W,10.00,254.02,091115,,*3E
$GPRMC,022417,A,4821.1629,N,431.2460,W,10.00,254.02,091115,,*35
$GPRMC,022417,A,4821.1618,N,431.2518,W,10.00,254.02,091115,,*39
$GPRMC,022417,A,4821.1607,N,431.2576,W,10.00,254.02,091115,,*3F
$GPRMC,022417,A,4821.1596,N,431.2634,W,10.00,254.02,091115,,*31
$GPRMC,022417,A,4821.1585,N,431.2692,W,10.00,254.02,091115,,*3F
$GPRMC,022417,A,4821.1574,N,431.2751,W,10.00,254.02,091115,,*3F
$GPRMC,022417,A,4821.1563,N,431.2809,W,10.00,254.02,091115,,*3B
$GPRMC,022417,A,4821.1551,N,431.2867,W,10.00,254.02,091115,,*32
$GPRMC,022417,A,4821.1540,N,431.2925,W,10.00,254.02,091115,,*35
$GPRMC,022417,A,4821.1529,N,431.2983,W,10.00,254.02,091115,,*36
$GPRMC,022417,A,4821.1518,N,431.3041,W,10.00,254.02,091115,,*32
$GPRMC,022417,A,4821.1507,N,431.3099,W,10.00,254.02,091115,,*39
$GPRMC,022417,A,4821.1496,N,431.3158,W,10.00,254.02,091115,,*3C
$GPRMC,022417,A,4821.1485,N,431.3216,W,10.00,254.02,091115,,*37
$GPRMC,022417,A,4821.1474,N,431.3274,W,10.00,254.02,091115,,*3D
$GPRMC,022417,A,4821.1462,N,431.3332,W,10.00,254.02,091115,,*39
$GPRMC,022417,A,4821.1451,N,431.3390,W,10.00,254.02,091115,,*31
$GPRMC,022417,A,4821.1440,N,431.3448,W,10.00,254.02,091115,,*33
$GPRMC,022417,A,4821.1429,N,431.3507,W,10.00,254.02,091115,,*36
$GPRMC,022417,A,4821.1418,N,431.3565,W,10.00,254.02,091115,,*30
$GPRMC,022417,A,4821.1407,N,431.3623,W,10.00,254.02,091115,,*3F
$GPRMC,022417,A,4821.1396,N,431.3681,W,10.00,254.02,091115,,*38
$GPRMC,022417,A,4821.1385,N,431.3739,W,10.00,254.02,091115,,*38
$GPRMC,022417,A,4821.1374,N,431.3797,W,10.00,254.02,091115,,*32
$GPRMC,022417,A,4821.1362,N,431.3855,W,10.00,254.02,091115,,*34
$GPRMC,022417,A,4821.1351,N,431.3914,W,10.00,254.02,091115,,*30
$GPRMC,022417,A,4821.1340,N,431.3972,W,10.00,254.02,091115,,*30
$GPRMC,022417,A,4821.1329,N,431.4030,W,10.00,254.02,091115,,*37
$GPRMC,022417,A,4821.1318,N,431.4088,W,10.00,254.02,091115,,*36
$GPRMC,022417,A,4821.1307,N,431.4146,W,10.00,254.02,091115,,*3B
$GPRMC,022417,A,4821.1296,N,431.4204,W,10.00,254.02,091115,,*37
$GPRMC,022417,A,4821.1285,N,431.4263,W,10.00,254.02,091115,,*34
$GPRMC,022417,A,4821.1273,N,431.4321,W,10.00,254.02,091115,,*3A
$GPRMC,022417,A,4821.1262,N,431.4379,W,10.00,254.02,091115,,*37
$GPRMC,022417,A,4821.1251,N,431.4437,W,10.00,254.02,091115,,*3A
$GPRMC,022417,A,4821.1240,N,431.4495,W,10.00,254.02,091115,,*32
$GPRMC,022417,A,4821.1229,N,431.4553,W,10.00,254.02,091115,,*36
$GPRMC,022417,A,4821.1218,N,431.4611,W,10.00,254.02,091115,,*31
$GPRMC,022417,A,4821.1207,N,431.4670,W,10.00,254.02,091115,,*38
$GPRMC,022417,A,4821.1196,N,431.4728,W,10.00,254.02,091115,,*3F
$GPRMC,022417,A,4821.1185,N,431.4786,W,10.00,254.02,091115,,*39
$GPRMC,022417,A,4821.1173,N,431.4844,W,10.00,254.02,091115,,*31
$GPRMC,022417,A,4821.1162,N,431.4902,W,10.00,254.02,091115,,*32
$GPRMC,022417,A,4821.1151,N,431.4960,W,10.00,254.02,091115,,*36
$GPRMC,022417,A,4821.1140,N,431.5018,W,10.00,254.02,091115,,*31
$GPRMC,022417,A,4821.1129,N,431.5077,W,10.00,254.02,091115,,*37
$GPRMC,022417,A,4821.1118,N,431.5135,W,10.00,254.02,091115,,*32
$GPRMC,022417,A,4821.1107,N,431.5193,W,10.00,254.02,091115,,*30
$GPRMC,022417,A,4821.1096,N,431.5251,W,10.00,254.02,091115,,*34
$GPRMC,022417,A,4821.1084,N,431.5309,W,10.00,254.02,091115,,*3B
$GPRMC,022417,A,4821.1073,N,431.5367,W,10.00,254.02,091115,,*3B
$GPRMC,022417,A,4821.1062,N,431.5426,W,10.00,254.02,091115,,*39
$GPRMC,022417,A,4821.1051,N,431.5484,W,10.00,254.02,091115,,*31
$GPRMC,022417,A,4821.1040,N,431.5542,W,10.00,254.02,091115,,*3A
$GPRMC,022417,A,4821.1029,N,431.5600,W,10.00,254.02,091115,,*30
$GPRMC,022417,A,4821.1018,N,431.5658,W,10.00,254.02,091115,,*3F
$GPRMC,022417,A,4821.1007,N,431.5716,W,10.00,254.02,091115,,*3A
$GPRMC,022417,A,4821.0996,N,431.5774,W,10.00,254.02,091115,,*3E
$GPRMC,022417,A,4821.0984,N,431.5833,W,10.00,254.02,091115,,*31
$GPRMC,022417,A,4821.0973,N,431.5891,W,10.00,254.02,091115,,*31
$GPRMC,022417,A,4821.0962,N,431.5949,W,10.00,254.02,091115,,*35
$GPRMC,022417,A,4821.0951,N,431.6007,W,10.00,254.02,091115,,*35
$GPRMC,022417,A,4821.0940,N,431.6065,W,10.00,254.02,091115,,*31
$GPRMC,022417,A,4821.0929,N,431.6123,W,10.00,254.02,091115,,*3D
$GPRMC,022417,A,4821.0918,N,431.6182,W,10.00,254.02,091115,,*34
$GPRMC,022417,A,4821.0907,N,431.6240,W,10.00,254.02,091115,,*37
$GPRMC,022417,A,4821.0895,N,431.6298,W,10.00,254.02,091115,,*38
$GPRMC,022417,A,4821.0884,N,431.6356,W,10.00,254.02,091115,,*3B
$GPRMC,022417,A,4821.0873,N,431.6414,W,10.00,254.02,091115,,*32
$GPRMC,022417,A,4821.0862,N,431.6472,W,10.00,254.02,091115,,*32
$GPRMC,022417,A,4821.0851,N,431.6530,W,10.00,254.02,091115,,*35
$GPRMC,022417,A,4821.0840,N,431.6589,W,10.00,254.02,091115,,*37
$GPRMC,022417,A,4821.0829,N,431.6647,W,10.00,254.02,091115,,*39
$GPRMC,022417,A,4821.0818,N,431.6705,W,10.00,254.02,091115,,*3C
$GPRMC,022417,A,4821.0807,N,431.6763,W,10.00,254.02,091115,,*32
$GPRMC,022417,A,4821.0795,N,431.6821,W,10.00,254.02,091115,,*3F
$GPRMC,022417,A,4821.0784,N,431.6879,W,10.00,254.02,091115,,*32
$GPRMC,022417,A,4821.0773,N,431.6937,W,10.00,254.02,091115,,*31
$GPRMC,022417,A,4821.0762,N,431.6996,W,10.00,254.02,091115,,*3A
$GPRMC,022417,A,4821.0751,N,431.7054,W,10.00,254.02,091115,,*3C
$GPRMC,022417,A,4821.0740,N,431.7112,W,10.00,254.02,091115,,*3F
$GPRMC,022417,A,4821.0729,N,431.7170,W,10.00,254.02,091115,,*34
$GPRMC,022417,A,4821.0718,N,431.7228,W,10.00,254.02,091115,,*38
$GPRMC,022417,A,4821.0706,N,431.7286,W,10.00,254.02,091115,,*33
$GPRMC,022417,A,4821.0695,N,431.7344,W,10.00,254.02,091115,,*37
$GPRMC,022417,A,4821.0684,N,431.7403,W,10.00,254.02,091115,,*33
$GPRMC,022417,A,4821.0673,N,431.7461,W,10.00,254.02,091115,,*3F
$GPRMC,022417,A,4821.0662,N,431.7519,W,10.00,254.02,091115,,*31
$GPRMC,022417,A,4821.0651,N,431.7577,W,10.00,254.02,091115,,*39
$GPRMC,022417,A,4821.0640,N,431.7635,W,10.00,254.02,091115,,*3C
$GPRMC,022417,A,4821.0629,N,431.7693,W,10.00,254.02,091115,,*3F
$GPRMC,022417,A,4821.0618,N,431.7752,W,10.00,254.02,091115,,*31
$GPRMC,022417,A,4821.0606,N,431.7810,W,10.00,254.02,091115,,*37
$GPRMC,022417,A,4821.0595,N,431.7868,W,10.00,254.02,091115,,*31
$GPRMC,022417,A,4821.0584,N,431.7926,W,10.00,254.02,091115,,*3A
$GPRMC,022417,A,4821.0573,N,431.7984,W,10.00,254.02,091115,,*3A
$GPRMC,022417,A,4821.0562,N,431.8042,W,10.00,254.02,091115,,*36
$GPRMC,022417,A,4821.0551,N,431.8100,W,10.00,254.02,091115,,*31
$GPRMC,022417,A,4821.0540,N,431.8159,W,10.00,254.02,091115,,*3D
$GPRMC,022417,A,4821.0529,N,431.8217,W,10.00,254.02,091115,,*3B
$GPRMC,022417,A,4821.0517,N,431.8275,W,10.00,254.02,091115,,*32
$GPRMC,022417,A,4821.0506,N,431.8333,W,10.00,254.02,091115,,*31
$GPRMC,022417,A,4821.0495,N,431.8391,W,10.00,254.02,091115,,*32
$GPRMC,022417,A,4821.0484,N,431.8449,W,10.00,254.02,091115,,*30
$GPRMC,022417,A,4821.0473,N,431.8507,W,10.00,254.02,091115,,*33
$GPRMC,022417,A,4821.0462,N,431.8566,W,10.00,254.02,091115,,*34
$GPRMC,022417,A,4821.0451,N,431.8624,W,10.00,254.02,091115,,*31
$GPRMC,022417,A,4821.0440,N,431.8682,W,10.00,254.02,091115,,*3D
$GPRMC,022417,A,4821.0428,N,431.8740,W,10.00,254.02,091115,,*3C
$GPRMC,022417,A,4821.0417,N,431.8798,W,10.00,254.02,091115,,*35
$GPRMC,022417,A,4821.0406,N,431.8856,W,10.00,254.02,091115,,*38
$GPRMC,022417,A,4821.0395,N,431.8915,W,10.00,254.02,091115,,*33
$GPRMC,022417,A,4821.0384,N,431.8973,W,10.00,254.02,091115,,*33
$GPRMC,022417,A,4821.0373,N,431.9031,W,10.00,254.02,091115,,*35
$GPRMC,022417,A,4821.0362,N,431.9089,W,10.00,254.02,091115,,*36
$GPRMC,022417,A,4821.0351,N,431.9147,W,10.00,254.02,091115,,*35
$GPRMC,022417,A,4821.0339,N,431.9205,W,10.00,254.02,091115,,*3E
$GPRMC,022417,A,4821.0328,N,431.9263,W,10.00,254.02,091115,,*3E
$GPRMC,022417,A,4821.0317,N,431.9322,W,10.00,254.02,091115,,*36
$GPRMC,022417,A,4821.0306,N,431.9380,W,10.00,254.02,091115,,*3E
$GPRMC,022417,A,4821.0295,N,431.9438,W,10.00,254.02,091115,,*31
$GPRMC,022417,A,4821.0284,N,431.9496,W,10.00,254.02,091115,,*35
$GPRMC,022417,A,4821.0273,N,431.9554,W,10.00,254.02,091115,,*32
$GPRMC,022417,A,4821.0262,N,431.9612,W,10.00,254.02,091115,,*33
$GPRMC,022417,A,4821.0251,N,431.9670,W,10.00,254.02,091115,,*37
$GPRMC,022417,A,4821.0239,N,431.9729,W,10.00,254.02,091115,,*34
$GPRMC,022417,A,4821.0228,N,431.9787,W,10.00,254.02,091115,,*30
$GPRMC,022417,A,4821.0217,N,431.9845,W,10.00,254.02,091115,,*3D
$GPRMC,022417,A,4821.0206,N,431.9903,W,10.00,254.02,091115,,*3E
$GPRMC,022417,A,4821.0195,N,431.9961,W,10.00,254.02,091115,,*33
$GPRMC,022417,A,4821.0184,N,432.0019,W,10.00,254.02,091115,,*3F
$GPRMC,022417,A,4821.0173,N,432.0077,W,10.00,254.02,091115,,*3F
$GPRMC,022417,A,4821.0162,N,432.0136,W,10.00,254.02,091115,,*3B
$GPRMC,022417,A,4821.0150,N,432.0194,W,10.00,254.02,091115,,*32
$GPRMC,022417,A,4821.0139,N,432.0252,W,10.00,254.02,091115,,*34
$GPRMC,022417,A,4821.0128,N,432.0310,W,10.00,254.02,091115,,*33
$GPRMC,022417,A,4821.0117,N,432.0368,W,10.00,254.02,091115,,*30
$GPRMC,022417,A,4821.0106,N,432.0426,W,10.00,254.02,091115,,*3D
$GPRMC,022417,A,4821.0095,N,432.0484,W,10.00,254.02,091115,,*3E
$GPRMC,022417,A,4821.0084,N,432.0543,W,10.00,254.02,091115,,*34
$GPRMC,022417,A,4821.0073,N,432.0601,W,10.00,254.02,091115,,*39
$GPRMC,022417,A,4821.0061,N,432.0659,W,10.00,254.02,091115,,*37
$GPRMC,022417,A,4821.0050,N,432.0717,W,10.00,254.02,091115,,*3E
$GPRMC,022417,A,4821.0039,N,432.0775,W,10.00,254.02,091115,,*35
$GPRMC,022417,A,4821.0028,N,432.0833,W,10.00,254.02,091115,,*38
$GPRMC,022417,A,4821.0017,N,432.0892,W,10.00,254.02,091115,,*3F
$GPRMC,022417,A,4821.0006,N,432.0950,W,10.00,254.02,091115,,*30
$GPRMC,022417,A,4820.9995,N,432.1008,W,10.00,254.02,091115,,*3E
$GPRMC,022417,A,4820.9984,N,432.1066,W,10.00,254.02,091115,,*36
$GPRMC,022417,A,4820.9972,N,432.1124,W,10.00,254.02,091115,,*38
$GPRMC,022417,A,4820.9961,N,432.1182,W,10.00,254.02,091115,,*36
$GPRMC,022417,A,4820.9950,N,432.1240,W,10.00,254.02,091115,,*39
$GPRMC,022417,A,4820.9939,N,432.1299,W,10.00,254.02,091115,,*32
$GPRMC,022417,A,4820.9928,N,432.1357,W,10.00,254.02,091115,,*31
$GPRMC,022417,A,4820.9917,N,432.1415,W,10.00,254.02,091115,,*3C
$GPRMC,022417,A,4820.9906,N,432.1473,W,10.00,254.02,091115,,*3C
$GPRMC,022417,A,4820.9895,N,432.1531,W,10.00,254.02,091115,,*30
$GPRMC,022417,A,4820.9883,N,432.1589,W,10.00,254.02,091115,,*34
$GPRMC,022417,A,4820.9872,N,432.1647,W,10.00,254.02,091115,,*3B
$GPRMC,022417,A,4820.9861,N,432.1706,W,10.00,254.02,091115,,*3D
$GPRMC,022417,A,4820.9850,N,432.1764,W,10.00,254.02,091115,,*3B
$GPRMC,022417,A,4820.9839,N,432.1822,W,10.00,254.02,091115,,*39
$GPRMC,022417,A,4820.9828,N,432.1880,W,10.00,254.02,091115,,*31
$GPRMC,022417,A,4820.9817,N,432.1938,W,10.00,254.02,091115,,*3F
$GPRMC,022417,A,4820.9806,N,432.1996,W,10.00,254.02,091115,,*3B
$GPRMC,022417,A,4820.9794,N,432.2054,W,10.00,254.02,091115,,*3B
$GPRMC,022417,A,4820.9783,N,432.2113,W,10.00,254.02,091115,,*3F
$GPRMC,022417,A,4820.9772,N,432.2171,W,10.00,254.02,091115,,*35
$GPRMC,022417,A,4820.9761,N,432.2229,W,10.00,254.02,091115,,*39
$GPRMC,022417,A,4820.9750,N,432.2287,W,10.00,254.02,091115,,*3F
$GPRMC,022417,A,4820.9739,N,432.2345,W,10.00,254.02,091115,,*3F
$GPRMC,022417,A,4820.9728,N,432.2403,W,10.00,254.02,091115,,*3A
$GPRMC,022417,A,4820.9717,N,432.2461,W,10.00,254.02,091115,,*32
$GPRMC,022417,A,4820.9706,N,432.2520,W,10.00,254.02,091115,,*36
$GPRMC,022417,A,4820.9694,N,432.2578,W,10.00,254.02,091115,,*31
$GPRMC,022417,A,4820.9683,N,432.2636,W,10.00,254.02,091115,,*3E
$GPRMC,022417,A,4820.9672,N,432.2694,W,10.00,254.02,091115,,*38
$GPRMC,022417,A,4820.9661,N,432.2752,W,10.00,254.02,091115,,*31
$GPRMC,022417,A,4820.9650,N,432.2810,W,10.00,254.02,091115,,*3A
$GPRMC,022417,A,4820.9639,N,432.2868,W,10.00,254.02,091115,,*3A
$GPRMC,022417,A,4820.9628,N,432.2927,W,10.00,254.02,091115,,*30
$GPRMC,022417,A,4820.9617,N,432.2985,W,10.00,254.02,091115,,*34
$GPRMC,022417,A,4820.9605,N,432.3043,W,10.00,254.02,091115,,*35
$GPRMC,022417,A,4820.9594,N,432.3101,W,10.00,254.02,091115,,*39
$GPRMC,022417,A,4820.9583,N,432.3159,W,10.00,254.02,091115,,*32
$GPRMC,022417,A,4820.9572,N,432.3217,W,10.00,254.02,091115,,*35
$GPRMC,022417,A,4820.9561,N,432.3276,W,10.00,254.02,091115,,*30
$GPRMC,022417,A,4820.9550,N,432.3334,W,10.00,254.02,091115,,*35
$GPRMC,022417,A,4820.9539,N,432.3392,W,10.00,254.02,091115,,*36
$GPRMC,022417,A,4820.9528,N,432.3450,W,10.00,254.02,091115,,*3F
$GPRMC,022417,A,4820.9516,N,432.3508,W,10.00,254.02,091115,,*3E
$GPRMC,022417,A,4820.9505,N,432.3566,W,10.00,254.02,091115,,*34
$GPRMC,022417,A,4820.9494,N,432.3624,W,10.00,254.02,091115,,*38
$GPRMC,022417,A,4820.9483,N,432.3683,W,10.00,254.02,091115,,*33
$GPRMC,022417,A,4820.9472,N,432.3741,W,10.00,254.02,091115,,*32
$GPRMC,022417,A,4820.9461,N,432.3799,W,10.00,254.02,091115,,*35
$GPRMC,022417,A,4820.9450,N,432.3857,W,10.00,254.02,091115,,*3A
$GPRMC,022417,A,4820.9439,N,432.3915,W,10.00,254.02,091115,,*32
$GPRMC,022417,A,4820.9427,N,432.3973,W,10.00,254.02,091115,,*3D
$GPRMC,022417,A,4820.9416,N,432.4031,W,10.00,254.02,091115,,*37
$GPRMC,022417,A,4820.9405,N,432.4090,W,10.00,254.02,091115,,*3E
$GPRMC,022417,A,4820.9394,N,432.4148,W,10.00,254.02,091115,,*35
$GPRMC,022417,A,4820.9383,N,432.4206,W,10.00,254.02,091115,,*3A
$GPRMC,022417,A,4820.9372,N,432.4264,W,10.00,254.02,091115,,*30
$GPRMC,022417,A,4820.9361,N,432.4322,W,10.00,254.02,091115,,*31
$GPRMC,022417,A,4820.9350,N,432.4380,W,10.00,254.02,091115,,*3B
$GPRMC,022417,A,4820.9338,N,432.4438,W,10.00,254.02,091115,,*31
$GPRMC,022417,A,4820.9327,N,432.4497,W,10.00,254.02,091115,,*3A
$GPRMC,022417,A,4820.9316,N,432.4555,W,10.00,254.02,091115,,*37
$GPRMC,022417,A,4820.9305,N,432.4613,W,10.00,254.02,091115,,*34
$GPRMC,022417,A,4820.9294,N,432.4671,W,10.00,254.02,091115,,*39
$GPRMC,022417,A,4820.9283,N,432.4729,W,10.00,254.02,091115,,*33
$GPRMC,022417,A,4820.9272,N,432.4787,W,10.00,254.02,091115,,*39
$GPRMC,022417,A,4820.9261,N,432.4845,W,10.00,254.02,091115,,*3A
$GPRMC,022417,A,4820.9249,N,432.4904,W,10.00,254.02,091115,,*34
$GPRMC,022417,A,4820.9238,N,432.4962,W,10.00,254.02,091115,,*32
$GPRMC,022417,A,4820.9227,N,432.5020,W,10.00,254.02,091115,,*32
$GPRMC,022417,A,4820.9216,N,432.5078,W,10.00,254.02,091115,,*3D
$GPRMC,022417,A,4820.9205,N,432.5136,W,10.00,254.02,091115,,*34
$GPRMC,022417,A,4820.9194,N,432.5194,W,10.00,254.02,091115,,*37
$GPRMC,022417,A,4820.9183,N,432.5252,W,10.00,254.02,091115,,*38
$GPRMC,022417,A,4820.9172,N,432.5311,W,10.00,254.02,091115,,*30
$GPRMC,022417,A,4820.9160,N,432.5369,W,10.00,254.02,091115,,*3C
$GPRMC,022417,A,4820.9149,N,432.5427,W,10.00,254.02,091115,,*3A
$GPRMC,022417,A,4820.9138,N,432.5485,W,10.00,254.02,091115,,*34
$GPRMC,022417,A,4820.9127,N,432.5543,W,10.00,254.02,091115,,*31
$GPRMC,022417,A,4820.9116,N,432.5601,W,10.00,254.02,091115,,*36
$GPRMC,022417,A,4820.9105,N,432.5659,W,10.00,254.02,091115,,*39
$GPRMC,022417,A,4820.9094,N,432.5718,W,10.00,254.02,091115,,*34
$GPRMC,022417,A,4820.9082,N,432.5776,W,10.00,254.02,091115,,*3B
$GPRMC,022417,A,4820.9071,N,432.5834,W,10.00,254.02,091115,,*3E
$GPRMC,022417,A,4820.9060,N,432.5892,W,10.00,254.02,091115,,*32
$GPRMC,022417,A,4820.9049,N,432.5950,W,10.00,254.02,091115,,*36
$GPRMC,022417,A,4820.9038,N,432.6008,W,10.00,254.02,091115,,*37
$GPRMC,022417,A,4820.9027,N,432.6066,W,10.00,254.02,091115,,*31
$GPRMC,022417,A,4820.9016,N,432.6125,W,10.00,254.02,091115,,*35
$GPRMC,022417,A,4820.9005,N,432.6183,W,10.00,254.02,091115,,*3B
$GPRMC,022417,A,4820.8993,N,432.6241,W,10.00,254.02,091115,,*31
$GPRMC,022417,A,4820.8982,N,432.6299,W,10.00,254.02,091115,,*34
$GPRMC,022417,A,4820.8971,N,432.6357,W,10.00,254.02,091115,,*3B
$GPRMC,022417,A,4820.8960,N,432.6415,W,10.00,254.02,091115,,*3A
$GPRMC,022417,A,4820.8949,N,432.6473,W,10.00,254.02,091115,,*31
$GPRMC,022417,A,4820.8938,N,432.6532,W,10.00,254.02,091115,,*33
$GPRMC,022417,A,4820.8927,N,432.6590,W,10.00,254.02,091115,,*35
$GPRMC,022417,A,4820.8916,N,432.6648,W,10.00,254.02,091115,,*31
$GPRMC,022417,A,4820.8904,N,432.6706,W,10.00,254.02,091115,,*39
$GPRMC,022417,A,4820.8893,N,432.6764,W,10.00,254.02,091115,,*32
$GPRMC,022417,A,4820.8882,N,432.6822,W,10.00,254.02,091115,,*3F
$GPRMC,022417,A,4820.8871,N,432.6880,W,10.00,254.02,091115,,*3B
$GPRMC,022417,A,4820.8860,N,432.6939,W,10.00,254.02,091115,,*38
$GPRMC,022417,A,4820.8849,N,432.6997,W,10.00,254.02,091115,,*37
$GPRMC,022417,A,4820.8838,N,432.7055,W,10.00,254.02,091115,,*37
$GPRMC,022417,A,4820.8827,N,432.7113,W,10.00,254.02,091115,,*3A
$GPRMC,022417,A,4820.8815,N,432.7171,W,10.00,254.02,091115,,*3F
$GPRMC,022417,A,4820.8804,N,432.7229,W,10.00,254.02,091115,,*31
$GPRMC,022417,A,4820.8793,N,432.7287,W,10.00,254.02,091115,,*34
$GPRMC,022417,A,4820.8782,N,432.7346,W,10.00,254.02,091115,,*38
$GPRMC,022417,A,4820.8771,N,432.7404,W,10.00,254.02,091115,,*35
$GPRMC,022417,A,4820.8760,N,432.7462,W,10.00,254.02,091115,,*35
$GPRMC,022417,A,4820.8749,N,432.7520,W,10.00,254.02,091115,,*39
$GPRMC,022417,A,4820.8738,N,432.7578,W,10.00,254.02,091115,,*32
$GPRMC,022417,A,4820.8726,N,432.7636,W,10.00,254.02,091115,,*34
$GPRMC,022417,A,4820.8715,N,432.7694,W,10.00,254.02,091115,,*3C
$GPRMC,022417,A,4820.8704,N,432.7753,W,10.00,254.02,091115,,*36
$GPRMC,022417,A,4820.8693,N,432.7811,W,10.00,254.02,091115,,*30
$GPRMC,022417,A,4820.8682,N,432.7869,W,10.00,254.02,091115,,*3F
$GPRMC,022417,A,4820.8671,N,432.7927,W,10.00,254.02,091115,,*38
$GPRMC,022417,A,4820.8660,N,432.7985,W,10.00,254.02,091115,,*30
$GPRMC,022417,A,4820.8649,N,432.8043,W,10.00,254.02,091115,,*37
$GPRMC,022417,A,4820.8637,N,432.8101,W,10.00,254.02,091115,,*39
$GPRMC,022417,A,4820.8626,N,432.8160,W,10.00,254.02,091115,,*3E
$GPRMC,022417,A,4820.8615,N,432.8218,W,10.00,254.02,091115,,*32
$GPRMC,022417,A,4820.8604,N,432.8276,W,10.00,254.02,091115,,*3A
$GPRMC,022417,A,4820.8593,N,432.8334,W,10.00,254.02,091115,,*30
$GPRMC,022417,A,4820.8582,N,432.8392,W,10.00,254.02,091115,,*3C
$GPRMC,022417,A,4820.8571,N,432.8450,W,10.00,254.02,091115,,*39
$GPRMC,022417,A,4820.8559,N,432.8508,W,10.00,254.02,091115,,*3F
$GPRMC,022417,A,4820.8548,N,432.8567,W,10.00,254.02,091115,,*36
$GPRMC,022417,A,4820.8537,N,432.8625,W,10.00,254.02,091115,,*3B
$GPRMC,022417,A,4820.8526,N,432.8683,W,10.00,254.02,091115,,*37
$GPRMC,022417,A,4820.8515,N,432.8741,W,10.00,254.02,091115,,*38
$GPRMC,022417,A,4820.8504,N,432.8799,W,10.00,254.02,091115,,*3D
$GPRMC,022417,A,4820.8493,N,432.8857,W,10.00,254.02,091115,,*3F
$GPRMC,022417,A,4820.8482,N,432.8915,W,10.00,254.02,091115,,*38
$GPRMC,022417,A,4820.8470,N,432.8974,W,10.00,254.02,091115,,*32
$GPRMC,022417,A,4820.8459,N,432.9032,W,10.00,254.02,091115,,*33
$GPRMC,022417,A,4820.8448,N,432.9090,W,10.00,254.02,091115,,*3B
$GPRMC,022417,A,4820.8437,N,432.9148,W,10.00,254.02,091115,,*37
$GPRMC,022417,A,4820.8426,N,432.9206,W,10.00,254.02,091115,,*3E
$GPRMC,022417,A,4820.8415,N,432.9264,W,10.00,254.02,091115,,*3A
$GPRMC,022417,A,4820.8404,N,432.9322,W,10.00,254.02,091115,,*39
$GPRMC,022417,A,4820.8393,N,432.9381,W,10.00,254.02,091115,,*39
$GPRMC,022417,A,4820.8381,N,432.9439,W,10.00,254.02,091115,,*3E
$GPRMC,022417,A,4820.8370,N,432.9497,W,10.00,254.02,091115,,*34
$GPRMC,022417,A,4820.8359,N,432.9555,W,10.00,254.02,091115,,*30
$GPRMC,022417,A,4820.8348,N,432.9613,W,10.00,254.02,091115,,*31
$GPRMC,022417,A,4820.8337,N,432.9671,W,10.00,254.02,091115,,*3D
$GPRMC,022417,A,4820.8326,N,432.9729,W,10.00,254.02,091115,,*31
$GPRMC,022417,A,4820.8315,N,432.9787,W,10.00,254.02,091115,,*35
$GPRMC,022417,A,4820.8304,N,432.9846,W,10.00,254.02,091115,,*37
$GPRMC,022417,A,4820.8292,N,432.9904,W,10.00,254.02,091115,,*3E
$GPRMC,022417,A,4820.8281,N,432.9962,W,10.00,254.02,091115,,*3C
$GPRMC,022417,A,4820.8270,N,433.0020,W,10.00,254.02,091115,,*35
$GPRMC,022417,A,4820.8259,N,433.0078,W,10.00,254.02,091115,,*33
$GPRMC,022417,A,4820.8248,N,433.0136,W,10.00,254.02,091115,,*38
$GPRMC,022417,A,4820.8237,N,433.0194,W,10.00,254.02,091115,,*38
$GPRMC,022417,A,4820.8226,N,433.0253,W,10.00,254.02,091115,,*30
$GPRMC,022417,A,4820.8214,N,433.0311,W,10.00,254.02,091115,,*36
$GPRMC,022417,A,4820.8203,N,433.0369,W,10.00,254.02,091115,,*3F
$GPRMC,022417,A,4820.8192,N,433.0427,W,10.00,254.02,091115,,*39
$GPRMC,022417,A,4820.8181,N,433.0485,W,10.00,254.02,091115,,*33
$GPRMC,022417,A,4820.8170,N,433.0543,W,10.00,254.02,091115,,*36
$GPRMC,022417,A,4820.8159,N,433.0601,W,10.00,254.02,091115,,*38
$GPRMC,022417,A,4820.8148,N,433.0660,W,10.00,254.02,091115,,*3F
$GPRMC,022417,A,4820.8137,N,433.0718,W,10.00,254.02,091115,,*39
$GPRMC,022417,A,4820.8125,N,433.0776,W,10.00,254.02,091115,,*32
$GPRMC,022417,A,4820.8114,N,433.0834,W,10.00,254.02,091115,,*39
$GPRMC,022417,A,4820.8103,N,433.0892,W,10.00,254.02,091115,,*33
$GPRMC,022417,A,4820.8092,N,433.0950,W,10.00,254.02,091115,,*35
$GPRMC,022417,A,4820.8081,N,433.1008,W,10.00,254.02,091115,,*32
$GPRMC,022417,A,4820.8070,N,433.1067,W,10.00,254.02,091115,,*35
$GPRMC,022417,A,4820.8059,N,433.1125,W,10.00,254.02,091115,,*39
$GPRMC,022417,A,4820.8047,N,433.1183,W,10.00,254.02,091115,,*3A
$GPRMC,022417,A,4820.8036,N,433.1241,W,10.00,254.02,091115,,*31
$GPRMC,022417,A,4820.8025,N,433.1299,W,10.00,254.02,091115,,*36
$GPRMC,022417,A,4820.8014,N,433.1357,W,10.00,254.02,091115,,*37
$GPRMC,022417,A,4820.8003,N,433.1415,W,10.00,254.02,091115,,*30
$GPRMC,022417,A,4820.7992,N,433.1474,W,10.00,254.02,091115,,*39
$GPRMC,022417,A,4820.7981,N,433.1532,W,10.00,254.02,091115,,*38
$GPRMC,022417,A,4820.7970,N,433.1590,W,10.00,254.02,091115,,*3E
$GPRMC,022417,A,4820.7958,N,433.1648,W,10.00,254.02,091115,,*32
$GPRMC,022417,A,4820.7947,N,433.1706,W,10.00,254.02,091115,,*37
$GPRMC,022417,A,4820.7936,N,433.1764,W,10.00,254.02,091115,,*35
$GPRMC,022417,A,4820.7925,N,433.1822,W,10.00,254.02,091115,,*3A
$GPRMC,022417,A,4820.7914,N,433.1881,W,10.00,254.02,091115,,*31
$GPRMC,022417,A,4820.7903,N,433.1939,W,10.00,254.02,091115,,*35
$GPRMC,022417,A,4820.7892,N,433.1997,W,10.00,254.02,091115,,*38
$GPRMC,022417,A,4820.7881,N,433.2055,W,10.00,254.02,091115,,*3E
$GPRMC,022417,A,4820.7869,N,433.2113,W,10.00,254.02,091115,,*3B
$GPRMC,022417,A,4820.7858,N,433.2171,W,10.00,254.02,091115,,*3D
$GPRMC,022417,A,4820.7847,N,433.2229,W,10.00,254.02,091115,,*3D
$GPRMC,022417,A,4820.7836,N,433.2287,W,10.00,254.02,091115,,*3F
$GPRMC,022417,A,4820.7825,N,433.2346,W,10.00,254.02,091115,,*31
$GPRMC,022417,A,4820.7814,N,433.2404,W,10.00,254.02,091115,,*32
$GPRMC,022417,A,4820.7803,N,433.2462,W,10.00,254.02,091115,,*34
$GPRMC,022417,A,4820.7791,N,433.2520,W,10.00,254.02,091115,,*37
$GPRMC,022417,A,4820.7780,N,433.2578,W,10.00,254.02,091115,,*3A
$GPRMC,022417,A,4820.7769,N,433.2636,W,10.00,254.02,091115,,*34
$GPRMC,022417,A,4820.7758,N,433.2694,W,10.00,254.02,091115,,*3E
$GPRMC,022417,A,4820.7747,N,433.2753,W,10.00,254.02,091115,,*3A
$GPRMC,022417,A,4820.7736,N,433.2811,W,10.00,254.02,091115,,*35
$GPRMC,022417,A,4820.7725,N,433.2869,W,10.00,254.02,091115,,*38
$GPRMC,022417,A,4820.7714,N,433.2927,W,10.00,254.02,091115,,*31
$GPRMC,022417,A,4820.7702,N,433.2985,W,10.00,254.02,091115,,*3E
$GPRMC,022417,A,4820.7691,N,433.3043,W,10.00,254.02,091115,,*37
$GPRMC,022417,A,4820.7680,N,433.3101,W,10.00,254.02,091115,,*30
$GPRMC,022417,A,4820.7669,N,433.3160,W,10.00,254.02,091115,,*30
$GPRMC,022417,A,4820.7658,N,433.3218,W,10.00,254.02,091115,,*3E
$GPRMC,022417,A,4820.7647,N,433.3276,W,10.00,254.02,091115,,*38
$GPRMC,022417,A,4820.7636,N,433.3334,W,10.00,254.02,091115,,*39
$GPRMC,022417,A,4820.7624,N,433.3392,W,10.00,254.02,091115,,*36
$GPRMC,022417,A,4820.7613,N,433.3450,W,10.00,254.02,091115,,*3B
$GPRMC,022417,A,4820.7602,N,433.3508,W,10.00,254.02,091115,,*37
$GPRMC,022417,A,4820.7591,N,433.3567,W,10.00,254.02,091115,,*37
$GPRMC,022417,A,4820.7580,N,433.3625,W,10.00,254.02,091115,,*32
$GPRMC,022417,A,4820.7569,N,433.3683,W,10.00,254.02,091115,,*39
$GPRMC,022417,A,4820.7558,N,433.3741,W,10.00,254.02,091115,,*34
$GPRMC,022417,A,4820.7547,N,433.3799,W,10.00,254.02,091115,,*3F
$GPRMC,022417,A,4820.7535,N,433.3857,W,10.00,254.02,091115,,*37
$GPRMC,022417,A,4820.7524,N,433.3915,W,10.00,254.02,091115,,*30
$GPRMC,022417,A,4820.7513,N,433.3973,W,10.00,254.02,091115,,*34
$GPRMC,022417,A,4820.7502,N,433.4032,W,10.00,254.02,091115,,*3F
$GPRMC,022417,A,4820.7491,N,433.4090,W,10.00,254.02,091115,,*3C
$GPRMC,022417,A,4820.7480,N,433.4148,W,10.00,254.02,091115,,*38
$GPRMC,022417,A,4820.7469,N,433.4206,W,10.00,254.02,091115,,*36
$GPRMC,022417,A,4820.7457,N,433.4264,W,10.00,254.02,091115,,*3F
$GPRMC,022417,A,4820.7446,N,433.4322,W,10.00,254.02,091115,,*3C
$GPRMC,022417,A,4820.7435,N,433.4380,W,10.00,254.02,091115,,*30
$GPRMC,022417,A,4820.7424,N,433.4439,W,10.00,254.02,091115,,*35
$GPRMC,022417,A,4820.7413,N,433.4497,W,10.00,254.02,091115,,*35
$GPRMC,022417,A,4820.7402,N,433.4555,W,10.00,254.02,091115,,*3A
$GPRMC,022417,A,4820.7391,N,433.4613,W,10.00,254.02,091115,,*36
$GPRMC,022417,A,4820.7380,N,433.4671,W,10.00,254.02,091115,,*32
$GPRMC,022417,A,4820.7368,N,433.4729,W,10.00,254.02,091115,,*38
$GPRMC,022417,A,4820.7357,N,433.4787,W,10.00,254.02,091115,,*30
$GPRMC,022417,A,4820.7346,N,433.4846,W,10.00,254.02,091115,,*32
$GPRMC,022417,A,4820.7335,N,433.4904,W,10.00,254.02,091115,,*31
$GPRMC,022417,A,4820.7324,N,433.4962,W,10.00,254.02,091115,,*31
$GPRMC,022417,A,4820.7313,N,433.5020,W,10.00,254.02,091115,,*3B
$GPRMC,022417,A,4820.7302,N,433.5078,W,10.00,254.02,091115,,*36
$GPRMC,022417,A,4820.7290,N,433.5136,W,10.00,254.02,091115,,*37
$GPRMC,022417,A,4820.7279,N,433.5194,W,10.00,254.02,091115,,*38
$GPRMC,022417,A,4820.7268,N,433.5252,W,10.00,254.02,091115,,*31
$GPRMC,022417,A,4820.7257,N,433.5311,W,10.00,254.02,091115,,*3B
$GPRMC,022417,A,4820.7246,N,433.5369,W,10.00,254.02,091115,,*34
$GPRMC,022417,A,4820.7235,N,433.5427,W,10.00,254.02,091115,,*3D
$GPRMC,022417,A,4820.7224,N,433.5485,W,10.00,254.02,091115,,*35
$GPRMC,022417,A,4820.7213,N,433.5543,W,10.00,254.02,091115,,*3A
$GPRMC,022417,A,4820.7201,N,433.5601,W,10.00,254.02,091115,,*3C
$GPRMC,022417,A,4820.7190,N,433.5659,W,10.00,254.02,091115,,*3A
$GPRMC,022417,A,4820.7179,N,433.5718,W,10.00,254.02,091115,,*39
$GPRMC,022417,A,4820.7168,N,433.5776,W,10.00,254.02,091115,,*31
$GPRMC,022417,A,4820.7157,N,433.5834,W,10.00,254.02,091115,,*34
$GPRMC,022417,A,4820.7146,N,433.5892,W,10.00,254.02,091115,,*38
$GPRMC,022417,A,4820.7135,N,433.5950,W,10.00,254.02,091115,,*33
$GPRMC,022417,A,4820.7123,N,433.6008,W,10.00,254.02,091115,,*33
$GPRMC,022417,A,4820.7112,N,433.6066,W,10.00,254.02,091115,,*39
$GPRMC,022417,A,4820.7101,N,433.6125,W,10.00,254.02,091115,,*3D
$GPRMC,022417,A,4820.7090,N,433.6183,W,10.00,254.02,091115,,*38
$GPRMC,022417,A,4820.7079,N,433.6241,W,10.00,254.02,091115,,*32
$GPRMC,022417,A,4820.7068,N,433.6299,W,10.00,254.02,091115,,*37
$GPRMC,022417,A,4820.7057,N,433.6357,W,10.00,254.02,091115,,*38
$GPRMC,022417,A,4820.7045,N,433.6415,W,10.00,254.02,091115,,*3A
$GPRMC,022417,A,4820.7034,N,433.6473,W,10.00,254.02,091115,,*3C
$GPRMC,022417,A,4820.7023,N,433.6531,W,10.00,254.02,091115,,*3D
$GPRMC,022417,A,4820.7012,N,433.6590,W,10.00,254.02,091115,,*34
$GPRMC,022417,A,4820.7001,N,433.6648,W,10.00,254.02,091115,,*30
$GPRMC,022417,A,4820.6990,N,433.6706,W,10.00,254.02,091115,,*3B
$GPRMC,022417,A,4820.6979,N,433.6764,W,10.00,254.02,091115,,*38
$GPRMC,022417,A,4820.6968,N,433.6822,W,10.00,254.02,091115,,*35
$GPRMC,022417,A,4820.6956,N,433.6880,W,10.00,254.02,091115,,*30
$GPRMC,022417,A,4820.6945,N,433.6938,W,10.00,254.02,091115,,*30
$GPRMC,022417,A,4820.6934,N,433.6997,W,10.00,254.02,091115,,*33
$GPRMC,022417,A,4820.6923,N,433.7055,W,10.00,254.02,091115,,*33
$GPRMC,022417,A,4820.6912,N,433.7113,W,10.00,254.02,091115,,*32
$GPRMC,022417,A,4820.6901,N,433.7171,W,10.00,254.02,091115,,*34
$GPRMC,022417,A,4820.6890,N,433.7229,W,10.00,254.02,091115,,*33
$GPRMC,022417,A,4820.6878,N,433.7287,W,10.00,254.02,091115,,*31
$GPRMC,022417,A,4820.6867,N,433.7345,W,10.00,254.02,091115,,*30
$GPRMC,022417,A,4820.6856,N,433.7403,W,10.00,254.02,091115,,*37
$GPRMC,022417,A,4820.6845,N,433.7462,W,10.00,254.02,091115,,*32
$GPRMC,022417,A,4820.6834,N,433.7520,W,10.00,254.02,091115,,*33
$GPRMC,022417,A,4820.6823,N,433.7578,W,10.00,254.02,091115,,*38
$GPRMC,022417,A,4820.6812,N,433.7636,W,10.00,254.02,091115,,*33
$GPRMC,022417,A,4820.6800,N,433.7694,W,10.00,254.02,091115,,*38
$GPRMC,022417,A,4820.6789,N,433.7752,W,10.00,254.02,091115,,*3D
$GPRMC,022417,A,4820.6778,N,433.7810,W,10.00,254.02,091115,,*3A
$GPRMC,022417,A,4820.6767,N,433.7869,W,10.00,254.02,091115,,*3A
$GPRMC,022417,A,4820.6756,N,433.7927,W,10.00,254.02,091115,,*33
$GPRMC,022417,A,4820.6745,N,433.7985,W,10.00,254.02,091115,,*39
$GPRMC,022417,A,4820.6734,N,433.8043,W,10.00,254.02,091115,,*33
$GPRMC,022417,A,4820.6723,N,433.8101,W,10.00,254.02,091115,,*32
$GPRMC,022417,A,4820.6711,N,433.8159,W,10.00,254.02,091115,,*3E
$GPRMC,022417,A,4820.6700,N,433.8217,W,10.00,254.02,091115,,*37
$GPRMC,022417,A,4820.6689,N,433.8276,W,10.00,254.02,091115,,*30
$GPRMC,022417,A,4820.6678,N,433.8334,W,10.00,254.02,091115,,*39
$GPRMC,022417,A,4820.6667,N,433.8392,W,10.00,254.02,091115,,*3B
$GPRMC,022417,A,4820.6656,N,433.8450,W,10.00,254.02,091115,,*30
$GPRMC,022417,A,4820.6645,N,433.8508,W,10.00,254.02,091115,,*3E
$GPRMC,022417,A,4820.6633,N,433.8566,W,10.00,254.02,091115,,*37
$GPRMC,022417,A,4820.6622,N,433.8624,W,10.00,254.02,091115,,*32
$GPRMC,022417,A,4820.6611,N,433.8682,W,10.00,254.02,091115,,*3E
$GPRMC,022417,A,4820.6600,N,433.8741,W,10.00,254.02,091115,,*30
$GPRMC,022417,A,4820.6589,N,433.8799,W,10.00,254.02,091115,,*37
$GPRMC,022417,A,4820.6578,N,433.8857,W,10.00,254.02,091115,,*34
$GPRMC,022417,A,4820.6567,N,433.8915,W,10.00,254.02,091115,,*3D
$GPRMC,022417,A,4820.6555,N,433.8973,W,10.00,254.02,091115,,*3C
$GPRMC,022417,A,4820.6544,N,433.9031,W,10.00,254.02,091115,,*32
$GPRMC,022417,A,4820.6533,N,433.9089,W,10.00,254.02,091115,,*31
$GPRMC,022417,A,4820.6522,N,433.9148,W,10.00,254.02,091115,,*3D
$GPRMC,022417,A,4820.6511,N,433.9206,W,10.00,254.02,091115,,*34
$GPRMC,022417,A,4820.6500,N,433.9264,W,10.00,254.02,091115,,*30
$GPRMC,022417,A,4820.6489,N,433.9322,W,10.00,254.02,091115,,*33
$GPRMC,022417,A,4820.6478,N,433.9380,W,10.00,254.02,091115,,*35
$GPRMC,022417,A,4820.6466,N,433.9438,W,10.00,254.02,091115,,*3E
$GPRMC,022417,A,4820.6455,N,433.9496,W,10.00,254.02,091115,,*3A
$GPRMC,022417,A,4820.6444,N,433.9554,W,10.00,254.02,091115,,*35
$GPRMC,022417,A,4820.6433,N,433.9613,W,10.00,254.02,091115,,*35
$GPRMC,022417,A,4820.6422,N,433.9671,W,10.00,254.02,091115,,*31
$GPRMC,022417,A,4820.6411,N,433.9729,W,10.00,254.02,091115,,*3D
$GPRMC,022417,A,4820.6400,N,433.9787,W,10.00,254.02,091115,,*39
$GPRMC,022417,A,4820.6388,N,433.9845,W,10.00,254.02,091115,,*3F
$GPRMC,022417,A,4820.6377,N,433.9903,W,10.00,254.02,091115,,*3C
$GPRMC,022417,A,4820.6366,N,433.9961,W,10.00,254.02,091115,,*38
$GPRMC,022417,A,4820.6355,N,434.0020,W,10.00,254.02,091115,,*3A
$GPRMC,022417,A,4820.6344,N,434.0078,W,10.00,254.02,091115,,*37
$GPRMC,022417,A,4820.6333,N,434.0136,W,10.00,254.02,091115,,*3C
$GPRMC,022417,A,4820.6322,N,434.0194,W,10.00,254.02,091115,,*34
$GPRMC,022417,A,4820.6310,N,434.0252,W,10.00,254.02,091115,,*3C
$GPRMC,022417,A,4820.6299,N,434.0310,W,10.00,254.02,091115,,*3B
$GPRMC,022417,A,4820.6288,N,434.0368,W,10.00,254.02,091115,,*34
$GPRMC,022417,A,4820.6277,N,434.0426,W,10.00,254.02,091115,,*39
$GPRMC,022417,A,4820.6266,N,434.0485,W,10.00,254.02,091115,,*30
$GPRMC,022417,A,4820.6255,N,434.0543,W,10.00,254.02,091115,,*3B
$GPRMC,022417,A,4820.6244,N,434.0601,W,10.00,254.02,091115,,*3E
$GPRMC,022417,A,4820.6232,N,434.0659,W,10.00,254.02,091115,,*32
$GPRMC,022417,A,4820.6221,N,434.0717,W,10.00,254.02,091115,,*3B
$GPRMC,022417,A,4820.6210,N,434.0775,W,10.00,254.02,091115,,*3D
$GPRMC,022417,A,4820.6199,N,434.0833,W,10.00,254.02,091115,,*32
$GPRMC,022417,A,4820.6188,N,434.0892,W,10.00,254.02,091115,,*39
$GPRMC,022417,A,4820.6177,N,434.0950,W,10.00,254.02,091115,,*36
$GPRMC,022417,A,4820.6166,N,434.1008,W,10.00,254.02,091115,,*33
$GPRMC,022417,A,4820.6154,N,434.1066,W,10.00,254.02,091115,,*3A
$GPRMC,022417,A,4820.6143,N,434.1124,W,10.00,254.02,091115,,*3B
$GPRMC,022417,A,4820.6132,N,434.1182,W,10.00,254.02,091115,,*31
$GPRMC,022417,A,4820.6121,N,434.1240,W,10.00,254.02,091115,,*3E
$GPRMC,022417,A,4820.6110,N,434.1298,W,10.00,254.02,091115,,*39
$GPRMC,022417,A,4820.6099,N,434.1357,W,10.00,254.02,091115,,*3B
$GPRMC,022417,A,4820.6088,N,434.1415,W,10.00,254.02,091115,,*3A
$GPRMC,022417,A,4820.6077,N,434.1473,W,10.00,254.02,091115,,*3A
$GPRMC,022417,A,4820.6065,N,434.1531,W,10.00,254.02,091115,,*3E
$GPRMC,022417,A,4820.6054,N,434.1589,W,10.00,254.02,091115,,*3F
$GPRMC,022417,A,4820.6043,N,434.1647,W,10.00,254.02,091115,,*38
$GPRMC,022417,A,4820.6032,N,434.1705,W,10.00,254.02,091115,,*39
$GPRMC,022417,A,4820.6021,N,434.1763,W,10.00,254.02,091115,,*3B
$GPRMC,022417,A,4820.6010,N,434.1822,W,10.00,254.02,091115,,*33
$GPRMC,022417,A,4820.5999,N,434.1880,W,10.00,254.02,091115,,*30
$GPRMC,022417,A,4820.5987,N,434.1938,W,10.00,254.02,091115,,*3D
$GPRMC,022417,A,4820.5976,N,434.1996,W,10.00,254.02,091115,,*37
$GPRMC,022417,A,4820.5965,N,434.2054,W,10.00,254.02,091115,,*31
$GPRMC,022417,A,4820.5954,N,434.2112,W,10.00,254.02,091115,,*30
$GPRMC,022417,A,4820.5943,N,434.2170,W,10.00,254.02,091115,,*32
$GPRMC,022417,A,4820.5932,N,434.2229,W,10.00,254.02,091115,,*3B
$GPRMC,022417,A,4820.5921,N,434.2287,W,10.00,254.02,091115,,*3D
$GPRMC,022417,A,4820.5909,N,434.2345,W,10.00,254.02,091115,,*38
$GPRMC,022417,A,4820.5898,N,434.2403,W,10.00,254.02,091115,,*34
$GPRMC,022417,A,4820.5887,N,434.2461,W,10.00,254.02,091115,,*3E
$GPRMC,022417,A,4820.5876,N,434.2519,W,10.00,254.02,091115,,*3E
$GPRMC,022417,A,4820.5865,N,434.2577,W,10.00,254.02,091115,,*34
$GPRMC,022417,A,4820.5854,N,434.2635,W,10.00,254.02,091115,,*33
$GPRMC,022417,A,4820.5843,N,434.2694,W,10.00,254.02,091115,,*3E
$GPRMC,022417,A,4820.5831,N,434.2752,W,10.00,254.02,091115,,*30
$GPRMC,022417,A,4820.5820,N,434.2810,W,10.00,254.02,091115,,*39
$GPRMC,022417,A,4820.5809,N,434.2868,W,10.00,254.02,091115,,*3D
$GPRMC,022417,A,4820.5798,N,434.2926,W,10.00,254.02,091115,,*31
$GPRMC,022417,A,4820.5787,N,434.2984,W,10.00,254.02,091115,,*37
$GPRMC,022417,A,4820.5776,N,434.3042,W,10.00,254.02,091115,,*3B
$GPRMC,022417,A,4820.5765,N,434.3101,W,10.00,254.02,091115,,*3F
$GPRMC,022417,A,4820.5753,N,434.3159,W,10.00,254.02,091115,,*37
$GPRMC,022417,A,4820.5742,N,434.3217,W,10.00,254.02,091115,,*3E
$GPRMC,022417,A,4820.5731,N,434.3275,W,10.00,254.02,091115,,*3E
$GPRMC,022417,A,4820.5720,N,434.3333,W,10.00,254.02,091115,,*3D
$GPRMC,022417,A,4820.5709,N,434.3391,W,10.00,254.02,091115,,*3E
$GPRMC,022417,A,4820.5698,N,434.3449,W,10.00,254.02,091115,,*35
$GPRMC,022417,A,4820.5687,N,434.3507,W,10.00,254.02,091115,,*30
$GPRMC,022417,A,4820.5675,N,434.3566,W,10.00,254.02,091115,,*3A
$GPRMC,022417,A,4820.5664,N,434.3624,W,10.00,254.02,091115,,*3F
$GPRMC,022417,A,4820.5653,N,434.3682,W,10.00,254.02,091115,,*37
$GPRMC,022417,A,4820.5642,N,434.3740,W,10.00,254.02,091115,,*38
$GPRMC,022417,A,4820.5631,N,434.3798,W,10.00,254.02,091115,,*39
$GPRMC,022417,A,4820.5620,N,434.3856,W,10.00,254.02,091115,,*34
$GPRMC,022417,A,4820.5609,N,434.3914,W,10.00,254.02,091115,,*38
$GPRMC,022417,A,4820.5597,N,434.3972,W,10.00,254.02,091115,,*3C
$GPRMC,022417,A,4820.5586,N,434.4031,W,10.00,254.02,091115,,*35
$GPRMC,022417,A,4820.5575,N,434.4089,W,10.00,254.02,091115,,*3A
$GPRMC,022417,A,4820.5564,N,434.4147,W,10.00,254.02,091115,,*39
$GPRMC,022417,A,4820.5553,N,434.4205,W,10.00,254.02,091115,,*38
$GPRMC,022417,A,4820.5542,N,434.4263,W,10.00,254.02,091115,,*38
$GPRMC,022417,A,4820.5531,N,434.4321,W,10.00,254.02,091115,,*3B
$GPRMC,022417,A,4820.5519,N,434.4379,W,10.00,254.02,091115,,*3C
$GPRMC,022417,A,4820.5508,N,434.4437,W,10.00,254.02,091115,,*31
$GPRMC,022417,A,4820.5497,N,434.4496,W,10.00,254.02,091115,,*3D
$GPRMC,022417,A,4820.5486,N,434.4554,W,10.00,254.02,091115,,*32
$GPRMC,022417,A,4820.5475,N,434.4612,W,10.00,254.02,091115,,*3F
$GPRMC,022417,A,4820.5464,N,434.4670,W,10.00,254.02,091115,,*3B
$GPRMC,022417,A,4820.5453,N,434.4728,W,10.00,254.02,091115,,*33
$GPRMC,022417,A,4820.5441,N,434.4786,W,10.00,254.02,091115,,*34
$GPRMC,022417,A,4820.5430,N,434.4844,W,10.00,254.02,091115,,*33
$GPRMC,022417,A,4820.5419,N,434.4903,W,10.00,254.02,091115,,*3A
$GPRMC,022417,A,4820.5408,N,434.4961,W,10.00,254.02,091115,,*3E
$GPRMC,022417,A,4820.5397,N,434.5019,W,10.00,254.02,091115,,*38
$GPRMC,022417,A,4820.5386,N,434.5077,W,10.00,254.02,091115,,*30
$GPRMC,022417,A,4820.5375,N,434.5135,W,10.00,254.02,091115,,*3B
$GPRMC,022417,A,4820.5363,N,434.5193,W,10.00,254.02,091115,,*30
$GPRMC,022417,A,4820.5352,N,434.5251,W,10.00,254.02,091115,,*3F
$GPRMC,022417,A,4820.5341,N,434.5309,W,10.00,254.02,091115,,*31
$GPRMC,022417,A,4820.5330,N,434.5368,W,10.00,254.02,091115,,*30
$GPRMC,022417,A,4820.5319,N,434.5426,W,10.00,254.02,091115,,*36
$GPRMC,022417,A,4820.5308,N,434.5484,W,10.00,254.02,091115,,*3E
$GPRMC,022417,A,4820.5297,N,434.5542,W,10.00,254.02,091115,,*32
$GPRMC,022417,A,4820.5285,N,434.5600,W,10.00,254.02,091115,,*34
$GPRMC,022417,A,4820.5274,N,434.5658,W,10.00,254.02,091115,,*37
$GPRMC,022417,A,4820.5263,N,434.5716,W,10.00,254.02,091115,,*3A
$GPRMC,022417,A,4820.5252,N,434.5774,W,10.00,254.02,091115,,*3C
$GPRMC,022417,A,4820.5241,N,434.5833,W,10.00,254.02,091115,,*32
$GPRMC,022417,A,4820.5230,N,434.5891,W,10.00,254.02,091115,,*3C
$GPRMC,022417,A,4820.5219,N,434.5949,W,10.00,254.02,091115,,*33
$GPRMC,022417,A,4820.5207,N,434.6007,W,10.00,254.02,091115,,*3C
$GPRMC,022417,A,4820.5196,N,434.6065,W,10.00,254.02,091115,,*33
$GPRMC,022417,A,4820.5185,N,434.6123,W,10.00,254.02,091115,,*32
$GPRMC,022417,A,4820.5174,N,434.6181,W,10.00,254.02,091115,,*34
$GPRMC,022417,A,4820.5163,N,434.6239,W,10.00,254.02,091115,,*32
$GPRMC,022417,A,4820.5159,N,434.6260,W,10.00,201.02,091115,,*37
$GPRMC,022417,A,4820.4966,N,434.6371,W,10.00,201.02,091115,,*33
$GPRMC,022417,A,4820.4773,N,434.6482,W,10.00,201.02,091115,,*32
$GPRMC,022417,A,4820.4580,N,434.6594,W,10.00,201.02,091115,,*3A
$GPRMC,022417,A,4820.4387,N,434.6705,W,10.00,201.02,091115,,*31
$GPRMC,022417,A,4820.4194,N,434.6816,W,10.00,201.02,091115,,*3C
$GPRMC,022417,A,4820.4001,N,434.6927,W,10.00,201.02,091115,,*32
$GPRMC,022417,A,4820.3808,N,434.7039,W,10.00,201.02,091115,,*33
$GPRMC,022417,A,4820.3615,N,434.7150,W,10.00,201.02,091115,,*3F
$GPRMC,022417,A,4820.3422,N,434.7261,W,10.00,201.02,091115,,*38
$GPRMC,022417,A,4820.3229,N,434.7372,W,10.00,201.02,091115,,*36
$GPRMC,022417,A,4820.3036,N,434.7484,W,10.00,201.02,091115,,*34
$GPRMC,022417,A,4820.2843,N,434.7595,W,10.00,201.02,091115,,*3E
$GPRMC,022417,A,4820.2650,N,434.7706,W,10.00,201.02,091115,,*3A
$GPRMC,022417,A,4820.2457,N,434.7818,W,10.00,201.02,091115,,*3F
$GPRMC,022417,A,4820.2264,N,434.7929,W,10.00,201.02,091115,,*3A
$GPRMC,022417,A,4820.2071,N,434.8040,W,10.00,201.02,091115,,*35
$GPRMC,022417,A,4820.1878,N,434.8151,W,10.00,201.02,091115,,*36
$GPRMC,022417,A,4820.1685,N,434.8263,W,10.00,201.02,091115,,*38
$GPRMC,022417,A,4820.1491,N,434.8374,W,10.00,201.02,091115,,*38
$GPRMC,022417,A,4820.1298,N,434.8485,W,10.00,201.02,091115,,*3E
$GPRMC,022417,A,4820.1105,N,434.8596,W,10.00,201.02,091115,,*3A
$GPRMC,022417,A,4820.0912,N,434.8708,W,10.00,201.02,091115,,*30
$GPRMC,022417,A,4820.0719,N,434.8819,W,10.00,201.02,091115,,*3A
$GPRMC,022417,A,4820.0526,N,434.8930,W,10.00,201.02,091115,,*3E
$GPRMC,022417,A,4820.0333,N,434.9041,W,10.00,201.02,091115,,*32
$GPRMC,022417,A,4820.0140,N,434.9153,W,10.00,201.02,091115,,*36
$GPRMC,022417,A,4819.9947,N,434.9264,W,10.00,201.02,091115,,*3D
