$GPRMC,083434,A,4819.5032,N,435.2258,W,10.00,231.69,281015,,*39
$GPRMC,083434,A,4819.4970,N,435.2376,W,10.00,231.69,281015,,*3A
$GPRMC,083434,A,4819.4907,N,435.2495,W,10.00,231.69,281015,,*30
$GPRMC,083434,A,4819.4845,N,435.2613,W,10.00,231.69,281015,,*3B
$GPRMC,083434,A,4819.4783,N,435.2732,W,10.00,231.69,281015,,*3C
$GPRMC,083434,A,4819.4720,N,435.2850,W,10.00,231.69,281015,,*3E
$GPRMC,083434,A,4819.4658,N,435.2969,W,10.00,231.69,281015,,*3B
$GPRMC,083434,A,4819.4595,N,435.3087,W,10.00,231.69,281015,,*31
$GPRMC,083434,A,4819.4533,N,435.3206,W,10.00,231.69,281015,,*36
$GPRMC,083434,A,4819.4470,N,435.3324,W,10.00,231.69,281015,,*31
$GPRMC,083434,A,4819.4408,N,435.3443,W,10.00,231.69,281015,,*38
$GPRMC,083434,A,4819.4345,N,435.3561,W,10.00,231.69,281015,,*37
$GPRMC,083434,A,4819.4283,N,435.3680,W,10.00,231.69,281015,,*30
$GPRMC,083434,A,4819.4221,N,435.3799,W,10.00,231.69,281015,,*31
$GPRMC,083434,A,4819.4158,N,435.3917,W,10.00,231.69,281015,,*34
$GPRMC,083434,A,4819.4096,N,435.4036,W,10.00,231.69,281015,,*3A
$GPRMC,083434,A,4819.4033,N,435.4154,W,10.00,231.69,281015,,*30
$GPRMC,083434,A,4819.3971,N,435.4273,W,10.00,231.69,281015,,*3E
$GPRMC,083434,A,4819.3908,N,435.4391,W,10.00,231.69,281015,,*3D
$GPRMC,083434,A,4819.3846,N,435.4510,W,10.00,231.69,281015,,*39
$GPRMC,083434,A,4819.3783,N,435.4628,W,10.00,231.69,281015,,*37
$GPRMC,083434,A,4819.3721,N,435.4747,W,10.00,231.69,281015,,*37
$GPRMC,083434,A,4819.3658,N,435.4865,W,10.00,231.69,281015,,*37
$GPRMC,083434,A,4819.3596,N,435.4984,W,10.00,231.69,281015,,*38
$GPRMC,083434,A,4819.3534,N,435.5102,W,10.00,231.69,281015,,*37
$GPRMC,083434,A,4819.3471,N,435.5221,W,10.00,231.69,281015,,*35
$GPRMC,083434,A,4819.3409,N,435.5339,W,10.00,231.69,281015,,*32
$GPRMC,083434,A,4819.3346,N,435.5458,W,10.00,231.69,281015,,*3E
$GPRMC,083434,A,4819.3284,N,435.5576,W,10.00,231.69,281015,,*3C
$GPRMC,083434,A,4819.3221,N,435.5695,W,10.00,231.69,281015,,*3D
$GPRMC,083434,A,4819.3159,N,435.5813,W,10.00,231.69,281015,,*31
$GPRMC,083434,A,4819.3096,N,435.5932,W,10.00,231.69,281015,,*31
$GPRMC,083434,A,4819.3034,N,435.6050,W,10.00,231.69,281015,,*37
$GPRMC,083434,A,4819.2971,N,435.6169,W,10.00,231.69,281015,,*35
$GPRMC,083434,A,4819.2909,N,435.6287,W,10.00,231.69,281015,,*39
$GPRMC,083434,A,4819.2847,N,435.6406,W,10.00,231.69,281015,,*3D
$GPRMC,083434,A,4819.2784,N,435.6524,W,10.00,231.69,281015,,*3C
$GPRMC,083434,A,4819.2722,N,435.6643,W,10.00,231.69,281015,,*32
$GPRMC,083434,A,4819.2659,N,435.6761,W,10.00,231.69,281015,,*3E
$GPRMC,083434,A,4819.2597,N,435.6880,W,10.00,231.69,281015,,*3F
$GPRMC,083434,A,4819.2534,N,435.6998,W,10.00,231.69,281015,,*3E
$GPRMC,083434,A,4819.2472,N,435.7117,W,10.00,231.69,281015,,*33
$GPRMC,083434,A,4819.2409,N,435.7235,W,10.00,231.69,281015,,*3C
$GPRMC,083434,A,4819.2347,N,435.7354,W,10.00,231.69,281015,,*37
$GPRMC,083434,A,4819.2284,N,435.7472,W,10.00,231.69,281015,,*3A
$GPRMC,083434,A,4819.2222,N,435.7591,W,10.00,231.69,281015,,*3A
$GPRMC,083434,A,4819.2160,N,435.7709,W,10.00,231.69,281015,,*3C
$GPRMC,083434,A,4819.2097,N,435.7828,W,10.00,231.69,281015,,*39
$GPRMC,083434,A,4819.2035,N,435.7946,W,10.00,231.69,281015,,*38
$GPRMC,083434,A,4819.1972,N,435.8065,W,10.00,231.69,281015,,*36
$GPRMC,083434,A,4819.1910,N,435.8183,W,10.00,231.69,281015,,*3B
$GPRMC,083434,A,4819.1847,N,435.8302,W,10.00,231.69,281015,,*33
$GPRMC,083434,A,4819.1785,N,435.8420,W,10.00,231.69,281015,,*35
$GPRMC,083434,A,4819.1722,N,435.8539,W,10.00,231.69,281015,,*31
$GPRMC,083434,A,4819.1660,N,435.8657,W,10.00,231.69,281015,,*3D
$GPRMC,083434,A,4819.1597,N,435.8776,W,10.00,231.69,281015,,*34
$GPRMC,083434,A,4819.1535,N,435.8894,W,10.00,231.69,281015,,*3F
$GPRMC,083434,A,4819.1473,N,435.9013,W,10.00,231.69,281015,,*3A
$GPRMC,083434,A,4819.1410,N,435.9131,W,10.00,231.69,281015,,*3E
$GPRMC,083434,A,4819.1348,N,435.9250,W,10.00,231.69,281015,,*30
$GPRMC,083434,A,4819.1285,N,435.9368,W,10.00,231.69,281015,,*3A
$GPRMC,083434,A,4819.1223,N,435.9487,W,10.00,231.69,281015,,*30
$GPRMC,083434,A,4819.1160,N,435.9605,W,10.00,231.69,281015,,*3C
$GPRMC,083434,A,4819.1098,N,435.9724,W,10.00,231.69,281015,,*38
$GPRMC,083434,A,4819.1035,N,435.9842,W,10.00,231.69,281015,,*30
$GPRMC,083434,A,4819.0973,N,435.9961,W,10.00,231.69,281015,,*3A
$GPRMC,083434,A,4819.0910,N,436.0079,W,10.00,231.69,281015,,*35
$GPRMC,083434,A,4819.0848,N,436.0198,W,10.00,231.69,281015,,*37
$GPRMC,083434,A,4819.0786,N,436.0316,W,10.00,231.69,281015,,*3E
$GPRMC,083434,A,4819.0723,N,436.0435,W,10.00,231.69,281015,,*37
$GPRMC,083434,A,4819.0661,N,436.0553,W,10.00,231.69,281015,,*31
$GPRMC,083434,A,4819.0598,N,436.0672,W,10.00,231.69,281015,,*34
$GPRMC,083434,A,4819.0536,N,436.0790,W,10.00,231.69,281015,,*3D
$GPRMC,083434,A,4819.0473,N,436.0909,W,10.00,231.69,281015,,*33
$GPRMC,083434,A,4819.0411,N,436.1027,W,10.00,231.69,281015,,*33
$GPRMC,083434,A,4819.0348,N,436.1146,W,10.00,231.69,281015,,*3E
$GPRMC,083434,A,4819.0286,N,436.1264,W,10.00,231.69,281015,,*3E
$GPRMC,083434,A,4819.0223,N,436.1383,W,10.00,231.69,281015,,*39
$GPRMC,083434,A,4819.0161,N,436.1501,W,10.00,231.69,281015,,*30
$GPRMC,083434,A,4819.0098,N,436.1620,W,10.00,231.69,281015,,*37
$GPRMC,083434,A,4819.0036,N,436.1738,W,10.00,231.69,281015,,*3B
$GPRMC,083434,A,4818.9973,N,436.1857,W,10.00,231.69,281015,,*3D
$GPRMC,083434,A,4818.9911,N,436.1975,W,10.00,231.69,281015,,*38
$GPRMC,083434,A,4818.9849,N,436.2094,W,10.00,231.69,281015,,*31
$GPRMC,083434,A,4818.9786,N,436.2212,W,10.00,231.69,281015,,*31
$GPRMC,083434,A,4818.9724,N,436.2331,W,10.00,231.69,281015,,*39
$GPRMC,083434,A,4818.9661,N,436.2449,W,10.00,231.69,281015,,*31
$GPRMC,083434,A,4818.9599,N,436.2568,W,10.00,231.69,281015,,*37
$GPRMC,083434,A,4818.9536,N,436.2686,W,10.00,231.69,281015,,*31
$GPRMC,083434,A,4818.9474,N,436.2805,W,10.00,231.69,281015,,*33
$GPRMC,083434,A,4818.9411,N,436.2923,W,10.00,231.69,281015,,*35
$GPRMC,083434,A,4818.9349,N,436.3042,W,10.00,231.69,281015,,*30
$GPRMC,083434,A,4818.9286,N,436.3160,W,10.00,231.69,281015,,*33
$GPRMC,083434,A,4818.9224,N,436.3279,W,10.00,231.69,281015,,*30
$GPRMC,083434,A,4818.9161,N,436.3397,W,10.00,231.69,281015,,*33
$GPRMC,083434,A,4818.9099,N,436.3516,W,10.00,231.69,281015,,*3A
$GPRMC,083434,A,4818.9037,N,436.3634,W,10.00,231.69,281015,,*3D
$GPRMC,083434,A,4818.8974,N,436.3752,W,10.00,231.69,281015,,*33
$GPRMC,083434,A,4818.8912,N,436.3871,W,10.00,231.69,281015,,*3D
$GPRMC,083434,A,4818.8849,N,436.3989,W,10.00,231.69,281015,,*34
$GPRMC,083434,A,4818.8787,N,436.4108,W,10.00,231.69,281015,,*3F
$GPRMC,083434,A,4818.8724,N,436.4226,W,10.00,231.69,281015,,*39
$GPRMC,083434,A,4818.8662,N,436.4345,W,10.00,231.69,281015,,*3E
$GPRMC,083434,A,4818.8599,N,436.4463,W,10.00,231.69,281015,,*3A
$GPRMC,083434,A,4818.8537,N,436.4582,W,10.00,231.69,281015,,*30
$GPRMC,083434,A,4818.8474,N,436.4700,W,10.00,231.69,281015,,*3E
$GPRMC,083434,A,4818.8412,N,436.4819,W,10.00,231.69,281015,,*39
$GPRMC,083434,A,4818.8349,N,436.4937,W,10.00,231.69,281015,,*3D
$GPRMC,083434,A,4818.8287,N,436.5056,W,10.00,231.69,281015,,*31
$GPRMC,083434,A,4818.8224,N,436.5174,W,10.00,231.69,281015,,*39
$GPRMC,083434,A,4818.8162,N,436.5293,W,10.00,231.69,281015,,*32
$GPRMC,083434,A,4818.8100,N,436.5411,W,10.00,231.69,281015,,*3A
$GPRMC,083434,A,4818.8037,N,436.5530,W,10.00,231.69,281015,,*3D
$GPRMC,083434,A,4818.7975,N,436.5648,W,10.00,231.69,281015,,*31
$GPRMC,083434,A,4818.7912,N,436.5767,W,10.00,231.69,281015,,*3C
$GPRMC,083434,A,4818.7850,N,436.5885,W,10.00,231.69,281015,,*38
$GPRMC,083434,A,4818.7787,N,436.6003,W,10.00,231.69,281015,,*38
$GPRMC,083434,A,4818.7725,N,436.6122,W,10.00,231.69,281015,,*32
$GPRMC,083434,A,4818.7662,N,436.6240,W,10.00,231.69,281015,,*37
$GPRMC,083434,A,4818.7600,N,436.6359,W,10.00,231.69,281015,,*3A
$GPRMC,083434,A,4818.7537,N,436.6477,W,10.00,231.69,281015,,*36
$GPRMC,083434,A,4818.7475,N,436.6596,W,10.00,231.69,281015,,*3F
$GPRMC,083434,A,4818.7412,N,436.6714,W,10.00,231.69,281015,,*36
$GPRMC,083434,A,4818.7350,N,436.6833,W,10.00,231.69,281015,,*3D
$GPRMC,083434,A,4818.7287,N,436.6951,W,10.00,231.69,281015,,*33
$GPRMC,083434,A,4818.7225,N,436.7070,W,10.00,231.69,281015,,*30
$GPRMC,083434,A,4818.7162,N,436.7188,W,10.00,231.69,281015,,*36
$GPRMC,083434,A,4818.7100,N,436.7307,W,10.00,231.69,281015,,*37
$GPRMC,083434,A,4818.7038,N,436.7425,W,10.00,231.69,281015,,*3A
$GPRMC,083434,A,4818.6975,N,436.7544,W,10.00,231.69,281015,,*3D
$GPRMC,083434,A,4818.6913,N,436.7662,W,10.00,231.69,281015,,*3A
$GPRMC,083434,A,4818.6850,N,436.7780,W,10.00,231.69,281015,,*31
$GPRMC,083434,A,4818.6788,N,436.7899,W,10.00,231.69,281015,,*3C
$GPRMC,083434,A,4818.6725,N,436.8017,W,10.00,231.69,281015,,*3A
$GPRMC,083434,A,4818.6663,N,436.8136,W,10.00,231.69,281015,,*3B
$GPRMC,083434,A,4818.6600,N,436.8254,W,10.00,231.69,281015,,*39
$GPRMC,083434,A,4818.6538,N,436.8373,W,10.00,231.69,281015,,*35
$GPRMC,083434,A,4818.6475,N,436.8491,W,10.00,231.69,281015,,*36
$GPRMC,083434,A,4818.6413,N,436.8610,W,10.00,231.69,281015,,*3D
$GPRMC,083434,A,4818.6350,N,436.8728,W,10.00,231.69,281015,,*37
$GPRMC,083434,A,4818.6288,N,436.8847,W,10.00,231.69,281015,,*35
$GPRMC,083434,A,4818.6225,N,436.8965,W,10.00,231.69,281015,,*33
$GPRMC,083434,A,4818.6163,N,436.9084,W,10.00,231.69,281015,,*35
$GPRMC,083434,A,4818.6100,N,436.9202,W,10.00,231.69,281015,,*3C
$GPRMC,083434,A,4818.6072,N,436.9257,W,10.00,295.78,281015,,*36
$GPRMC,083434,A,4818.6109,N,436.9372,W,10.00,295.78,281015,,*3D
$GPRMC,083434,A,4818.6146,N,436.9488,W,10.00,295.78,281015,,*34
$GPRMC,083434,A,4818.6183,N,436.9604,W,10.00,295.78,281015,,*3B
$GPRMC,083434,A,4818.6221,N,436.9720,W,10.00,295.78,281015,,*37
$GPRMC,083434,A,4818.6258,N,436.9835,W,10.00,295.78,281015,,*32
$GPRMC,083434,A,4818.6295,N,436.9951,W,10.00,295.78,281015,,*30
$GPRMC,083434,A,4818.6332,N,437.0067,W,10.00,295.78,281015,,*38
$GPRMC,083434,A,4818.6370,N,437.0183,W,10.00,295.78,281015,,*35
$GPRMC,083434,A,4818.6407,N,437.0298,W,10.00,295.78,281015,,*3B
$GPRMC,083434,A,4818.6444,N,437.0414,W,10.00,295.78,281015,,*3E
$GPRMC,083434,A,4818.6482,N,437.0530,W,10.00,295.78,281015,,*33
$GPRMC,083434,A,4818.6519,N,437.0645,W,10.00,295.78,281015,,*31
$GPRMC,083434,A,4818.6556,N,437.0761,W,10.00,295.78,281015,,*3D
$GPRMC,083434,A,4818.6593,N,437.0877,W,10.00,295.78,281015,,*3C
$GPRMC,083434,A,4818.6631,N,437.0993,W,10.00,295.78,281015,,*3C
$GPRMC,083434,A,4818.6668,N,437.1108,W,10.00,295.78,281015,,*3B
$GPRMC,083434,A,4818.6705,N,437.1224,W,10.00,295.78,281015,,*3C
$GPRMC,083434,A,4818.6743,N,437.1340,W,10.00,295.78,281015,,*3D
$GPRMC,083434,A,4818.6780,N,437.1456,W,10.00,295.78,281015,,*32
$GPRMC,083434,A,4818.6817,N,437.1571,W,10.00,295.78,281015,,*37
$GPRMC,083434,A,4818.6854,N,437.1687,W,10.00,295.78,281015,,*3A
$GPRMC,083434,A,4818.6892,N,437.1803,W,10.00,295.78,281015,,*32
$GPRMC,083434,A,4818.6929,N,437.1919,W,10.00,295.78,281015,,*39
$GPRMC,083434,A,4818.6966,N,437.2034,W,10.00,295.78,281015,,*37
$GPRMC,083434,A,4818.7003,N,437.2150,W,10.00,295.78,281015,,*3F
$GPRMC,083434,A,4818.7041,N,437.2266,W,10.00,295.78,281015,,*3F
$GPRMC,083434,A,4818.7078,N,437.2382,W,10.00,295.78,281015,,*3E
$GPRMC,083434,A,4818.7115,N,437.2497,W,10.00,295.78,281015,,*37
$GPRMC,083434,A,4818.7153,N,437.2613,W,10.00,295.78,281015,,*3B
$GPRMC,083434,A,4818.7190,N,437.2729,W,10.00,295.78,281015,,*3C
$GPRMC,083434,A,4818.7227,N,437.2844,W,10.00,295.78,281015,,*37
$GPRMC,083434,A,4818.7264,N,437.2960,W,10.00,295.78,281015,,*37
$GPRMC,083434,A,4818.7302,N,437.3076,W,10.00,295.78,281015,,*39
$GPRMC,083434,A,4818.7339,N,437.3192,W,10.00,295.78,281015,,*3A
$GPRMC,083434,A,4818.7376,N,437.3307,W,10.00,295.78,281015,,*3F
$GPRMC,083434,A,4818.7414,N,437.3423,W,10.00,295.78,281015,,*3D
$GPRMC,083434,A,4818.7451,N,437.3539,W,10.00,295.78,281015,,*36
$GPRMC,083434,A,4818.7488,N,437.3655,W,10.00,295.78,281015,,*3B
$GPRMC,083434,A,4818.7525,N,437.3770,W,10.00,295.78,281015,,*3B
$GPRMC,083434,A,4818.7563,N,437.3886,W,10.00,295.78,281015,,*3F
$GPRMC,083434,A,4818.7600,N,437.4002,W,10.00,295.78,281015,,*3A
$GPRMC,083434,A,4818.7637,N,437.4118,W,10.00,295.78,281015,,*34
$GPRMC,083434,A,4818.7674,N,437.4233,W,10.00,295.78,281015,,*39
$GPRMC,083434,A,4818.7712,N,437.4349,W,10.00,295.78,281015,,*34
$GPRMC,083434,A,4818.7749,N,437.4465,W,10.00,295.78,281015,,*33
$GPRMC,083434,A,4818.7786,N,437.4581,W,10.00,295.78,281015,,*3B
$GPRMC,083434,A,4818.7823,N,437.4696,W,10.00,295.78,281015,,*3E
$GPRMC,083434,A,4818.7861,N,437.4812,W,10.00,295.78,281015,,*3A
$GPRMC,083434,A,4818.7898,N,437.4928,W,10.00,295.78,281015,,*34
$GPRMC,083434,A,4818.7935,N,437.5044,W,10.00,295.78,281015,,*30
$GPRMC,083434,A,4818.7973,N,437.5159,W,10.00,295.78,281015,,*3F
$GPRMC,083434,A,4818.8010,N,437.5275,W,10.00,295.78,281015,,*31
$GPRMC,083434,A,4818.8047,N,437.5391,W,10.00,295.78,281015,,*38
$GPRMC,083434,A,4818.8084,N,437.5507,W,10.00,295.78,281015,,*3E
$GPRMC,083434,A,4818.8122,N,437.5622,W,10.00,295.78,281015,,*37
$GPRMC,083434,A,4818.8159,N,437.5738,W,10.00,295.78,281015,,*31
$GPRMC,083434,A,4818.8196,N,437.5854,W,10.00,295.78,281015,,*37
$GPRMC,083434,A,4818.8233,N,437.5970,W,10.00,295.78,281015,,*3C
$GPRMC,083434,A,4818.8271,N,437.6085,W,10.00,295.78,281015,,*3A
$GPRMC,083434,A,4818.8308,N,437.6201,W,10.00,295.78,281015,,*3B
$GPRMC,083434,A,4818.8345,N,437.6317,W,10.00,295.78,281015,,*34
$GPRMC,083434,A,4818.8383,N,437.6433,W,10.00,295.78,281015,,*3F
$GPRMC,083434,A,4818.8420,N,437.6548,W,10.00,295.78,281015,,*3C
$GPRMC,083434,A,4818.8457,N,437.6664,W,10.00,295.78,281015,,*31
$GPRMC,083434,A,4818.8494,N,437.6780,W,10.00,295.78,281015,,*35
$GPRMC,083434,A,4818.8532,N,437.6895,W,10.00,295.78,281015,,*33
$GPRMC,083434,A,4818.8569,N,437.7011,W,10.00,295.78,281015,,*38
$GPRMC,083434,A,4818.8606,N,437.7127,W,10.00,295.78,281015,,*36
$GPRMC,083434,A,4818.8643,N,437.7243,W,10.00,295.78,281015,,*36
$GPRMC,083434,A,4818.8681,N,437.7358,W,10.00,295.78,281015,,*33
$GPRMC,083434,A,4818.8718,N,437.7474,W,10.00,295.78,281015,,*3B
$GPRMC,083434,A,4818.8755,N,437.7590,W,10.00,295.78,281015,,*39
$GPRMC,083434,A,4818.8792,N,437.7706,W,10.00,295.78,281015,,*3F
$GPRMC,083434,A,4818.8830,N,437.7821,W,10.00,295.78,281015,,*32
$GPRMC,083434,A,4818.8867,N,437.7937,W,10.00,295.78,281015,,*36
$GPRMC,083434,A,4818.8904,N,437.8053,W,10.00,295.78,281015,,*36
$GPRMC,083434,A,4818.8942,N,437.8169,W,10.00,295.78,281015,,*3C
$GPRMC,083434,A,4818.8979,N,437.8285,W,10.00,295.78,281015,,*35
$GPRMC,083434,A,4818.9016,N,437.8400,W,10.00,295.78,281015,,*3F
$GPRMC,083434,A,4818.9053,N,437.8516,W,10.00,295.78,281015,,*38
$GPRMC,083434,A,4818.9091,N,437.8632,W,10.00,295.78,281015,,*33
$GPRMC,083434,A,4818.9128,N,437.8748,W,10.00,295.78,281015,,*3C
$GPRMC,083434,A,4818.9165,N,437.8863,W,10.00,295.78,281015,,*33
$GPRMC,083434,A,4818.9202,N,437.8979,W,10.00,295.78,281015,,*3B
$GPRMC,083434,A,4818.9240,N,437.9095,W,10.00,295.78,281015,,*37
$GPRMC,083434,A,4818.9277,N,437.9211,W,10.00,295.78,281015,,*3D
$GPRMC,083434,A,4818.9314,N,437.9326,W,10.00,295.78,281015,,*3C
$GPRMC,083434,A,4818.9351,N,437.9442,W,10.00,295.78,281015,,*38
$GPRMC,083434,A,4818.9389,N,437.9558,W,10.00,295.78,281015,,*37
$GPRMC,083434,A,4818.9426,N,437.9674,W,10.00,295.78,281015,,*38
$GPRMC,083434,A,4818.9463,N,437.9789,W,10.00,295.78,281015,,*3A
$GPRMC,083434,A,4818.9500,N,437.9905,W,10.00,295.78,281015,,*34
$GPRMC,083434,A,4818.9538,N,438.0021,W,10.00,295.78,281015,,*36
$GPRMC,083434,A,4818.9575,N,438.0137,W,10.00,295.78,281015,,*39
$GPRMC,083434,A,4818.9612,N,438.0252,W,10.00,295.78,281015,,*3B
$GPRMC,083434,A,4818.9650,N,438.0368,W,10.00,295.78,281015,,*35
$GPRMC,083434,A,4818.9687,N,438.0484,W,10.00,295.78,281015,,*3A
$GPRMC,083434,A,4818.9724,N,438.0600,W,10.00,295.78,281015,,*3C
$GPRMC,083434,A,4818.9761,N,438.0715,W,10.00,295.78,281015,,*38
$GPRMC,083434,A,4818.9799,N,438.0831,W,10.00,295.78,281015,,*36
$GPRMC,083434,A,4818.9836,N,438.0947,W,10.00,295.78,281015,,*3C
$GPRMC,083434,A,4818.9873,N,438.1063,W,10.00,295.78,281015,,*33
$GPRMC,083434,A,4818.9910,N,438.1178,W,10.00,295.78,281015,,*3C
$GPRMC,083434,A,4818.9948,N,438.1294,W,10.00,295.78,281015,,*30
$GPRMC,083434,A,4818.9985,N,438.1410,W,10.00,295.78,281015,,*3B
$GPRMC,083434,A,4819.0022,N,438.1526,W,10.00,295.78,281015,,*33
$GPRMC,083434,A,4819.0059,N,438.1641,W,10.00,295.78,281015,,*3D
$GPRMC,083434,A,4819.0097,N,438.1757,W,10.00,295.78,281015,,*39
$GPRMC,083434,A,4819.0134,N,438.1873,W,10.00,295.78,281015,,*38
$GPRMC,083434,A,4819.0171,N,438.1989,W,10.00,295.78,281015,,*3D
$GPRMC,083434,A,4819.0208,N,438.2104,W,10.00,295.78,281015,,*3E
$GPRMC,083434,A,4819.0246,N,438.2220,W,10.00,295.78,281015,,*31
$GPRMC,083434,A,4819.0283,N,438.2336,W,10.00,295.78,281015,,*3E
$GPRMC,083434,A,4819.0320,N,438.2452,W,10.00,295.78,281015,,*33
$GPRMC,083434,A,4819.0357,N,438.2568,W,10.00,295.78,281015,,*3B
$GPRMC,083434,A,4819.0395,N,438.2683,W,10.00,295.78,281015,,*33
$GPRMC,083434,A,4819.0432,N,438.2799,W,10.00,295.78,281015,,*33
$GPRMC,083434,A,4819.0469,N,438.2915,W,10.00,295.78,281015,,*37
$GPRMC,083434,A,4819.0507,N,438.3031,W,10.00,295.78,281015,,*30
$GPRMC,083434,A,4819.0544,N,438.3146,W,10.00,295.78,281015,,*36
$GPRMC,083434,A,4819.0581,N,438.3262,W,10.00,295.78,281015,,*3A
$GPRMC,083434,A,4819.0618,N,438.3378,W,10.00,295.78,281015,,*33
$GPRMC,083434,A,4819.0656,N,438.3494,W,10.00,295.78,281015,,*3C
$GPRMC,083434,A,4819.0693,N,438.3609,W,10.00,295.78,281015,,*33
$GPRMC,083434,A,4819.0730,N,438.3725,W,10.00,295.78,281015,,*34
$GPRMC,083434,A,4819.0767,N,438.3841,W,10.00,295.78,281015,,*3B
$GPRMC,083434,A,4819.0805,N,438.3957,W,10.00,295.78,281015,,*36
$GPRMC,083434,A,4819.0842,N,438.4072,W,10.00,295.78,281015,,*3C
$GPRMC,083434,A,4819.0879,N,438.4188,W,10.00,295.78,281015,,*30
$GPRMC,083434,A,4819.0916,N,438.4304,W,10.00,295.78,281015,,*3E
$GPRMC,083434,A,4819.0954,N,438.4420,W,10.00,295.78,281015,,*39
$GPRMC,083434,A,4819.0991,N,438.4536,W,10.00,295.78,281015,,*36
$GPRMC,083434,A,4819.1028,N,438.4651,W,10.00,295.78,281015,,*3E
$GPRMC,083434,A,4819.1065,N,438.4767,W,10.00,295.78,281015,,*33
$GPRMC,083434,A,4819.1103,N,438.4883,W,10.00,295.78,281015,,*37
$GPRMC,083434,A,4819.1140,N,438.4999,W,10.00,295.78,281015,,*3A
$GPRMC,083434,A,4819.1177,N,438.5114,W,10.00,295.78,281015,,*32
$GPRMC,083434,A,4819.1214,N,438.5230,W,10.00,295.78,281015,,*31
$GPRMC,083434,A,4819.1252,N,438.5346,W,10.00,295.78,281015,,*33
$GPRMC,083434,A,4819.1289,N,438.5462,W,10.00,295.78,281015,,*34
$GPRMC,083434,A,4819.1326,N,438.5577,W,10.00,295.78,281015,,*35
$GPRMC,083434,A,4819.1363,N,438.5693,W,10.00,295.78,281015,,*3D
$GPRMC,083434,A,4819.1401,N,438.5809,W,10.00,295.78,281015,,*33
$GPRMC,083434,A,4819.1438,N,438.5925,W,10.00,295.78,281015,,*36
$GPRMC,083434,A,4819.1475,N,438.6041,W,10.00,295.78,281015,,*37
$GPRMC,083434,A,4819.1512,N,438.6156,W,10.00,295.78,281015,,*30
$GPRMC,083434,A,4819.1550,N,438.6272,W,10.00,295.78,281015,,*33
$GPRMC,083434,A,4819.1587,N,438.6388,W,10.00,295.78,281015,,*3D
$GPRMC,083434,A,4819.1624,N,438.6504,W,10.00,295.78,281015,,*35
$GPRMC,083434,A,4819.1661,N,438.6619,W,10.00,295.78,281015,,*3B
$GPRMC,083434,A,4819.1699,N,438.6735,W,10.00,295.78,281015,,*33
$GPRMC,083434,A,4819.1736,N,438.6851,W,10.00,295.78,281015,,*3A
$GPRMC,083434,A,4819.1773,N,438.6967,W,10.00,295.78,281015,,*3F
$GPRMC,083434,A,4819.1810,N,438.7082,W,10.00,295.78,281015,,*36
$GPRMC,083434,A,4819.1848,N,438.7198,W,10.00,295.78,281015,,*31
$GPRMC,083434,A,4819.1885,N,438.7314,W,10.00,295.78,281015,,*36
$GPRMC,083434,A,4819.1922,N,438.7430,W,10.00,295.78,281015,,*3B
$GPRMC,083434,A,4819.1959,N,438.7546,W,10.00,295.78,281015,,*37
$GPRMC,083434,A,4819.1997,N,438.7661,W,10.00,295.78,281015,,*33
$GPRMC,083434,A,4819.2034,N,438.7777,W,10.00,295.78,281015,,*36
$GPRMC,083434,A,4819.2071,N,438.7893,W,10.00,295.78,281015,,*32
$GPRMC,083434,A,4819.2108,N,438.8009,W,10.00,295.78,281015,,*39
$GPRMC,083434,A,4819.2146,N,438.8124,W,10.00,295.78,281015,,*3D
$GPRMC,083434,A,4819.2183,N,438.8240,W,10.00,295.78,281015,,*35
$GPRMC,083434,A,4819.2220,N,438.8356,W,10.00,295.78,281015,,*39
$GPRMC,083434,A,4819.2257,N,438.8472,W,10.00,295.78,281015,,*38
$GPRMC,083434,A,4819.2295,N,438.8588,W,10.00,295.78,281015,,*32
$GPRMC,083434,A,4819.2332,N,438.8703,W,10.00,295.78,281015,,*3F
$GPRMC,083434,A,4819.2369,N,438.8819,W,10.00,295.78,281015,,*35
$GPRMC,083434,A,4819.2406,N,438.8935,W,10.00,295.78,281015,,*34
$GPRMC,083434,A,4819.2444,N,438.9051,W,10.00,295.78,281015,,*38
$GPRMC,083434,A,4819.2481,N,438.9166,W,10.00,295.78,281015,,*34
$GPRMC,083434,A,4819.2518,N,438.9282,W,10.00,295.78,281015,,*3C
$GPRMC,083434,A,4819.2555,N,438.9398,W,10.00,295.78,281015,,*3F
$GPRMC,083434,A,4819.2593,N,438.9514,W,10.00,295.78,281015,,*37
$GPRMC,083434,A,4819.2630,N,438.9630,W,10.00,295.78,281015,,*38
$GPRMC,083434,A,4819.2667,N,438.9745,W,10.00,295.78,281015,,*39
$GPRMC,083434,A,4819.2704,N,438.9861,W,10.00,295.78,281015,,*34
$GPRMC,083434,A,4819.2742,N,438.9977,W,10.00,295.78,281015,,*30
$GPRMC,083434,A,4819.2779,N,439.0093,W,10.00,295.78,281015,,*33
$GPRMC,083434,A,4819.2816,N,439.0208,W,10.00,295.78,281015,,*35
$GPRMC,083434,A,4819.2853,N,439.0324,W,10.00,295.78,281015,,*3B
$GPRMC,083434,A,4819.2891,N,439.0440,W,10.00,295.78,281015,,*30
$GPRMC,083434,A,4819.2928,N,439.0556,W,10.00,295.78,281015,,*35
$GPRMC,083434,A,4819.2965,N,439.0672,W,10.00,295.78,281015,,*39
$GPRMC,083434,A,4819.3002,N,439.0787,W,10.00,295.78,281015,,*3B
$GPRMC,083434,A,4819.3040,N,439.0903,W,10.00,295.78,281015,,*3F
$GPRMC,083434,A,4819.3077,N,439.1019,W,10.00,295.78,281015,,*38
$GPRMC,083434,A,4819.3114,N,439.1135,W,10.00,295.78,281015,,*33
$GPRMC,083434,A,4819.3151,N,439.1251,W,10.00,295.78,281015,,*33
$GPRMC,083434,A,4819.3189,N,439.1366,W,10.00,295.78,281015,,*33
$GPRMC,083434,A,4819.3226,N,439.1482,W,10.00,295.78,281015,,*38
$GPRMC,083434,A,4819.3263,N,439.1598,W,10.00,295.78,281015,,*33
$GPRMC,083434,A,4819.3300,N,439.1714,W,10.00,295.78,281015,,*31
$GPRMC,083434,A,4819.3337,N,439.1829,W,10.00,295.78,281015,,*34
$GPRMC,083434,A,4819.3375,N,439.1945,W,10.00,295.78,281015,,*39
$GPRMC,083434,A,4819.3412,N,439.2061,W,10.00,295.78,281015,,*33
$GPRMC,083434,A,4819.3449,N,439.2177,W,10.00,295.78,281015,,*3B
$GPRMC,083434,A,4819.3452,N,439.2184,W,10.00,235.51,281015,,*3C
$GPRMC,083434,A,4819.3413,N,439.2268,W,10.00,235.51,281015,,*38
$GPRMC,083434,A,4819.3375,N,439.2352,W,10.00,235.51,281015,,*37
$GPRMC,083434,A,4819.3336,N,439.2436,W,10.00,235.51,281015,,*35
$GPRMC,083434,A,4819.3298,N,439.2520,W,10.00,235.51,281015,,*36
$GPRMC,083434,A,4819.3259,N,439.2604,W,10.00,235.51,281015,,*3E
$GPRMC,083434,A,4819.3221,N,439.2688,W,10.00,235.51,281015,,*35
$GPRMC,083434,A,4819.3182,N,439.2772,W,10.00,235.51,281015,,*3B
$GPRMC,083434,A,4819.3144,N,439.2856,W,10.00,235.51,281015,,*38
$GPRMC,083434,A,4819.3105,N,439.2940,W,10.00,235.51,281015,,*3B
$GPRMC,083434,A,4819.3067,N,439.3024,W,10.00,235.51,281015,,*34
$GPRMC,083434,A,4819.3028,N,439.3108,W,10.00,235.51,281015,,*30
$GPRMC,083434,A,4819.2990,N,439.3192,W,10.00,235.51,281015,,*38
$GPRMC,083434,A,4819.2952,N,439.3276,W,10.00,235.51,281015,,*3F
$GPRMC,083434,A,4819.2913,N,439.3360,W,10.00,235.51,281015,,*3C
$GPRMC,083434,A,4819.2875,N,439.3444,W,10.00,235.51,281015,,*3C
$GPRMC,083434,A,4819.2836,N,439.3528,W,10.00,235.51,281015,,*30
$GPRMC,083434,A,4819.2798,N,439.3612,W,10.00,235.51,281015,,*31
$GPRMC,083434,A,4819.2759,N,439.3696,W,10.00,235.51,281015,,*30
$GPRMC,083434,A,4819.2721,N,439.3780,W,10.00,235.51,281015,,*39
$GPRMC,083434,A,4819.2682,N,439.3864,W,10.00,235.51,281015,,*34
$GPRMC,083434,A,4819.2644,N,439.3947,W,10.00,235.51,281015,,*3E
$GPRMC,083434,A,4819.2605,N,439.4031,W,10.00,235.51,281015,,*34
$GPRMC,083434,A,4819.2567,N,439.4115,W,10.00,235.51,281015,,*34
$GPRMC,083434,A,4819.2528,N,439.4199,W,10.00,235.51,281015,,*3B
$GPRMC,083434,A,4819.2490,N,439.4283,W,10.00,235.51,281015,,*31
$GPRMC,083434,A,4819.2451,N,439.4367,W,10.00,235.51,281015,,*37
$GPRMC,083434,A,4819.2413,N,439.4451,W,10.00,235.51,281015,,*33
$GPRMC,083434,A,4819.2374,N,439.4535,W,10.00,235.51,281015,,*36
$GPRMC,083434,A,4819.2336,N,439.4619,W,10.00,235.51,281015,,*3D
$GPRMC,083434,A,4819.2297,N,439.4703,W,10.00,235.51,281015,,*3D
$GPRMC,083434,A,4819.2259,N,439.4787,W,10.00,235.51,281015,,*33
$GPRMC,083434,A,4819.2221,N,439.4871,W,10.00,235.51,281015,,*3A
$GPRMC,083434,A,4819.2182,N,439.4955,W,10.00,235.51,281015,,*37
$GPRMC,083434,A,4819.2144,N,439.5039,W,10.00,235.51,281015,,*3F
$GPRMC,083434,A,4819.2105,N,439.5123,W,10.00,235.51,281015,,*30
$GPRMC,083434,A,4819.2067,N,439.5207,W,10.00,235.51,281015,,*30
$GPRMC,083434,A,4819.2028,N,439.5291,W,10.00,235.51,281015,,*34
$GPRMC,083434,A,4819.1990,N,439.5375,W,10.00,235.51,281015,,*36
$GPRMC,083434,A,4819.1951,N,439.5459,W,10.00,235.51,281015,,*32
$GPRMC,083434,A,4819.1913,N,439.5542,W,10.00,235.51,281015,,*3F
$GPRMC,083434,A,4819.1874,N,439.5626,W,10.00,235.51,281015,,*3E
$GPRMC,083434,A,4819.1836,N,439.5710,W,10.00,235.51,281015,,*3C
$GPRMC,083434,A,4819.1797,N,439.5794,W,10.00,235.51,281015,,*34
$GPRMC,083434,A,4819.1759,N,439.5878,W,10.00,235.51,281015,,*3B
$GPRMC,083434,A,4819.1720,N,439.5962,W,10.00,235.51,281015,,*3F
$GPRMC,083434,A,4819.1682,N,439.6046,W,10.00,235.51,281015,,*3A
$GPRMC,083434,A,4819.1643,N,439.6130,W,10.00,235.51,281015,,*37
$GPRMC,083434,A,4819.1605,N,439.6214,W,10.00,235.51,281015,,*30
$GPRMC,083434,A,4819.1566,N,439.6298,W,10.00,235.51,281015,,*32
$GPRMC,083434,A,4819.1528,N,439.6382,W,10.00,235.51,281015,,*32
$GPRMC,083434,A,4819.1489,N,439.6466,W,10.00,235.51,281015,,*35
$GPRMC,083434,A,4819.1451,N,439.6550,W,10.00,235.51,281015,,*34
$GPRMC,083434,A,4819.1413,N,439.6634,W,10.00,235.51,281015,,*33
$GPRMC,083434,A,4819.1374,N,439.6718,W,10.00,235.51,281015,,*3A
$GPRMC,083434,A,4819.1336,N,439.6802,W,10.00,235.51,281015,,*38
$GPRMC,083434,A,4819.1297,N,439.6886,W,10.00,235.51,281015,,*3E
$GPRMC,083434,A,4819.1259,N,439.6970,W,10.00,235.51,281015,,*34
$GPRMC,083434,A,4819.1220,N,439.7053,W,10.00,235.51,281015,,*33
$GPRMC,083434,A,4819.1182,N,439.7137,W,10.00,235.51,281015,,*3B
$GPRMC,083434,A,4819.1143,N,439.7221,W,10.00,235.51,281015,,*32
$GPRMC,083434,A,4819.1105,N,439.7305,W,10.00,235.51,281015,,*37
$GPRMC,083434,A,4819.1066,N,439.7389,W,10.00,235.51,281015,,*37
$GPRMC,083434,A,4819.1028,N,439.7473,W,10.00,235.51,281015,,*3F
$GPRMC,083434,A,4819.0989,N,439.7557,W,10.00,235.51,281015,,*3B
$GPRMC,083434,A,4819.0951,N,439.7641,W,10.00,235.51,281015,,*3A
$GPRMC,083434,A,4819.0912,N,439.7725,W,10.00,235.51,281015,,*3E
$GPRMC,083434,A,4819.0874,N,439.7809,W,10.00,235.51,281015,,*3E
$GPRMC,083434,A,4819.0835,N,439.7893,W,10.00,235.51,281015,,*38
$GPRMC,083434,A,4819.0797,N,439.7977,W,10.00,235.51,281015,,*34
$GPRMC,083434,A,4819.0758,N,439.8061,W,10.00,235.51,281015,,*36
$GPRMC,083434,A,4819.0720,N,439.8145,W,10.00,235.51,281015,,*3E
$GPRMC,083434,A,4819.0681,N,439.8229,W,10.00,235.51,281015,,*3D
$GPRMC,083434,A,4819.0643,N,439.8313,W,10.00,235.51,281015,,*3B
$GPRMC,083434,A,4819.0604,N,439.8397,W,10.00,235.51,281015,,*34
$GPRMC,083434,A,4819.0566,N,439.8480,W,10.00,235.51,281015,,*32
$GPRMC,083434,A,4819.0527,N,439.8564,W,10.00,235.51,281015,,*3C
$GPRMC,083434,A,4819.0489,N,439.8648,W,10.00,235.51,281015,,*34
$GPRMC,083434,A,4819.0451,N,439.8732,W,10.00,235.51,281015,,*3D
$GPRMC,083434,A,4819.0412,N,439.8816,W,10.00,235.51,281015,,*33
$GPRMC,083434,A,4819.0374,N,439.8900,W,10.00,235.51,281015,,*32
$GPRMC,083434,A,4819.0335,N,439.8984,W,10.00,235.51,281015,,*3B
$GPRMC,083434,A,4819.0297,N,439.9068,W,10.00,235.51,281015,,*38
$GPRMC,083434,A,4819.0258,N,439.9152,W,10.00,235.51,281015,,*33
$GPRMC,083434,A,4819.0220,N,439.9236,W,10.00,235.51,281015,,*3D
$GPRMC,083434,A,4819.0181,N,439.9320,W,10.00,235.51,281015,,*33
$GPRMC,083434,A,4819.0143,N,439.9404,W,10.00,235.51,281015,,*3C
$GPRMC,083434,A,4819.0104,N,439.9488,W,10.00,235.51,281015,,*3B
$GPRMC,083434,A,4819.0066,N,439.9572,W,10.00,235.51,281015,,*3A
$GPRMC,083434,A,4819.0027,N,439.9656,W,10.00,235.51,281015,,*3A
$GPRMC,083434,A,4818.9989,N,439.9740,W,10.00,235.51,281015,,*39
$GPRMC,083434,A,4818.9950,N,439.9823,W,10.00,235.51,281015,,*37
$GPRMC,083434,A,4818.9912,N,439.9907,W,10.00,235.51,281015,,*36
$GPRMC,083434,A,4818.9873,N,439.9991,W,10.00,235.51,281015,,*3F
$GPRMC,083434,A,4818.9835,N,440.0075,W,10.00,235.51,281015,,*39
$GPRMC,083434,A,4818.9796,N,440.0159,W,10.00,235.51,281015,,*30
$GPRMC,083434,A,4818.9758,N,440.0243,W,10.00,235.51,281015,,*3A
$GPRMC,083434,A,4818.9719,N,440.0327,W,10.00,235.51,281015,,*3C
$GPRMC,083434,A,4818.9681,N,440.0411,W,10.00,235.51,281015,,*3E
$GPRMC,083434,A,4818.9642,N,440.0495,W,10.00,235.51,281015,,*3D
$GPRMC,083434,A,4818.9604,N,440.0579,W,10.00,235.51,281015,,*3C
$GPRMC,083434,A,4818.9565,N,440.0663,W,10.00,235.51,281015,,*30
$GPRMC,083434,A,4818.9527,N,440.0747,W,10.00,235.51,281015,,*31
$GPRMC,083434,A,4818.9488,N,440.0831,W,10.00,235.51,281015,,*3B
$GPRMC,083434,A,4818.9450,N,440.0915,W,10.00,235.51,281015,,*39
$GPRMC,083434,A,4818.9412,N,440.0999,W,10.00,235.51,281015,,*3B
$GPRMC,083434,A,4818.9373,N,440.1082,W,10.00,235.51,281015,,*39
$GPRMC,083434,A,4818.9335,N,440.1166,W,10.00,235.51,281015,,*30
$GPRMC,083434,A,4818.9296,N,440.1250,W,10.00,235.51,281015,,*3E
$GPRMC,083434,A,4818.9258,N,440.1334,W,10.00,235.51,281015,,*3F
$GPRMC,083434,A,4818.9219,N,440.1418,W,10.00,235.51,281015,,*33
$GPRMC,083434,A,4818.9181,N,440.1502,W,10.00,235.51,281015,,*3B
$GPRMC,083434,A,4818.9142,N,440.1586,W,10.00,235.51,281015,,*38
$GPRMC,083434,A,4818.9104,N,440.1670,W,10.00,235.51,281015,,*30
$GPRMC,083434,A,4818.9065,N,440.1754,W,10.00,235.51,281015,,*31
$GPRMC,083434,A,4818.9027,N,440.1838,W,10.00,235.51,281015,,*32
$GPRMC,083434,A,4818.8988,N,440.1922,W,10.00,235.51,281015,,*35
$GPRMC,083434,A,4818.8950,N,440.2006,W,10.00,235.51,281015,,*3C
$GPRMC,083434,A,4818.8911,N,440.2090,W,10.00,235.51,281015,,*36
$GPRMC,083434,A,4818.8873,N,440.2174,W,10.00,235.51,281015,,*38
$GPRMC,083434,A,4818.8834,N,440.2257,W,10.00,235.51,281015,,*39
$GPRMC,083434,A,4818.8796,N,440.2341,W,10.00,235.51,281015,,*38
$GPRMC,083434,A,4818.8757,N,440.2425,W,10.00,235.51,281015,,*30
$GPRMC,083434,A,4818.8719,N,440.2509,W,10.00,235.51,281015,,*35
$GPRMC,083434,A,4818.8680,N,440.2593,W,10.00,235.51,281015,,*37
$GPRMC,083434,A,4818.8642,N,440.2677,W,10.00,235.51,281015,,*30
$GPRMC,083434,A,4818.8603,N,440.2761,W,10.00,235.51,281015,,*33
$GPRMC,083434,A,4818.8565,N,440.2845,W,10.00,235.51,281015,,*39
$GPRMC,083434,A,4818.8526,N,440.2929,W,10.00,235.51,281015,,*35
$GPRMC,083434,A,4818.8488,N,440.3013,W,10.00,235.51,281015,,*31
$GPRMC,083434,A,4818.8449,N,440.3097,W,10.00,235.51,281015,,*30
$GPRMC,083434,A,4818.8411,N,440.3181,W,10.00,235.51,281015,,*3B
$GPRMC,083434,A,4818.8372,N,440.3265,W,10.00,235.51,281015,,*30
$GPRMC,083434,A,4818.8334,N,440.3349,W,10.00,235.51,281015,,*3D
$GPRMC,083434,A,4818.8295,N,440.3432,W,10.00,235.51,281015,,*3C
$GPRMC,083434,A,4818.8257,N,440.3516,W,10.00,235.51,281015,,*35
$GPRMC,083434,A,4818.8219,N,440.3600,W,10.00,235.51,281015,,*3B
$GPRMC,083434,A,4818.8180,N,440.3684,W,10.00,235.51,281015,,*34
$GPRMC,083434,A,4818.8142,N,440.3768,W,10.00,235.51,281015,,*39
$GPRMC,083434,A,4818.8103,N,440.3852,W,10.00,235.51,281015,,*3A
$GPRMC,083434,A,4818.8065,N,440.3936,W,10.00,235.51,281015,,*38
$GPRMC,083434,A,4818.8026,N,440.4020,W,10.00,235.51,281015,,*36
$GPRMC,083434,A,4818.7988,N,440.4104,W,10.00,235.51,281015,,*33
$GPRMC,083434,A,4818.7949,N,440.4188,W,10.00,235.51,281015,,*3A
$GPRMC,083434,A,4818.7911,N,440.4272,W,10.00,235.51,281015,,*31
$GPRMC,083434,A,4818.7872,N,440.4356,W,10.00,235.51,281015,,*32
$GPRMC,083434,A,4818.7834,N,440.4440,W,10.00,235.51,281015,,*30
$GPRMC,083434,A,4818.7795,N,440.4523,W,10.00,235.51,281015,,*30
$GPRMC,083434,A,4818.7757,N,440.4607,W,10.00,235.51,281015,,*3B
$GPRMC,083434,A,4818.7718,N,440.4691,W,10.00,235.51,281015,,*3F
$GPRMC,083434,A,4818.7680,N,440.4775,W,10.00,235.51,281015,,*34
$GPRMC,083434,A,4818.7641,N,440.4859,W,10.00,235.51,281015,,*38
$GPRMC,083434,A,4818.7603,N,440.4943,W,10.00,235.51,281015,,*34
$GPRMC,083434,A,4818.7564,N,440.5027,W,10.00,235.51,281015,,*3C
$GPRMC,083434,A,4818.7526,N,440.5111,W,10.00,235.51,281015,,*3E
$GPRMC,083434,A,4818.7487,N,440.5195,W,10.00,235.51,281015,,*38
$GPRMC,083434,A,4818.7449,N,440.5279,W,10.00,235.51,281015,,*3B
$GPRMC,083434,A,4818.7410,N,440.5363,W,10.00,235.51,281015,,*3D
$GPRMC,083434,A,4818.7372,N,440.5447,W,10.00,235.51,281015,,*3F
$GPRMC,083434,A,4818.7333,N,440.5531,W,10.00,235.51,281015,,*3A
$GPRMC,083434,A,4818.7295,N,440.5614,W,10.00,235.51,281015,,*33
$GPRMC,083434,A,4818.7256,N,440.5698,W,10.00,235.51,281015,,*38
$GPRMC,083434,A,4818.7218,N,440.5782,W,10.00,235.51,281015,,*38
$GPRMC,083434,A,4818.7179,N,440.5866,W,10.00,235.51,281015,,*39
$GPRMC,083434,A,4818.7141,N,440.5950,W,10.00,235.51,281015,,*36
$GPRMC,083434,A,4818.7102,N,440.6034,W,10.00,235.51,281015,,*39
$GPRMC,083434,A,4818.7064,N,440.6118,W,10.00,235.51,281015,,*37
$GPRMC,083434,A,4818.7025,N,440.6202,W,10.00,235.51,281015,,*3A
$GPRMC,083434,A,4818.6987,N,440.6286,W,10.00,235.51,281015,,*36
$GPRMC,083434,A,4818.6948,N,440.6370,W,10.00,235.51,281015,,*3D
$GPRMC,083434,A,4818.6910,N,440.6454,W,10.00,235.51,281015,,*31
$GPRMC,083434,A,4818.6871,N,440.6538,W,10.00,235.51,281015,,*3C
$GPRMC,083434,A,4818.6833,N,440.6621,W,10.00,235.51,281015,,*31
$GPRMC,083434,A,4818.6794,N,440.6705,W,10.00,235.51,281015,,*34
$GPRMC,083434,A,4818.6756,N,440.6789,W,10.00,235.51,281015,,*3E
$GPRMC,083434,A,4818.6717,N,440.6873,W,10.00,235.51,281015,,*31
$GPRMC,083434,A,4818.6679,N,440.6957,W,10.00,235.51,281015,,*3F
$GPRMC,083434,A,4818.6640,N,440.7041,W,10.00,235.51,281015,,*3A
$GPRMC,083434,A,4818.6602,N,440.7125,W,10.00,235.51,281015,,*3F
$GPRMC,083434,A,4818.6564,N,440.7209,W,10.00,235.51,281015,,*31
$GPRMC,083434,A,4818.6525,N,440.7293,W,10.00,235.51,281015,,*37
$GPRMC,083434,A,4818.6487,N,440.7377,W,10.00,235.51,281015,,*35
$GPRMC,083434,A,4818.6448,N,440.7461,W,10.00,235.51,281015,,*36
$GPRMC,083434,A,4818.6410,N,440.7545,W,10.00,235.51,281015,,*3C
$GPRMC,083434,A,4818.6371,N,440.7628,W,10.00,235.51,281015,,*34
$GPRMC,083434,A,4818.6333,N,440.7712,W,10.00,235.51,281015,,*3A
$GPRMC,083434,A,4818.6294,N,440.7796,W,10.00,235.51,281015,,*3A
$GPRMC,083434,A,4818.6256,N,440.7880,W,10.00,235.51,281015,,*3C
$GPRMC,083434,A,4818.6217,N,440.7964,W,10.00,235.51,281015,,*32
$GPRMC,083434,A,4818.6179,N,440.8048,W,10.00,235.51,281015,,*31
$GPRMC,083434,A,4818.6140,N,440.8132,W,10.00,235.51,281015,,*37
$GPRMC,083434,A,4818.6102,N,440.8216,W,10.00,235.51,281015,,*34
$GPRMC,083434,A,4818.6063,N,440.8300,W,10.00,235.51,281015,,*34
$GPRMC,083434,A,4818.6025,N,440.8384,W,10.00,235.51,281015,,*3A
$GPRMC,083434,A,4818.5986,N,440.8468,W,10.00,235.51,281015,,*3C
$GPRMC,083434,A,4818.5948,N,440.8552,W,10.00,235.51,281015,,*36
$GPRMC,083434,A,4818.5909,N,440.8635,W,10.00,235.51,281015,,*31
$GPRMC,083434,A,4818.5871,N,440.8719,W,10.00,235.51,281015,,*30
$GPRMC,083434,A,4818.5832,N,440.8803,W,10.00,235.51,281015,,*33
$GPRMC,083434,A,4818.5794,N,440.8887,W,10.00,235.51,281015,,*3C
$GPRMC,083434,A,4818.5755,N,440.8971,W,10.00,235.51,281015,,*39
$GPRMC,083434,A,4818.5717,N,440.9055,W,10.00,235.51,281015,,*31
$GPRMC,083434,A,4818.5678,N,440.9139,W,10.00,235.51,281015,,*32
$GPRMC,083434,A,4818.5640,N,440.9223,W,10.00,235.51,281015,,*31
$GPRMC,083434,A,4818.5601,N,440.9307,W,10.00,235.51,281015,,*33
$GPRMC,083434,A,4818.5563,N,440.9391,W,10.00,235.51,281015,,*3B
$GPRMC,083434,A,4818.5524,N,440.9475,W,10.00,235.51,281015,,*35
$GPRMC,083434,A,4818.5486,N,440.9559,W,10.00,235.51,281015,,*33
$GPRMC,083434,A,4818.5447,N,440.9642,W,10.00,235.51,281015,,*37
$GPRMC,083434,A,4818.5409,N,440.9726,W,10.00,235.51,281015,,*3E
$GPRMC,083434,A,4818.5370,N,440.9810,W,10.00,235.51,281015,,*3D
$GPRMC,083434,A,4818.5332,N,440.9894,W,10.00,235.51,281015,,*37
$GPRMC,083434,A,4818.5293,N,440.9978,W,10.00,235.51,281015,,*3E
$GPRMC,083434,A,4818.5255,N,441.0062,W,10.00,235.51,281015,,*3E
$GPRMC,083434,A,4818.5216,N,441.0146,W,10.00,235.51,281015,,*3E
$GPRMC,083434,A,4818.5178,N,441.0230,W,10.00,235.51,281015,,*37
$GPRMC,083434,A,4818.5139,N,441.0314,W,10.00,235.51,281015,,*35
$GPRMC,083434,A,4818.5101,N,441.0398,W,10.00,235.51,281015,,*3A
$GPRMC,083434,A,4818.5062,N,441.0482,W,10.00,235.51,281015,,*32
$GPRMC,083434,A,4818.5024,N,441.0565,W,10.00,235.51,281015,,*38
$GPRMC,083434,A,4818.4985,N,441.0649,W,10.00,235.51,281015,,*36
$GPRMC,083434,A,4818.4947,N,441.0733,W,10.00,235.51,281015,,*34
$GPRMC,083434,A,4818.4908,N,441.0817,W,10.00,235.51,281015,,*36
$GPRMC,083434,A,4818.4870,N,441.0901,W,10.00,235.51,281015,,*3E
$GPRMC,083434,A,4818.4831,N,441.0985,W,10.00,235.51,281015,,*37
$GPRMC,083434,A,4818.4793,N,441.1069,W,10.00,235.51,281015,,*3A
$GPRMC,083434,A,4818.4754,N,441.1153,W,10.00,235.51,281015,,*39
$GPRMC,083434,A,4818.4716,N,441.1237,W,10.00,235.51,281015,,*3E
$GPRMC,083434,A,4818.4677,N,441.1321,W,10.00,235.51,281015,,*3E
$GPRMC,083434,A,4818.4639,N,441.1404,W,10.00,235.51,281015,,*34
$GPRMC,083434,A,4818.4600,N,441.1488,W,10.00,235.51,281015,,*3A
$GPRMC,083434,A,4818.4562,N,441.1572,W,10.00,235.51,281015,,*39
$GPRMC,083434,A,4818.4523,N,441.1656,W,10.00,235.51,281015,,*39
$GPRMC,083434,A,4818.4485,N,441.1740,W,10.00,235.51,281015,,*32
$GPRMC,083434,A,4818.4446,N,441.1824,W,10.00,235.51,281015,,*30
$GPRMC,083434,A,4818.4408,N,441.1908,W,10.00,235.51,281015,,*35
$GPRMC,083434,A,4818.4369,N,441.1992,W,10.00,235.51,281015,,*36
$GPRMC,083434,A,4818.4331,N,441.2076,W,10.00,235.51,281015,,*3B
$GPRMC,083434,A,4818.4292,N,441.2160,W,10.00,235.51,281015,,*35
$GPRMC,083434,A,4818.4254,N,441.2244,W,10.00,235.51,281015,,*3A
$GPRMC,083434,A,4818.4215,N,441.2327,W,10.00,235.51,281015,,*3B
$GPRMC,083434,A,4818.4177,N,441.2411,W,10.00,235.51,281015,,*3E
$GPRMC,083434,A,4818.4138,N,441.2495,W,10.00,235.51,281015,,*39
$GPRMC,083434,A,4818.4100,N,441.2579,W,10.00,235.51,281015,,*31
$GPRMC,083434,A,4818.4061,N,441.2663,W,10.00,235.51,281015,,*3F
$GPRMC,083434,A,4818.4023,N,441.2747,W,10.00,235.51,281015,,*3E
$GPRMC,083434,A,4818.3984,N,441.2831,W,10.00,235.51,281015,,*33
$GPRMC,083434,A,4818.3946,N,441.2915,W,10.00,235.51,281015,,*3A
$GPRMC,083434,A,4818.3907,N,441.2999,W,10.00,235.51,281015,,*3B
$GPRMC,083434,A,4818.3869,N,441.3083,W,10.00,235.51,281015,,*31
$GPRMC,083434,A,4818.3830,N,441.3166,W,10.00,235.51,281015,,*37
$GPRMC,083434,A,4818.3792,N,441.3250,W,10.00,235.51,281015,,*36
$GPRMC,083434,A,4818.3753,N,441.3334,W,10.00,235.51,281015,,*38
$GPRMC,083434,A,4818.3715,N,441.3418,W,10.00,235.51,281015,,*33
$GPRMC,083434,A,4818.3676,N,441.3502,W,10.00,235.51,281015,,*3D
$GPRMC,083434,A,4818.3638,N,441.3586,W,10.00,235.51,281015,,*3B
$GPRMC,083434,A,4818.3599,N,441.3670,W,10.00,235.51,281015,,*39
$GPRMC,083434,A,4818.3561,N,441.3754,W,10.00,235.51,281015,,*39
$GPRMC,083434,A,4818.3522,N,441.3838,W,10.00,235.51,281015,,*3B
$GPRMC,083434,A,4818.3484,N,441.3922,W,10.00,235.51,281015,,*3C
$GPRMC,083434,A,4818.3445,N,441.4005,W,10.00,235.51,281015,,*3A
$GPRMC,083434,A,4818.3407,N,441.4089,W,10.00,235.51,281015,,*38
$GPRMC,083434,A,4818.3368,N,441.4173,W,10.00,235.51,281015,,*32
$GPRMC,083434,A,4818.3330,N,441.4257,W,10.00,235.51,281015,,*3A
$GPRMC,083434,A,4818.3291,N,441.4341,W,10.00,235.51,281015,,*36
$GPRMC,083434,A,4818.3253,N,441.4425,W,10.00,235.51,281015,,*3D
$GPRMC,083434,A,4818.3214,N,441.4509,W,10.00,235.51,281015,,*31
$GPRMC,083434,A,4818.3176,N,441.4593,W,10.00,235.51,281015,,*35
$GPRMC,083434,A,4818.3137,N,441.4677,W,10.00,235.51,281015,,*39
$GPRMC,083434,A,4818.3099,N,441.4761,W,10.00,235.51,281015,,*3A
$GPRMC,083434,A,4818.3060,N,441.4844,W,10.00,235.51,281015,,*34
$GPRMC,083434,A,4818.3022,N,441.4928,W,10.00,235.51,281015,,*39
$GPRMC,083434,A,4818.2983,N,441.5012,W,10.00,235.51,281015,,*3B
$GPRMC,083434,A,4818.2945,N,441.5096,W,10.00,235.51,281015,,*3D
$GPRMC,083434,A,4818.2906,N,441.5180,W,10.00,235.51,281015,,*3C
$GPRMC,083434,A,4818.2868,N,441.5264,W,10.00,235.51,281015,,*3C
$GPRMC,083434,A,4818.2829,N,441.5348,W,10.00,235.51,281015,,*36
$GPRMC,083434,A,4818.2791,N,441.5432,W,10.00,235.51,281015,,*30
$GPRMC,083434,A,4818.2752,N,441.5516,W,10.00,235.51,281015,,*38
$GPRMC,083434,A,4818.2714,N,441.5600,W,10.00,235.51,281015,,*3E
$GPRMC,083434,A,4818.2675,N,441.5683,W,10.00,235.51,281015,,*33
$GPRMC,083434,A,4818.2637,N,441.5767,W,10.00,235.51,281015,,*3E
$GPRMC,083434,A,4818.2598,N,441.5851,W,10.00,235.51,281015,,*32
$GPRMC,083434,A,4818.2560,N,441.5935,W,10.00,235.51,281015,,*36
$GPRMC,083434,A,4818.2521,N,441.6019,W,10.00,235.51,281015,,*37
$GPRMC,083434,A,4818.2483,N,441.6103,W,10.00,235.51,281015,,*34
$GPRMC,083434,A,4818.2444,N,441.6187,W,10.00,235.51,281015,,*33
$GPRMC,083434,A,4818.2406,N,441.6271,W,10.00,235.51,281015,,*3F
$GPRMC,083434,A,4818.2367,N,441.6355,W,10.00,235.51,281015,,*38
$GPRMC,083434,A,4818.2329,N,441.6438,W,10.00,235.51,281015,,*3E
$GPRMC,083434,A,4818.2290,N,441.6522,W,10.00,235.51,281015,,*37
$GPRMC,083434,A,4818.2252,N,441.6606,W,10.00,235.51,281015,,*3C
$GPRMC,083434,A,4818.2213,N,441.6690,W,10.00,235.51,281015,,*36
$GPRMC,083434,A,4818.2175,N,441.6774,W,10.00,235.51,281015,,*3E
$GPRMC,083434,A,4818.2136,N,441.6858,W,10.00,235.51,281015,,*38
$GPRMC,083434,A,4818.2098,N,441.6942,W,10.00,235.51,281015,,*37
$GPRMC,083434,A,4818.2059,N,441.7026,W,10.00,235.51,281015,,*30
$GPRMC,083434,A,4818.2021,N,441.7110,W,10.00,235.51,281015,,*3B
$GPRMC,083434,A,4818.1982,N,441.7194,W,10.00,235.51,281015,,*34
$GPRMC,083434,A,4818.1944,N,441.7277,W,10.00,235.51,281015,,*30
$GPRMC,083434,A,4818.1905,N,441.7361,W,10.00,235.51,281015,,*33
$GPRMC,083434,A,4818.1867,N,441.7445,W,10.00,235.51,281015,,*37
$GPRMC,083434,A,4818.1828,N,441.7529,W,10.00,235.51,281015,,*37
$GPRMC,083434,A,4818.1790,N,441.7613,W,10.00,235.51,281015,,*31
$GPRMC,083434,A,4818.1751,N,441.7697,W,10.00,235.51,281015,,*30
$GPRMC,083434,A,4818.1713,N,441.7781,W,10.00,235.51,281015,,*30
$GPRMC,083434,A,4818.1674,N,441.7865,W,10.00,235.51,281015,,*35
$GPRMC,083434,A,4818.1636,N,441.7949,W,10.00,235.51,281015,,*3C
$GPRMC,083434,A,4818.1597,N,441.8032,W,10.00,235.51,281015,,*3E
$GPRMC,083434,A,4818.1559,N,441.8116,W,10.00,235.51,281015,,*3B
$GPRMC,083434,A,4818.1520,N,441.8200,W,10.00,235.51,281015,,*31
$GPRMC,083434,A,4818.1482,N,441.8284,W,10.00,235.51,281015,,*34
$GPRMC,083434,A,4818.1443,N,441.8368,W,10.00,235.51,281015,,*3A
$GPRMC,083434,A,4818.1405,N,441.8452,W,10.00,235.51,281015,,*36
$GPRMC,083434,A,4818.1366,N,441.8536,W,10.00,235.51,281015,,*37
$GPRMC,083434,A,4818.1328,N,441.8620,W,10.00,235.51,281015,,*39
$GPRMC,083434,A,4818.1311,N,441.8656,W,10.00,248.59,281015,,*30
$GPRMC,083434,A,4818.1294,N,441.8721,W,10.00,248.59,281015,,*3D
$GPRMC,083434,A,4818.1277,N,441.8787,W,10.00,248.59,281015,,*3C
$GPRMC,083434,A,4818.1260,N,441.8852,W,10.00,248.59,281015,,*3D
$GPRMC,083434,A,4818.1243,N,441.8917,W,10.00,248.59,281015,,*3C
$GPRMC,083434,A,4818.1226,N,441.8982,W,10.00,248.59,281015,,*33
$GPRMC,083434,A,4818.1209,N,441.9047,W,10.00,248.59,281015,,*3F
$GPRMC,083434,A,4818.1192,N,441.9113,W,10.00,248.59,281015,,*3E
$GPRMC,083434,A,4818.1175,N,441.9178,W,10.00,248.59,281015,,*3A
$GPRMC,083434,A,4818.1158,N,441.9243,W,10.00,248.59,281015,,*3E
$GPRMC,083434,A,4818.1141,N,441.9308,W,10.00,248.59,281015,,*38
$GPRMC,083434,A,4818.1123,N,441.9373,W,10.00,248.59,281015,,*30
$GPRMC,083434,A,4818.1106,N,441.9439,W,10.00,248.59,281015,,*3E
$GPRMC,083434,A,4818.1089,N,441.9504,W,10.00,248.59,281015,,*37
$GPRMC,083434,A,4818.1072,N,441.9569,W,10.00,248.59,281015,,*38
$GPRMC,083434,A,4818.1055,N,441.9634,W,10.00,248.59,281015,,*36
$GPRMC,083434,A,4818.1038,N,441.9700,W,10.00,248.59,281015,,*3B
$GPRMC,083434,A,4818.1021,N,441.9765,W,10.00,248.59,281015,,*30
$GPRMC,083434,A,4818.1004,N,441.9830,W,10.00,248.59,281015,,*38
$GPRMC,083434,A,4818.0987,N,441.9895,W,10.00,248.59,281015,,*34
$GPRMC,083434,A,4818.0970,N,441.9960,W,10.00,248.59,281015,,*37
$GPRMC,083434,A,4818.0953,N,442.0026,W,10.00,248.59,281015,,*37
$GPRMC,083434,A,4818.0936,N,442.0091,W,10.00,248.59,281015,,*38
$GPRMC,083434,A,4818.0919,N,442.0156,W,10.00,248.59,281015,,*3F
$GPRMC,083434,A,4818.0902,N,442.0221,W,10.00,248.59,281015,,*36
$GPRMC,083434,A,4818.0885,N,442.0286,W,10.00,248.59,281015,,*35
$GPRMC,083434,A,4818.0868,N,442.0352,W,10.00,248.59,281015,,*3E
$GPRMC,083434,A,4818.0851,N,442.0417,W,10.00,248.59,281015,,*32
$GPRMC,083434,A,4818.0833,N,442.0482,W,10.00,248.59,281015,,*3A
$GPRMC,083434,A,4818.0816,N,442.0547,W,10.00,248.59,281015,,*35
$GPRMC,083434,A,4818.0799,N,442.0612,W,10.00,248.59,281015,,*3E
$GPRMC,083434,A,4818.0782,N,442.0678,W,10.00,248.59,281015,,*38
$GPRMC,083434,A,4818.0765,N,442.0743,W,10.00,248.59,281015,,*38
$GPRMC,083434,A,4818.0748,N,442.0808,W,10.00,248.59,281015,,*37
$GPRMC,083434,A,4818.0731,N,442.0873,W,10.00,248.59,281015,,*35
$GPRMC,083434,A,4818.0714,N,442.0939,W,10.00,248.59,281015,,*3D
$GPRMC,083434,A,4818.0697,N,442.1004,W,10.00,248.59,281015,,*31
$GPRMC,083434,A,4818.0680,N,442.1069,W,10.00,248.59,281015,,*3C
$GPRMC,083434,A,4818.0663,N,442.1134,W,10.00,248.59,281015,,*38
$GPRMC,083434,A,4818.0646,N,442.1199,W,10.00,248.59,281015,,*38
$GPRMC,083434,A,4818.0629,N,442.1265,W,10.00,248.59,281015,,*31
$GPRMC,083434,A,4818.0612,N,442.1330,W,10.00,248.59,281015,,*38
$GPRMC,083434,A,4818.0595,N,442.1395,W,10.00,248.59,281015,,*3B
$GPRMC,083434,A,4818.0578,N,442.1460,W,10.00,248.59,281015,,*35
$GPRMC,083434,A,4818.0561,N,442.1525,W,10.00,248.59,281015,,*3D
$GPRMC,083434,A,4818.0543,N,442.1591,W,10.00,248.59,281015,,*32
$GPRMC,083434,A,4818.0526,N,442.1656,W,10.00,248.59,281015,,*39
$GPRMC,083434,A,4818.0509,N,442.1721,W,10.00,248.59,281015,,*35
$GPRMC,083434,A,4818.0492,N,442.1786,W,10.00,248.59,281015,,*3B
$GPRMC,083434,A,4818.0475,N,442.1851,W,10.00,248.59,281015,,*37
$GPRMC,083434,A,4818.0458,N,442.1917,W,10.00,248.59,281015,,*3B
$GPRMC,083434,A,4818.0441,N,442.1982,W,10.00,248.59,281015,,*3F
$GPRMC,083434,A,4818.0424,N,442.2047,W,10.00,248.59,281015,,*3F
$GPRMC,083434,A,4818.0407,N,442.2112,W,10.00,248.59,281015,,*3F
$GPRMC,083434,A,4818.0390,N,442.2178,W,10.00,248.59,281015,,*3A
$GPRMC,083434,A,4818.0373,N,442.2243,W,10.00,248.59,281015,,*3C
$GPRMC,083434,A,4818.0356,N,442.2308,W,10.00,248.59,281015,,*35
$GPRMC,083434,A,4818.0339,N,442.2373,W,10.00,248.59,281015,,*30
$GPRMC,083434,A,4818.0322,N,442.2438,W,10.00,248.59,281015,,*32
$GPRMC,083434,A,4818.0305,N,442.2504,W,10.00,248.59,281015,,*39
$GPRMC,083434,A,4818.0288,N,442.2569,W,10.00,248.59,281015,,*36
$GPRMC,083434,A,4818.0270,N,442.2634,W,10.00,248.59,281015,,*3A
$GPRMC,083434,A,4818.0253,N,442.2699,W,10.00,248.59,281015,,*3C
$GPRMC,083434,A,4818.0236,N,442.2764,W,10.00,248.59,281015,,*3C
$GPRMC,083434,A,4818.0219,N,442.2830,W,10.00,248.59,281015,,*3F
$GPRMC,083434,A,4818.0202,N,442.2895,W,10.00,248.59,281015,,*3A
$GPRMC,083434,A,4818.0185,N,442.2960,W,10.00,248.59,281015,,*3D
$GPRMC,083434,A,4818.0168,N,442.3025,W,10.00,248.59,281015,,*37
$GPRMC,083434,A,4818.0151,N,442.3090,W,10.00,248.59,281015,,*33
$GPRMC,083434,A,4818.0134,N,442.3156,W,10.00,248.59,281015,,*3B
$GPRMC,083434,A,4818.0117,N,442.3221,W,10.00,248.59,281015,,*39
$GPRMC,083434,A,4818.0100,N,442.3286,W,10.00,248.59,281015,,*32
$GPRMC,083434,A,4818.0083,N,442.3351,W,10.00,248.59,281015,,*33
$GPRMC,083434,A,4818.0066,N,442.3416,W,10.00,248.59,281015,,*3C
$GPRMC,083434,A,4818.0049,N,442.3482,W,10.00,248.59,281015,,*3C
$GPRMC,083434,A,4818.0032,N,442.3547,W,10.00,248.59,281015,,*38
$GPRMC,083434,A,4818.0015,N,442.3612,W,10.00,248.59,281015,,*3E
$GPRMC,083434,A,4817.9998,N,442.3677,W,10.00,248.59,281015,,*37
$GPRMC,083434,A,4817.9980,N,442.3743,W,10.00,248.59,281015,,*38
$GPRMC,083434,A,4817.9963,N,442.3808,W,10.00,248.59,281015,,*35
$GPRMC,083434,A,4817.9946,N,442.3873,W,10.00,248.59,281015,,*3E
$GPRMC,083434,A,4817.9929,N,442.3938,W,10.00,248.59,281015,,*39
$GPRMC,083434,A,4817.9912,N,442.4003,W,10.00,248.59,281015,,*37
$GPRMC,083434,A,4817.9895,N,442.4069,W,10.00,248.59,281015,,*35
$GPRMC,083434,A,4817.9878,N,442.4134,W,10.00,248.59,281015,,*3F
$GPRMC,083434,A,4817.9861,N,442.4199,W,10.00,248.59,281015,,*30
$GPRMC,083434,A,4817.9844,N,442.4264,W,10.00,248.59,281015,,*36
$GPRMC,083434,A,4817.9827,N,442.4329,W,10.00,248.59,281015,,*3B
$GPRMC,083434,A,4817.9810,N,442.4395,W,10.00,248.59,281015,,*38
$GPRMC,083434,A,4817.9793,N,442.4460,W,10.00,248.59,281015,,*31
$GPRMC,083434,A,4817.9776,N,442.4525,W,10.00,248.59,281015,,*3A
$GPRMC,083434,A,4817.9759,N,442.4590,W,10.00,248.59,281015,,*39
$GPRMC,083434,A,4817.9742,N,442.4655,W,10.00,248.59,281015,,*39
$GPRMC,083434,A,4817.9725,N,442.4721,W,10.00,248.59,281015,,*3A
$GPRMC,083434,A,4817.9707,N,442.4786,W,10.00,248.59,281015,,*37
$GPRMC,083434,A,4817.9690,N,442.4851,W,10.00,248.59,281015,,*3D
$GPRMC,083434,A,4817.9673,N,442.4916,W,10.00,248.59,281015,,*32
$GPRMC,083434,A,4817.9656,N,442.4981,W,10.00,248.59,281015,,*3B
$GPRMC,083434,A,4817.9639,N,442.5047,W,10.00,248.59,281015,,*30
$GPRMC,083434,A,4817.9622,N,442.5112,W,10.00,248.59,281015,,*3B
$GPRMC,083434,A,4817.9605,N,442.5177,W,10.00,248.59,281015,,*3D
$GPRMC,083434,A,4817.9588,N,442.5242,W,10.00,248.59,281015,,*3E
$GPRMC,083434,A,4817.9571,N,442.5307,W,10.00,248.59,281015,,*38
$GPRMC,083434,A,4817.9554,N,442.5373,W,10.00,248.59,281015,,*3C
$GPRMC,083434,A,4817.9537,N,442.5438,W,10.00,248.59,281015,,*31
$GPRMC,083434,A,4817.9520,N,442.5503,W,10.00,248.59,281015,,*3E
$GPRMC,083434,A,4817.9503,N,442.5568,W,10.00,248.59,281015,,*32
$GPRMC,083434,A,4817.9486,N,442.5633,W,10.00,248.59,281015,,*33
$GPRMC,083434,A,4817.9469,N,442.5699,W,10.00,248.59,281015,,*32
$GPRMC,083434,A,4817.9452,N,442.5764,W,10.00,248.59,281015,,*39
$GPRMC,083434,A,4817.9434,N,442.5829,W,10.00,248.59,281015,,*3F
$GPRMC,083434,A,4817.9417,N,442.5894,W,10.00,248.59,281015,,*38
$GPRMC,083434,A,4817.9400,N,442.5960,W,10.00,248.59,281015,,*34
$GPRMC,083434,A,4817.9383,N,442.6025,W,10.00,248.59,281015,,*33
$GPRMC,083434,A,4817.9366,N,442.6090,W,10.00,248.59,281015,,*36
$GPRMC,083434,A,4817.9349,N,442.6155,W,10.00,248.59,281015,,*33
$GPRMC,083434,A,4817.9332,N,442.6220,W,10.00,248.59,281015,,*3E
$GPRMC,083434,A,4817.9315,N,442.6286,W,10.00,248.59,281015,,*37
$GPRMC,083434,A,4817.9298,N,442.6351,W,10.00,248.59,281015,,*38
$GPRMC,083434,A,4817.9281,N,442.6416,W,10.00,248.59,281015,,*34
$GPRMC,083434,A,4817.9264,N,442.6481,W,10.00,248.59,281015,,*31
$GPRMC,083434,A,4817.9247,N,442.6546,W,10.00,248.59,281015,,*3A
$GPRMC,083434,A,4817.9230,N,442.6612,W,10.00,248.59,281015,,*38
$GPRMC,083434,A,4817.9213,N,442.6677,W,10.00,248.59,281015,,*3A
$GPRMC,083434,A,4817.9196,N,442.6742,W,10.00,248.59,281015,,*33
$GPRMC,083434,A,4817.9178,N,442.6807,W,10.00,248.59,281015,,*3D
$GPRMC,083434,A,4817.9161,N,442.6872,W,10.00,248.59,281015,,*37
$GPRMC,083434,A,4817.9144,N,442.6938,W,10.00,248.59,281015,,*3F
$GPRMC,083434,A,4817.9127,N,442.7003,W,10.00,248.59,281015,,*3A
$GPRMC,083434,A,4817.9110,N,442.7068,W,10.00,248.59,281015,,*33
$GPRMC,083434,A,4817.9093,N,442.7133,W,10.00,248.59,281015,,*36
$GPRMC,083434,A,4817.9076,N,442.7198,W,10.00,248.59,281015,,*3C
$GPRMC,083434,A,4817.9059,N,442.7264,W,10.00,248.59,281015,,*31
$GPRMC,083434,A,4817.9042,N,442.7329,W,10.00,248.59,281015,,*33
$GPRMC,083434,A,4817.9025,N,442.7394,W,10.00,248.59,281015,,*34
$GPRMC,083434,A,4817.9008,N,442.7459,W,10.00,248.59,281015,,*3D
$GPRMC,083434,A,4817.8991,N,442.7524,W,10.00,248.59,281015,,*3E
$GPRMC,083434,A,4817.8974,N,442.7590,W,10.00,248.59,281015,,*3A
$GPRMC,083434,A,4817.8957,N,442.7655,W,10.00,248.59,281015,,*31
$GPRMC,083434,A,4817.8940,N,442.7720,W,10.00,248.59,281015,,*34
$GPRMC,083434,A,4817.8923,N,442.7785,W,10.00,248.59,281015,,*3E
$GPRMC,083434,A,4817.8905,N,442.7850,W,10.00,248.59,281015,,*3D
$GPRMC,083434,A,4817.8888,N,442.7916,W,10.00,248.59,281015,,*3A
$GPRMC,083434,A,4817.8871,N,442.7981,W,10.00,248.59,281015,,*32
$GPRMC,083434,A,4817.8854,N,442.8046,W,10.00,248.59,281015,,*38
$GPRMC,083434,A,4817.8837,N,442.8111,W,10.00,248.59,281015,,*3E
$GPRMC,083434,A,4817.8820,N,442.8176,W,10.00,248.59,281015,,*39
$GPRMC,083434,A,4817.8803,N,442.8242,W,10.00,248.59,281015,,*3C
$GPRMC,083434,A,4817.8786,N,442.8307,W,10.00,248.59,281015,,*3E
$GPRMC,083434,A,4817.8769,N,442.8372,W,10.00,248.59,281015,,*3D
$GPRMC,083434,A,4817.8752,N,442.8437,W,10.00,248.59,281015,,*33
$GPRMC,083434,A,4817.8735,N,442.8502,W,10.00,248.59,281015,,*35
$GPRMC,083434,A,4817.8718,N,442.8568,W,10.00,248.59,281015,,*36
$GPRMC,083434,A,4817.8701,N,442.8633,W,10.00,248.59,281015,,*33
$GPRMC,083434,A,4817.8684,N,442.8698,W,10.00,248.59,281015,,*3E
$GPRMC,083434,A,4817.8667,N,442.8763,W,10.00,248.59,281015,,*36
$GPRMC,083434,A,4817.8649,N,442.8828,W,10.00,248.59,281015,,*3A
$GPRMC,083434,A,4817.8632,N,442.8894,W,10.00,248.59,281015,,*31
$GPRMC,083434,A,4817.8615,N,442.8959,W,10.00,248.59,281015,,*34
$GPRMC,083434,A,4817.8598,N,442.9024,W,10.00,248.59,281015,,*30
$GPRMC,083434,A,4817.8581,N,442.9089,W,10.00,248.59,281015,,*3F
$GPRMC,083434,A,4817.8564,N,442.9154,W,10.00,248.59,281015,,*35
$GPRMC,083434,A,4817.8547,N,442.9220,W,10.00,248.59,281015,,*34
$GPRMC,083434,A,4817.8530,N,442.9285,W,10.00,248.59,281015,,*3B
$GPRMC,083434,A,4817.8513,N,442.9350,W,10.00,248.59,281015,,*33
$GPRMC,083434,A,4817.8496,N,442.9415,W,10.00,248.59,281015,,*39
$GPRMC,083434,A,4817.8479,N,442.9480,W,10.00,248.59,281015,,*34
$GPRMC,083434,A,4817.8462,N,442.9546,W,10.00,248.59,281015,,*35
$GPRMC,083434,A,4817.8445,N,442.9611,W,10.00,248.59,281015,,*31
$GPRMC,083434,A,4817.8428,N,442.9676,W,10.00,248.59,281015,,*3B
$GPRMC,083434,A,4817.8411,N,442.9741,W,10.00,248.59,281015,,*34
$GPRMC,083434,A,4817.8393,N,442.9806,W,10.00,248.59,281015,,*35
$GPRMC,083434,A,4817.8376,N,442.9872,W,10.00,248.59,281015,,*3D
$GPRMC,083434,A,4817.8359,N,442.9937,W,10.00,248.59,281015,,*30
$GPRMC,083434,A,4817.8342,N,443.0002,W,10.00,248.59,281015,,*3D
$GPRMC,083434,A,4817.8325,N,443.0067,W,10.00,248.59,281015,,*3F
$GPRMC,083434,A,4817.8308,N,443.0132,W,10.00,248.59,281015,,*31
$GPRMC,083434,A,4817.8291,N,443.0198,W,10.00,248.59,281015,,*30
$GPRMC,083434,A,4817.8274,N,443.0263,W,10.00,248.59,281015,,*3C
$GPRMC,083434,A,4817.8257,N,443.0328,W,10.00,248.59,281015,,*33
$GPRMC,083434,A,4817.8240,N,443.0393,W,10.00,248.59,281015,,*35
$GPRMC,083434,A,4817.8223,N,443.0458,W,10.00,248.59,281015,,*30
$GPRMC,083434,A,4817.8206,N,443.0524,W,10.00,248.59,281015,,*3D
$GPRMC,083434,A,4817.8189,N,443.0589,W,10.00,248.59,281015,,*3E
$GPRMC,083434,A,4817.8172,N,443.0654,W,10.00,248.59,281015,,*39
$GPRMC,083434,A,4817.8155,N,443.0719,W,10.00,248.59,281015,,*34
$GPRMC,083434,A,4817.8137,N,443.0784,W,10.00,248.59,281015,,*34
$GPRMC,083434,A,4817.8120,N,443.0850,W,10.00,248.59,281015,,*34
$GPRMC,083434,A,4817.8103,N,443.0915,W,10.00,248.59,281015,,*35
$GPRMC,083434,A,4817.8086,N,443.0980,W,10.00,248.59,281015,,*35
$GPRMC,083434,A,4817.8069,N,443.1045,W,10.00,248.59,281015,,*35
$GPRMC,083434,A,4817.8052,N,443.1110,W,10.00,248.59,281015,,*3C
$GPRMC,083434,A,4817.8035,N,443.1176,W,10.00,248.59,281015,,*3D
$GPRMC,083434,A,4817.8018,N,443.1241,W,10.00,248.59,281015,,*35
$GPRMC,083434,A,4817.8001,N,443.1306,W,10.00,248.59,281015,,*3F
$GPRMC,083434,A,4817.7984,N,443.1371,W,10.00,248.59,281015,,*34
$GPRMC,083434,A,4817.7967,N,443.1436,W,10.00,248.59,281015,,*3D
$GPRMC,083434,A,4817.7950,N,443.1502,W,10.00,248.59,281015,,*3F
$GPRMC,083434,A,4817.7933,N,443.1567,W,10.00,248.59,281015,,*39
$GPRMC,083434,A,4817.7916,N,443.1632,W,10.00,248.59,281015,,*3D
$GPRMC,083434,A,4817.7898,N,443.1697,W,10.00,248.59,281015,,*35
$GPRMC,083434,A,4817.7881,N,443.1762,W,10.00,248.59,281015,,*36
$GPRMC,083434,A,4817.7864,N,443.1828,W,10.00,248.59,281015,,*3C
$GPRMC,083434,A,4817.7847,N,443.1893,W,10.00,248.59,281015,,*3D
$GPRMC,083434,A,4817.7830,N,443.1958,W,10.00,248.59,281015,,*3B
$GPRMC,083434,A,4817.7813,N,443.2023,W,10.00,248.59,281015,,*3C
$GPRMC,083434,A,4817.7796,N,443.2088,W,10.00,248.59,281015,,*3F
$GPRMC,083434,A,4817.7779,N,443.2154,W,10.00,248.59,281015,,*3E
$GPRMC,083434,A,4817.7762,N,443.2219,W,10.00,248.59,281015,,*3E
$GPRMC,083434,A,4817.7745,N,443.2284,W,10.00,248.59,281015,,*3F
$GPRMC,083434,A,4817.7728,N,443.2349,W,10.00,248.59,281015,,*34
$GPRMC,083434,A,4817.7711,N,443.2414,W,10.00,248.59,281015,,*31
$GPRMC,083434,A,4817.7694,N,443.2480,W,10.00,248.59,281015,,*30
$GPRMC,083434,A,4817.7677,N,443.2545,W,10.00,248.59,281015,,*35
$GPRMC,083434,A,4817.7660,N,443.2610,W,10.00,248.59,281015,,*30
$GPRMC,083434,A,4817.7642,N,443.2675,W,10.00,248.59,281015,,*33
$GPRMC,083434,A,4817.7625,N,443.2740,W,10.00,248.59,281015,,*35
$GPRMC,083434,A,4817.7608,N,443.2806,W,10.00,248.59,281015,,*37
$GPRMC,083434,A,4817.7591,N,443.2871,W,10.00,248.59,281015,,*34
$GPRMC,083434,A,4817.7574,N,443.2936,W,10.00,248.59,281015,,*3D
$GPRMC,083434,A,4817.7557,N,443.3001,W,10.00,248.59,281015,,*30
$GPRMC,083434,A,4817.7540,N,443.3066,W,10.00,248.59,281015,,*37
$GPRMC,083434,A,4817.7523,N,443.3132,W,10.00,248.59,281015,,*32
$GPRMC,083434,A,4817.7506,N,443.3197,W,10.00,248.59,281015,,*3A
$GPRMC,083434,A,4817.7489,N,443.3262,W,10.00,248.59,281015,,*35
$GPRMC,083434,A,4817.7472,N,443.3327,W,10.00,248.59,281015,,*31
$GPRMC,083434,A,4817.7455,N,443.3392,W,10.00,248.59,281015,,*3A
$GPRMC,083434,A,4817.7438,N,443.3458,W,10.00,248.59,281015,,*30
$GPRMC,083434,A,4817.7421,N,443.3523,W,10.00,248.59,281015,,*35
$GPRMC,083434,A,4817.7403,N,443.3588,W,10.00,248.59,281015,,*34
$GPRMC,083434,A,4817.7386,N,443.3653,W,10.00,248.59,281015,,*3B
$GPRMC,083434,A,4817.7369,N,443.3718,W,10.00,248.59,281015,,*34
$GPRMC,083434,A,4817.7352,N,443.3784,W,10.00,248.59,281015,,*39
$GPRMC,083434,A,4817.7335,N,443.3849,W,10.00,248.59,281015,,*36
$GPRMC,083434,A,4817.7318,N,443.3914,W,10.00,248.59,281015,,*30
$GPRMC,083434,A,4817.7301,N,443.3979,W,10.00,248.59,281015,,*33
$GPRMC,083434,A,4817.7284,N,443.4044,W,10.00,248.59,281015,,*3F
$GPRMC,083434,A,4817.7267,N,443.4110,W,10.00,248.59,281015,,*32
$GPRMC,083434,A,4817.7250,N,443.4175,W,10.00,248.59,281015,,*35
$GPRMC,083434,A,4817.7233,N,443.4240,W,10.00,248.59,281015,,*35
$GPRMC,083434,A,4817.7216,N,443.4305,W,10.00,248.59,281015,,*32
$GPRMC,083434,A,4817.7199,N,443.4370,W,10.00,248.59,281015,,*34
$GPRMC,083434,A,4817.7182,N,443.4435,W,10.00,248.59,281015,,*38
$GPRMC,083434,A,4817.7164,N,443.4501,W,10.00,248.59,281015,,*36
$GPRMC,083434,A,4817.7147,N,443.4566,W,10.00,248.59,281015,,*36
$GPRMC,083434,A,4817.7130,N,443.4631,W,10.00,248.59,281015,,*37
$GPRMC,083434,A,4817.7113,N,443.4696,W,10.00,248.59,281015,,*3B
$GPRMC,083434,A,4817.7096,N,443.4761,W,10.00,248.59,281015,,*3E
$GPRMC,083434,A,4817.7079,N,443.4827,W,10.00,248.59,281015,,*32
$GPRMC,083434,A,4817.7062,N,443.4892,W,10.00,248.59,281015,,*36
$GPRMC,083434,A,4817.7045,N,443.4957,W,10.00,248.59,281015,,*3B
$GPRMC,083434,A,4817.7028,N,443.5022,W,10.00,248.59,281015,,*3A
$GPRMC,083434,A,4817.7011,N,443.5087,W,10.00,248.59,281015,,*3F
$GPRMC,083434,A,4817.6994,N,443.5153,W,10.00,248.59,281015,,*32
$GPRMC,083434,A,4817.6977,N,443.5218,W,10.00,248.59,281015,,*33
$GPRMC,083434,A,4817.6960,N,443.5283,W,10.00,248.59,281015,,*37
$GPRMC,083434,A,4817.6943,N,443.5348,W,10.00,248.59,281015,,*30
$GPRMC,083434,A,4817.6925,N,443.5413,W,10.00,248.59,281015,,*39
$GPRMC,083434,A,4817.6908,N,443.5479,W,10.00,248.59,281015,,*3A
$GPRMC,083434,A,4817.6891,N,443.5544,W,10.00,248.59,281015,,*34
$GPRMC,083434,A,4817.6874,N,443.5609,W,10.00,248.59,281015,,*35
$GPRMC,083434,A,4817.6857,N,443.5674,W,10.00,248.59,281015,,*3E
$GPRMC,083434,A,4817.6840,N,443.5739,W,10.00,248.59,281015,,*30
$GPRMC,083434,A,4817.6823,N,443.5805,W,10.00,248.59,281015,,*35
$GPRMC,083434,A,4817.6806,N,443.5870,W,10.00,248.59,281015,,*30
$GPRMC,083434,A,4817.6789,N,443.5935,W,10.00,248.59,281015,,*38
$GPRMC,083434,A,4817.6772,N,443.6000,W,10.00,248.59,281015,,*30
$GPRMC,083434,A,4817.6755,N,443.6065,W,10.00,248.59,281015,,*36
$GPRMC,083434,A,4817.6738,N,443.6131,W,10.00,248.59,281015,,*3D
$GPRMC,083434,A,4817.6721,N,443.6196,W,10.00,248.59,281015,,*38
$GPRMC,083434,A,4817.6703,N,443.6261,W,10.00,248.59,281015,,*33
$GPRMC,083434,A,4817.6686,N,443.6326,W,10.00,248.59,281015,,*3D
$GPRMC,083434,A,4817.6669,N,443.6391,W,10.00,248.59,281015,,*30
$GPRMC,083434,A,4817.6652,N,443.6456,W,10.00,248.59,281015,,*34
$GPRMC,083434,A,4817.6635,N,443.6522,W,10.00,248.59,281015,,*37
$GPRMC,083434,A,4817.6618,N,443.6587,W,10.00,248.59,281015,,*37
$GPRMC,083434,A,4817.6601,N,443.6652,W,10.00,248.59,281015,,*34
$GPRMC,083434,A,4817.6584,N,443.6717,W,10.00,248.59,281015,,*3A
