$GPRMC,124702,A,4821.8287,N,429.2394,W,10.00,180.34,161016,,*3A
$GPRMC,124702,A,4821.8233,N,429.2395,W,10.00,180.34,161016,,*34
$GPRMC,124702,A,4821.8178,N,429.2395,W,10.00,180.34,161016,,*38
$GPRMC,124702,A,4821.8123,N,429.2396,W,10.00,180.34,161016,,*35
$GPRMC,124702,A,4821.8069,N,429.2396,W,10.00,180.34,161016,,*3A
$GPRMC,124702,A,4821.8014,N,429.2396,W,10.00,180.34,161016,,*30
$GPRMC,124702,A,4821.7960,N,429.2397,W,10.00,180.34,161016,,*34
$GPRMC,124702,A,4821.7905,N,429.2397,W,10.00,180.34,161016,,*37
$GPRMC,124702,A,4821.7850,N,429.2398,W,10.00,180.34,161016,,*39
$GPRMC,124702,A,4821.7796,N,429.2398,W,10.00,180.34,161016,,*3C
$GPRMC,124702,A,4821.7741,N,429.2399,W,10.00,180.34,161016,,*37
$GPRMC,124702,A,4821.7687,N,429.2399,W,10.00,180.34,161016,,*3C
$GPRMC,124702,A,4821.7632,N,429.2400,W,10.00,180.34,161016,,*35
$GPRMC,124702,A,4821.7577,N,429.2400,W,10.00,180.34,161016,,*37
$GPRMC,124702,A,4821.7523,N,429.2401,W,10.00,180.34,161016,,*37
$GPRMC,124702,A,4821.7468,N,429.2401,W,10.00,180.34,161016,,*39
$GPRMC,124702,A,4821.7414,N,429.2402,W,10.00,180.34,161016,,*31
$GPRMC,124702,A,4821.7359,N,429.2402,W,10.00,180.34,161016,,*3F
$GPRMC,124702,A,4821.7305,N,429.2403,W,10.00,180.34,161016,,*37
$GPRMC,124702,A,4821.7250,N,429.2403,W,10.00,180.34,161016,,*36
$GPRMC,124702,A,4821.7195,N,429.2404,W,10.00,180.34,161016,,*3B
$GPRMC,124702,A,4821.7141,N,429.2404,W,10.00,180.34,161016,,*32
$GPRMC,124702,A,4821.7086,N,429.2405,W,10.00,180.34,161016,,*39
$GPRMC,124702,A,4821.7032,N,429.2405,W,10.00,180.34,161016,,*36
$GPRMC,124702,A,4821.6977,N,429.2406,W,10.00,180.34,161016,,*3C
$GPRMC,124702,A,4821.6922,N,429.2406,W,10.00,180.34,161016,,*3C
$GPRMC,124702,A,4821.6868,N,429.2407,W,10.00,180.34,161016,,*32
$GPRMC,124702,A,4821.6813,N,429.2407,W,10.00,180.34,161016,,*3E
$GPRMC,124702,A,4821.6759,N,429.2408,W,10.00,180.34,161016,,*30
$GPRMC,124702,A,4821.6704,N,429.2408,W,10.00,180.34,161016,,*38
$GPRMC,124702,A,4821.6649,N,429.2409,W,10.00,180.34,161016,,*31
$GPRMC,124702,A,4821.6595,N,429.2409,W,10.00,180.34,161016,,*33
$GPRMC,124702,A,4821.6540,N,429.2409,W,10.00,180.34,161016,,*3B
$GPRMC,124702,A,4821.6486,N,429.2410,W,10.00,180.34,161016,,*38
$GPRMC,124702,A,4821.6431,N,429.2410,W,10.00,180.34,161016,,*34
$GPRMC,124702,A,4821.6377,N,429.2411,W,10.00,180.34,161016,,*30
$GPRMC,124702,A,4821.6322,N,429.2411,W,10.00,180.34,161016,,*30
$GPRMC,124702,A,4821.6267,N,429.2412,W,10.00,180.34,161016,,*33
$GPRMC,124702,A,4821.6213,N,429.2412,W,10.00,180.34,161016,,*30
$GPRMC,124702,A,4821.6158,N,429.2413,W,10.00,180.34,161016,,*3D
$GPRMC,124702,A,4821.6104,N,429.2413,W,10.00,180.34,161016,,*34
$GPRMC,124702,A,4821.6049,N,429.2414,W,10.00,180.34,161016,,*3B
$GPRMC,124702,A,4821.5994,N,429.2414,W,10.00,180.34,161016,,*31
$GPRMC,124702,A,4821.5940,N,429.2415,W,10.00,180.34,161016,,*39
$GPRMC,124702,A,4821.5885,N,429.2415,W,10.00,180.34,161016,,*31
$GPRMC,124702,A,4821.5831,N,429.2416,W,10.00,180.34,161016,,*3D
$GPRMC,124702,A,4821.5776,N,429.2416,W,10.00,180.34,161016,,*31
$GPRMC,124702,A,4821.5721,N,429.2417,W,10.00,180.34,161016,,*32
$GPRMC,124702,A,4821.5667,N,429.2417,W,10.00,180.34,161016,,*31
$GPRMC,124702,A,4821.5612,N,429.2418,W,10.00,180.34,161016,,*3C
$GPRMC,124702,A,4821.5558,N,429.2418,W,10.00,180.34,161016,,*31
$GPRMC,124702,A,4821.5503,N,429.2419,W,10.00,180.34,161016,,*3E
$GPRMC,124702,A,4821.5449,N,429.2419,W,10.00,180.34,161016,,*31
$GPRMC,124702,A,4821.5394,N,429.2420,W,10.00,180.34,161016,,*3C
$GPRMC,124702,A,4821.5339,N,429.2420,W,10.00,180.34,161016,,*3B
$GPRMC,124702,A,4821.5285,N,429.2421,W,10.00,180.34,161016,,*3C
$GPRMC,124702,A,4821.5230,N,429.2421,W,10.00,180.34,161016,,*32
$GPRMC,124702,A,4821.5176,N,429.2421,W,10.00,180.34,161016,,*33
$GPRMC,124702,A,4821.5121,N,429.2422,W,10.00,180.34,161016,,*32
$GPRMC,124702,A,4821.5066,N,429.2422,W,10.00,180.34,161016,,*30
$GPRMC,124702,A,4821.5012,N,429.2423,W,10.00,180.34,161016,,*32
$GPRMC,124702,A,4821.4957,N,429.2423,W,10.00,180.34,161016,,*3B
$GPRMC,124702,A,4821.4903,N,429.2424,W,10.00,180.34,161016,,*3D
$GPRMC,124702,A,4821.4848,N,429.2424,W,10.00,180.34,161016,,*33
$GPRMC,124702,A,4821.4793,N,429.2425,W,10.00,180.34,161016,,*3B
$GPRMC,124702,A,4821.4739,N,429.2425,W,10.00,180.34,161016,,*3B
$GPRMC,124702,A,4821.4684,N,429.2426,W,10.00,180.34,161016,,*3F
$GPRMC,124702,A,4821.4630,N,429.2426,W,10.00,180.34,161016,,*30
$GPRMC,124702,A,4821.4575,N,429.2427,W,10.00,180.34,161016,,*33
$GPRMC,124702,A,4821.4520,N,429.2427,W,10.00,180.34,161016,,*33
$GPRMC,124702,A,4821.4466,N,429.2428,W,10.00,180.34,161016,,*3F
$GPRMC,124702,A,4821.4411,N,429.2428,W,10.00,180.34,161016,,*3F
$GPRMC,124702,A,4821.4357,N,429.2429,W,10.00,180.34,161016,,*3B
$GPRMC,124702,A,4821.4302,N,429.2429,W,10.00,180.34,161016,,*3B
$GPRMC,124702,A,4821.4248,N,429.2430,W,10.00,180.34,161016,,*3C
$GPRMC,124702,A,4821.4193,N,429.2430,W,10.00,180.34,161016,,*39
$GPRMC,124702,A,4821.4138,N,429.2431,W,10.00,180.34,161016,,*39
$GPRMC,124702,A,4821.4084,N,429.2431,W,10.00,180.34,161016,,*3F
$GPRMC,124702,A,4821.4029,N,429.2432,W,10.00,180.34,161016,,*3B
$GPRMC,124702,A,4821.3975,N,429.2432,W,10.00,180.34,161016,,*3C
$GPRMC,124702,A,4821.3920,N,429.2433,W,10.00,180.34,161016,,*3D
$GPRMC,124702,A,4821.3865,N,429.2433,W,10.00,180.34,161016,,*3D
$GPRMC,124702,A,4821.3811,N,429.2434,W,10.00,180.34,161016,,*39
$GPRMC,124702,A,4821.3756,N,429.2434,W,10.00,180.34,161016,,*35
$GPRMC,124702,A,4821.3702,N,429.2434,W,10.00,180.34,161016,,*34
$GPRMC,124702,A,4821.3647,N,429.2435,W,10.00,180.34,161016,,*35
$GPRMC,124702,A,4821.3592,N,429.2435,W,10.00,180.34,161016,,*3E
$GPRMC,124702,A,4821.3538,N,429.2436,W,10.00,180.34,161016,,*3D
$GPRMC,124702,A,4821.3483,N,429.2436,W,10.00,180.34,161016,,*3C
$GPRMC,124702,A,4821.3429,N,429.2437,W,10.00,180.34,161016,,*3D
$GPRMC,124702,A,4821.3374,N,429.2437,W,10.00,180.34,161016,,*32
$GPRMC,124702,A,4821.3320,N,429.2438,W,10.00,180.34,161016,,*3C
$GPRMC,124702,A,4821.3265,N,429.2438,W,10.00,180.34,161016,,*3C
$GPRMC,124702,A,4821.3210,N,429.2439,W,10.00,180.34,161016,,*3F
$GPRMC,124702,A,4821.3156,N,429.2439,W,10.00,180.34,161016,,*3E
$GPRMC,124702,A,4821.3101,N,429.2440,W,10.00,180.34,161016,,*32
$GPRMC,124702,A,4821.3047,N,429.2440,W,10.00,180.34,161016,,*31
$GPRMC,124702,A,4821.2992,N,429.2441,W,10.00,180.34,161016,,*30
$GPRMC,124702,A,4821.2937,N,429.2441,W,10.00,180.34,161016,,*3F
$GPRMC,124702,A,4821.2883,N,429.2442,W,10.00,180.34,161016,,*32
$GPRMC,124702,A,4821.2828,N,429.2442,W,10.00,180.34,161016,,*33
$GPRMC,124702,A,4821.2774,N,429.2443,W,10.00,180.34,161016,,*34
$GPRMC,124702,A,4821.2719,N,429.2443,W,10.00,180.34,161016,,*3F
$GPRMC,124702,A,4821.2664,N,429.2444,W,10.00,180.34,161016,,*33
$GPRMC,124702,A,4821.2610,N,429.2444,W,10.00,180.34,161016,,*30
$GPRMC,124702,A,4821.2555,N,429.2445,W,10.00,180.34,161016,,*33
$GPRMC,124702,A,4821.2501,N,429.2445,W,10.00,180.34,161016,,*32
$GPRMC,124702,A,4821.2446,N,429.2446,W,10.00,180.34,161016,,*33
$GPRMC,124702,A,4821.2392,N,429.2446,W,10.00,180.34,161016,,*3D
$GPRMC,124702,A,4821.2337,N,429.2446,W,10.00,180.34,161016,,*32
$GPRMC,124702,A,4821.2282,N,429.2447,W,10.00,180.34,161016,,*3C
$GPRMC,124702,A,4821.2228,N,429.2447,W,10.00,180.34,161016,,*3C
$GPRMC,124702,A,4821.2173,N,429.2448,W,10.00,180.34,161016,,*3E
$GPRMC,124702,A,4821.2119,N,429.2448,W,10.00,180.34,161016,,*32
$GPRMC,124702,A,4821.2064,N,429.2449,W,10.00,180.34,161016,,*38
$GPRMC,124702,A,4821.2009,N,429.2449,W,10.00,180.34,161016,,*33
$GPRMC,124702,A,4821.1955,N,429.2450,W,10.00,180.34,161016,,*38
$GPRMC,124702,A,4821.1900,N,429.2450,W,10.00,180.34,161016,,*38
$GPRMC,124702,A,4821.1846,N,429.2451,W,10.00,180.34,161016,,*3A
$GPRMC,124702,A,4821.1791,N,429.2451,W,10.00,180.34,161016,,*3F
$GPRMC,124702,A,4821.1736,N,429.2452,W,10.00,180.34,161016,,*31
$GPRMC,124702,A,4821.1682,N,429.2452,W,10.00,180.34,161016,,*3F
$GPRMC,124702,A,4821.1627,N,429.2453,W,10.00,180.34,161016,,*31
$GPRMC,124702,A,4821.1573,N,429.2453,W,10.00,180.34,161016,,*33
$GPRMC,124702,A,4821.1518,N,429.2454,W,10.00,180.34,161016,,*39
$GPRMC,124702,A,4821.1464,N,429.2454,W,10.00,180.34,161016,,*33
$GPRMC,124702,A,4821.1409,N,429.2455,W,10.00,180.34,161016,,*39
$GPRMC,124702,A,4821.1354,N,429.2455,W,10.00,180.34,161016,,*36
$GPRMC,124702,A,4821.1300,N,429.2456,W,10.00,180.34,161016,,*34
$GPRMC,124702,A,4821.1245,N,429.2456,W,10.00,180.34,161016,,*34
$GPRMC,124702,A,4821.1191,N,429.2457,W,10.00,180.34,161016,,*3F
$GPRMC,124702,A,4821.1136,N,429.2457,W,10.00,180.34,161016,,*32
$GPRMC,124702,A,4821.1081,N,429.2458,W,10.00,180.34,161016,,*30
$GPRMC,124702,A,4821.1027,N,429.2458,W,10.00,180.34,161016,,*3C
$GPRMC,124702,A,4821.0972,N,429.2459,W,10.00,180.34,161016,,*35
$GPRMC,124702,A,4821.0918,N,429.2459,W,10.00,180.34,161016,,*39
$GPRMC,124702,A,4821.0863,N,429.2459,W,10.00,180.34,161016,,*34
$GPRMC,124702,A,4821.0808,N,429.2460,W,10.00,180.34,161016,,*33
$GPRMC,124702,A,4821.0754,N,429.2460,W,10.00,180.34,161016,,*35
$GPRMC,124702,A,4821.0699,N,429.2461,W,10.00,180.34,161016,,*34
$GPRMC,124702,A,4821.0645,N,429.2461,W,10.00,180.34,161016,,*35
$GPRMC,124702,A,4821.0590,N,429.2462,W,10.00,180.34,161016,,*3D
$GPRMC,124702,A,4821.0536,N,429.2462,W,10.00,180.34,161016,,*31
$GPRMC,124702,A,4821.0481,N,429.2463,W,10.00,180.34,161016,,*3D
$GPRMC,124702,A,4821.0426,N,429.2463,W,10.00,180.34,161016,,*30
$GPRMC,124702,A,4821.0372,N,429.2464,W,10.00,180.34,161016,,*31
$GPRMC,124702,A,4821.0317,N,429.2464,W,10.00,180.34,161016,,*32
$GPRMC,124702,A,4821.0263,N,429.2465,W,10.00,180.34,161016,,*31
$GPRMC,124702,A,4821.0208,N,429.2465,W,10.00,180.34,161016,,*3C
$GPRMC,124702,A,4821.0153,N,429.2466,W,10.00,180.34,161016,,*32
$GPRMC,124702,A,4821.0099,N,429.2466,W,10.00,180.34,161016,,*35
$GPRMC,124702,A,4821.0044,N,429.2467,W,10.00,180.34,161016,,*34
$GPRMC,124702,A,4820.9990,N,429.2467,W,10.00,180.34,161016,,*3C
$GPRMC,124702,A,4820.9935,N,429.2468,W,10.00,180.34,161016,,*3C
$GPRMC,124702,A,4820.9880,N,429.2468,W,10.00,180.34,161016,,*33
$GPRMC,124702,A,4820.9826,N,429.2469,W,10.00,180.34,161016,,*3E
$GPRMC,124702,A,4820.9771,N,429.2469,W,10.00,180.34,161016,,*33
$GPRMC,124702,A,4820.9717,N,429.2470,W,10.00,180.34,161016,,*3B
$GPRMC,124702,A,4820.9662,N,429.2470,W,10.00,180.34,161016,,*38
$GPRMC,124702,A,4820.9608,N,429.2471,W,10.00,180.34,161016,,*35
$GPRMC,124702,A,4820.9553,N,429.2471,W,10.00,180.34,161016,,*38
$GPRMC,124702,A,4820.9498,N,429.2471,W,10.00,180.34,161016,,*3E
$GPRMC,124702,A,4820.9444,N,429.2472,W,10.00,180.34,161016,,*3C
$GPRMC,124702,A,4820.9389,N,429.2472,W,10.00,180.34,161016,,*3A
$GPRMC,124702,A,4820.9335,N,429.2473,W,10.00,180.34,161016,,*3C
$GPRMC,124702,A,4820.9280,N,429.2473,W,10.00,180.34,161016,,*33
$GPRMC,124702,A,4820.9225,N,429.2474,W,10.00,180.34,161016,,*3B
$GPRMC,124702,A,4820.9171,N,429.2474,W,10.00,180.34,161016,,*39
$GPRMC,124702,A,4820.9116,N,429.2475,W,10.00,180.34,161016,,*39
$GPRMC,124702,A,4820.9062,N,429.2475,W,10.00,180.34,161016,,*3B
$GPRMC,124702,A,4820.9007,N,429.2476,W,10.00,180.34,161016,,*3B
$GPRMC,124702,A,4820.8952,N,429.2476,W,10.00,180.34,161016,,*33
$GPRMC,124702,A,4820.8898,N,429.2477,W,10.00,180.34,161016,,*35
$GPRMC,124702,A,4820.8843,N,429.2477,W,10.00,180.34,161016,,*33
$GPRMC,124702,A,4820.8789,N,429.2478,W,10.00,180.34,161016,,*35
$GPRMC,124702,A,4820.8734,N,429.2478,W,10.00,180.34,161016,,*33
$GPRMC,124702,A,4820.8679,N,429.2479,W,10.00,180.34,161016,,*3A
$GPRMC,124702,A,4820.8625,N,429.2479,W,10.00,180.34,161016,,*33
$GPRMC,124702,A,4820.8570,N,429.2480,W,10.00,180.34,161016,,*36
$GPRMC,124702,A,4820.8516,N,429.2480,W,10.00,180.34,161016,,*36
$GPRMC,124702,A,4820.8461,N,429.2481,W,10.00,180.34,161016,,*36
$GPRMC,124702,A,4820.8407,N,429.2481,W,10.00,180.34,161016,,*36
$GPRMC,124702,A,4820.8352,N,429.2482,W,10.00,180.34,161016,,*32
$GPRMC,124702,A,4820.8297,N,429.2482,W,10.00,180.34,161016,,*3A
$GPRMC,124702,A,4820.8243,N,429.2483,W,10.00,180.34,161016,,*32
$GPRMC,124702,A,4820.8188,N,429.2483,W,10.00,180.34,161016,,*36
$GPRMC,124702,A,4820.8134,N,429.2483,W,10.00,180.34,161016,,*31
$GPRMC,124702,A,4820.8079,N,429.2484,W,10.00,180.34,161016,,*3E
$GPRMC,124702,A,4820.8024,N,429.2484,W,10.00,180.34,161016,,*36
$GPRMC,124702,A,4820.7970,N,429.2485,W,10.00,180.34,161016,,*30
$GPRMC,124702,A,4820.7915,N,429.2485,W,10.00,180.34,161016,,*33
$GPRMC,124702,A,4820.7861,N,429.2486,W,10.00,180.34,161016,,*32
$GPRMC,124702,A,4820.7806,N,429.2486,W,10.00,180.34,161016,,*33
$GPRMC,124702,A,4820.7751,N,429.2487,W,10.00,180.34,161016,,*3F
$GPRMC,124702,A,4820.7697,N,429.2487,W,10.00,180.34,161016,,*34
$GPRMC,124702,A,4820.7642,N,429.2488,W,10.00,180.34,161016,,*33
$GPRMC,124702,A,4820.7588,N,429.2488,W,10.00,180.34,161016,,*36
$GPRMC,124702,A,4820.7533,N,429.2489,W,10.00,180.34,161016,,*37
$GPRMC,124702,A,4820.7479,N,429.2489,W,10.00,180.34,161016,,*38
$GPRMC,124702,A,4820.7424,N,429.2490,W,10.00,180.34,161016,,*38
$GPRMC,124702,A,4820.7369,N,429.2490,W,10.00,180.34,161016,,*36
$GPRMC,124702,A,4820.7315,N,429.2491,W,10.00,180.34,161016,,*3C
$GPRMC,124702,A,4820.7260,N,429.2491,W,10.00,180.34,161016,,*3F
$GPRMC,124702,A,4820.7206,N,429.2492,W,10.00,180.34,161016,,*3C
$GPRMC,124702,A,4820.7151,N,429.2492,W,10.00,180.34,161016,,*3D
$GPRMC,124702,A,4820.7096,N,429.2493,W,10.00,180.34,161016,,*36
$GPRMC,124702,A,4820.7042,N,429.2493,W,10.00,180.34,161016,,*3F
$GPRMC,124702,A,4820.6987,N,429.2494,W,10.00,180.34,161016,,*39
$GPRMC,124702,A,4820.6933,N,429.2494,W,10.00,180.34,161016,,*36
$GPRMC,124702,A,4820.6878,N,429.2495,W,10.00,180.34,161016,,*39
$GPRMC,124702,A,4820.6823,N,429.2495,W,10.00,180.34,161016,,*37
$GPRMC,124702,A,4820.6769,N,429.2496,W,10.00,180.34,161016,,*35
$GPRMC,124702,A,4820.6714,N,429.2496,W,10.00,180.34,161016,,*3F
$GPRMC,124702,A,4820.6660,N,429.2496,W,10.00,180.34,161016,,*3D
$GPRMC,124702,A,4820.6605,N,429.2497,W,10.00,180.34,161016,,*3F
$GPRMC,124702,A,4820.6551,N,429.2497,W,10.00,180.34,161016,,*3D
$GPRMC,124702,A,4820.6496,N,429.2498,W,10.00,180.34,161016,,*38
$GPRMC,124702,A,4820.6441,N,429.2498,W,10.00,180.34,161016,,*32
$GPRMC,124702,A,4820.6387,N,429.2499,W,10.00,180.34,161016,,*3E
$GPRMC,124702,A,4820.6332,N,429.2499,W,10.00,180.34,161016,,*30
$GPRMC,124702,A,4820.6278,N,429.2500,W,10.00,180.34,161016,,*3E
$GPRMC,124702,A,4820.6223,N,429.2500,W,10.00,180.34,161016,,*30
$GPRMC,124702,A,4820.6168,N,429.2501,W,10.00,180.34,161016,,*3D
$GPRMC,124702,A,4820.6114,N,429.2501,W,10.00,180.34,161016,,*36
$GPRMC,124702,A,4820.6059,N,429.2502,W,10.00,180.34,161016,,*3D
$GPRMC,124702,A,4820.6005,N,429.2502,W,10.00,180.34,161016,,*34
$GPRMC,124702,A,4820.5950,N,429.2503,W,10.00,180.34,161016,,*3F
$GPRMC,124702,A,4820.5895,N,429.2503,W,10.00,180.34,161016,,*37
$GPRMC,124702,A,4820.5841,N,429.2504,W,10.00,180.34,161016,,*39
$GPRMC,124702,A,4820.5786,N,429.2504,W,10.00,180.34,161016,,*3D
$GPRMC,124702,A,4820.5732,N,429.2505,W,10.00,180.34,161016,,*33
$GPRMC,124702,A,4820.5677,N,429.2505,W,10.00,180.34,161016,,*33
$GPRMC,124702,A,4820.5623,N,429.2506,W,10.00,180.34,161016,,*31
$GPRMC,124702,A,4820.5568,N,429.2506,W,10.00,180.34,161016,,*3D
$GPRMC,124702,A,4820.5513,N,429.2507,W,10.00,180.34,161016,,*30
$GPRMC,124702,A,4820.5459,N,429.2507,W,10.00,180.34,161016,,*3F
$GPRMC,124702,A,4820.5404,N,429.2508,W,10.00,180.34,161016,,*38
$GPRMC,124702,A,4820.5350,N,429.2508,W,10.00,180.34,161016,,*3E
$GPRMC,124702,A,4820.5295,N,429.2508,W,10.00,180.34,161016,,*36
$GPRMC,124702,A,4820.5240,N,429.2509,W,10.00,180.34,161016,,*3F
$GPRMC,124702,A,4820.5186,N,429.2509,W,10.00,180.34,161016,,*36
$GPRMC,124702,A,4820.5131,N,429.2510,W,10.00,180.34,161016,,*32
$GPRMC,124702,A,4820.5077,N,429.2510,W,10.00,180.34,161016,,*31
$GPRMC,124702,A,4820.5022,N,429.2511,W,10.00,180.34,161016,,*30
$GPRMC,124702,A,4820.4967,N,429.2511,W,10.00,180.34,161016,,*39
$GPRMC,124702,A,4820.4954,N,429.2511,W,10.00,266.02,161016,,*37
$GPRMC,124702,A,4820.4947,N,429.2653,W,10.00,266.02,161016,,*30
$GPRMC,124702,A,4820.4941,N,429.2794,W,10.00,266.02,161016,,*3C
$GPRMC,124702,A,4820.4934,N,429.2936,W,10.00,266.02,161016,,*38
$GPRMC,124702,A,4820.4928,N,429.3077,W,10.00,266.02,161016,,*38
$GPRMC,124702,A,4820.4921,N,429.3218,W,10.00,266.02,161016,,*3A
$GPRMC,124702,A,4820.4915,N,429.3360,W,10.00,266.02,161016,,*33
$GPRMC,124702,A,4820.4908,N,429.3501,W,10.00,266.02,161016,,*3E
$GPRMC,124702,A,4820.4901,N,429.3642,W,10.00,266.02,161016,,*33
$GPRMC,124702,A,4820.4895,N,429.3784,W,10.00,266.02,161016,,*34
$GPRMC,124702,A,4820.4888,N,429.3925,W,10.00,266.02,161016,,*3D
$GPRMC,124702,A,4820.4882,N,429.4066,W,10.00,266.02,161016,,*3E
$GPRMC,124702,A,4820.4875,N,429.4208,W,10.00,266.02,161016,,*3C
$GPRMC,124702,A,4820.4869,N,429.4349,W,10.00,266.02,161016,,*35
$GPRMC,124702,A,4820.4862,N,429.4490,W,10.00,266.02,161016,,*3D
$GPRMC,124702,A,4820.4855,N,429.4632,W,10.00,266.02,161016,,*33
$GPRMC,124702,A,4820.4849,N,429.4773,W,10.00,266.02,161016,,*3A
$GPRMC,124702,A,4820.4842,N,429.4914,W,10.00,266.02,161016,,*3E
$GPRMC,124702,A,4820.4836,N,429.5056,W,10.00,266.02,161016,,*33
$GPRMC,124702,A,4820.4829,N,429.5197,W,10.00,266.02,161016,,*31
$GPRMC,124702,A,4820.4823,N,429.5338,W,10.00,266.02,161016,,*3C
$GPRMC,124702,A,4820.4816,N,429.5480,W,10.00,266.02,161016,,*3E
$GPRMC,124702,A,4820.4810,N,429.5621,W,10.00,266.02,161016,,*31
$GPRMC,124702,A,4820.4803,N,429.5762,W,10.00,266.02,161016,,*35
$GPRMC,124702,A,4820.4796,N,429.5904,W,10.00,266.02,161016,,*38
$GPRMC,124702,A,4820.4790,N,429.6045,W,10.00,266.02,161016,,*31
$GPRMC,124702,A,4820.4783,N,429.6186,W,10.00,266.02,161016,,*3D
$GPRMC,124702,A,4820.4777,N,429.6328,W,10.00,266.02,161016,,*30
$GPRMC,124702,A,4820.4770,N,429.6469,W,10.00,266.02,161016,,*35
$GPRMC,124702,A,4820.4764,N,429.6610,W,10.00,266.02,161016,,*3C
$GPRMC,124702,A,4820.4757,N,429.6752,W,10.00,266.02,161016,,*3B
$GPRMC,124702,A,4820.4750,N,429.6893,W,10.00,266.02,161016,,*3E
$GPRMC,124702,A,4820.4744,N,429.7034,W,10.00,266.02,161016,,*3F
$GPRMC,124702,A,4820.4737,N,429.7176,W,10.00,266.02,161016,,*3C
$GPRMC,124702,A,4820.4731,N,429.7317,W,10.00,266.02,161016,,*3F
$GPRMC,124702,A,4820.4724,N,429.7458,W,10.00,266.02,161016,,*37
$GPRMC,124702,A,4820.4718,N,429.7600,W,10.00,266.02,161016,,*37
$GPRMC,124702,A,4820.4711,N,429.7741,W,10.00,266.02,161016,,*3A
$GPRMC,124702,A,4820.4704,N,429.7882,W,10.00,266.02,161016,,*3E
$GPRMC,124702,A,4820.4698,N,429.8024,W,10.00,266.02,161016,,*31
$GPRMC,124702,A,4820.4691,N,429.8165,W,10.00,266.02,161016,,*3C
$GPRMC,124702,A,4820.4685,N,429.8306,W,10.00,266.02,161016,,*3E
$GPRMC,124702,A,4820.4678,N,429.8448,W,10.00,266.02,161016,,*31
$GPRMC,124702,A,4820.4672,N,429.8589,W,10.00,266.02,161016,,*37
$GPRMC,124702,A,4820.4665,N,429.8730,W,10.00,266.02,161016,,*31
$GPRMC,124702,A,4820.4658,N,429.8872,W,10.00,266.02,161016,,*36
$GPRMC,124702,A,4820.4652,N,429.9013,W,10.00,266.02,161016,,*32
$GPRMC,124702,A,4820.4645,N,429.9154,W,10.00,266.02,161016,,*36
$GPRMC,124702,A,4820.4639,N,429.9296,W,10.00,266.02,161016,,*30
$GPRMC,124702,A,4820.4632,N,429.9437,W,10.00,266.02,161016,,*36
$GPRMC,124702,A,4820.4626,N,429.9579,W,10.00,266.02,161016,,*38
$GPRMC,124702,A,4820.4619,N,429.9720,W,10.00,266.02,161016,,*3A
$GPRMC,124702,A,4820.4612,N,429.9861,W,10.00,266.02,161016,,*3B
$GPRMC,124702,A,4820.4606,N,430.0003,W,10.00,266.02,161016,,*33
$GPRMC,124702,A,4820.4599,N,430.0144,W,10.00,266.02,161016,,*34
$GPRMC,124702,A,4820.4593,N,430.0285,W,10.00,266.02,161016,,*30
$GPRMC,124702,A,4820.4586,N,430.0427,W,10.00,266.02,161016,,*3A
$GPRMC,124702,A,4820.4580,N,430.0568,W,10.00,266.02,161016,,*36
$GPRMC,124702,A,4820.4573,N,430.0709,W,10.00,266.02,161016,,*3F
$GPRMC,124702,A,4820.4566,N,430.0851,W,10.00,266.02,161016,,*39
$GPRMC,124702,A,4820.4560,N,430.0992,W,10.00,266.02,161016,,*31
$GPRMC,124702,A,4820.4553,N,430.1133,W,10.00,266.02,161016,,*33
$GPRMC,124702,A,4820.4547,N,430.1275,W,10.00,266.02,161016,,*37
$GPRMC,124702,A,4820.4540,N,430.1416,W,10.00,266.02,161016,,*33
$GPRMC,124702,A,4820.4534,N,430.1557,W,10.00,266.02,161016,,*34
$GPRMC,124702,A,4820.4527,N,430.1699,W,10.00,266.02,161016,,*37
$GPRMC,124702,A,4820.4520,N,430.1840,W,10.00,266.02,161016,,*3A
$GPRMC,124702,A,4820.4514,N,430.1981,W,10.00,266.02,161016,,*31
$GPRMC,124702,A,4820.4507,N,430.2123,W,10.00,266.02,161016,,*30
$GPRMC,124702,A,4820.4501,N,430.2264,W,10.00,266.02,161016,,*36
$GPRMC,124702,A,4820.4494,N,430.2405,W,10.00,266.02,161016,,*3A
$GPRMC,124702,A,4820.4488,N,430.2547,W,10.00,266.02,161016,,*30
$GPRMC,124702,A,4820.4481,N,430.2688,W,10.00,266.02,161016,,*39
$GPRMC,124702,A,4820.4474,N,430.2829,W,10.00,266.02,161016,,*36
$GPRMC,124702,A,4820.4468,N,430.2971,W,10.00,266.02,161016,,*37
$GPRMC,124702,A,4820.4461,N,430.3112,W,10.00,266.02,161016,,*32
$GPRMC,124702,A,4820.4455,N,430.3253,W,10.00,266.02,161016,,*33
$GPRMC,124702,A,4820.4448,N,430.3395,W,10.00,266.02,161016,,*34
$GPRMC,124702,A,4820.4442,N,430.3536,W,10.00,266.02,161016,,*31
$GPRMC,124702,A,4820.4435,N,430.3677,W,10.00,266.02,161016,,*37
$GPRMC,124702,A,4820.4428,N,430.3819,W,10.00,266.02,161016,,*3D
$GPRMC,124702,A,4820.4422,N,430.3960,W,10.00,266.02,161016,,*38
$GPRMC,124702,A,4820.4418,N,430.4042,W,10.00,309.48,161016,,*39
$GPRMC,124702,A,4820.4470,N,430.4136,W,10.00,309.48,161016,,*35
$GPRMC,124702,A,4820.4521,N,430.4230,W,10.00,309.48,161016,,*35
$GPRMC,124702,A,4820.4573,N,430.4324,W,10.00,309.48,161016,,*36
$GPRMC,124702,A,4820.4624,N,430.4418,W,10.00,309.48,161016,,*3F
$GPRMC,124702,A,4820.4676,N,430.4512,W,10.00,309.48,161016,,*33
$GPRMC,124702,A,4820.4728,N,430.4606,W,10.00,309.48,161016,,*3F
$GPRMC,124702,A,4820.4779,N,430.4700,W,10.00,309.48,161016,,*3C
$GPRMC,124702,A,4820.4831,N,430.4794,W,10.00,309.48,161016,,*32
$GPRMC,124702,A,4820.4883,N,430.4888,W,10.00,309.48,161016,,*39
$GPRMC,124702,A,4820.4934,N,430.4982,W,10.00,309.48,161016,,*3F
$GPRMC,124702,A,4820.4986,N,430.5076,W,10.00,309.48,161016,,*35
$GPRMC,124702,A,4820.5037,N,430.5170,W,10.00,309.48,161016,,*30
$GPRMC,124702,A,4820.5089,N,430.5264,W,10.00,309.48,161016,,*33
$GPRMC,124702,A,4820.5141,N,430.5359,W,10.00,309.48,161016,,*39
$GPRMC,124702,A,4820.5192,N,430.5453,W,10.00,309.48,161016,,*3A
$GPRMC,124702,A,4820.5244,N,430.5547,W,10.00,309.48,161016,,*36
$GPRMC,124702,A,4820.5296,N,430.5641,W,10.00,309.48,161016,,*3C
$GPRMC,124702,A,4820.5347,N,430.5735,W,10.00,309.48,161016,,*33
$GPRMC,124702,A,4820.5399,N,430.5829,W,10.00,309.48,161016,,*32
$GPRMC,124702,A,4820.5450,N,430.5923,W,10.00,309.48,161016,,*3B
$GPRMC,124702,A,4820.5502,N,430.6017,W,10.00,309.48,161016,,*30
$GPRMC,124702,A,4820.5554,N,430.6111,W,10.00,309.48,161016,,*34
$GPRMC,124702,A,4820.5605,N,430.6205,W,10.00,309.48,161016,,*35
$GPRMC,124702,A,4820.5657,N,430.6299,W,10.00,309.48,161016,,*37
$GPRMC,124702,A,4820.5708,N,430.6393,W,10.00,309.48,161016,,*37
$GPRMC,124702,A,4820.5760,N,430.6487,W,10.00,309.48,161016,,*3B
$GPRMC,124702,A,4820.5812,N,430.6581,W,10.00,309.48,161016,,*36
$GPRMC,124702,A,4820.5863,N,430.6675,W,10.00,309.48,161016,,*38
$GPRMC,124702,A,4820.5915,N,430.6769,W,10.00,309.48,161016,,*34
$GPRMC,124702,A,4820.5967,N,430.6863,W,10.00,309.48,161016,,*34
$GPRMC,124702,A,4820.6018,N,430.6957,W,10.00,309.48,161016,,*30
$GPRMC,124702,A,4820.6070,N,430.7051,W,10.00,309.48,161016,,*30
$GPRMC,124702,A,4820.6121,N,430.7145,W,10.00,309.48,161016,,*31
$GPRMC,124702,A,4820.6173,N,430.7239,W,10.00,309.48,161016,,*3E
$GPRMC,124702,A,4820.6225,N,430.7333,W,10.00,309.48,161016,,*35
$GPRMC,124702,A,4820.6276,N,430.7427,W,10.00,309.48,161016,,*31
$GPRMC,124702,A,4820.6328,N,430.7521,W,10.00,309.48,161016,,*3C
$GPRMC,124702,A,4820.6380,N,430.7615,W,10.00,309.48,161016,,*3A
$GPRMC,124702,A,4820.6431,N,430.7709,W,10.00,309.48,161016,,*3B
$GPRMC,124702,A,4820.6483,N,430.7803,W,10.00,309.48,161016,,*37
$GPRMC,124702,A,4820.6534,N,430.7897,W,10.00,309.48,161016,,*37
$GPRMC,124702,A,4820.6586,N,430.7991,W,10.00,309.48,161016,,*39
$GPRMC,124702,A,4820.6638,N,430.8085,W,10.00,309.48,161016,,*3C
$GPRMC,124702,A,4820.6689,N,430.8179,W,10.00,309.48,161016,,*34
$GPRMC,124702,A,4820.6741,N,430.8273,W,10.00,309.48,161016,,*38
$GPRMC,124702,A,4820.6792,N,430.8367,W,10.00,309.48,161016,,*32
$GPRMC,124702,A,4820.6844,N,430.8461,W,10.00,309.48,161016,,*37
$GPRMC,124702,A,4820.6896,N,430.8555,W,10.00,309.48,161016,,*3E
$GPRMC,124702,A,4820.6947,N,430.8649,W,10.00,309.48,161016,,*3D
$GPRMC,124702,A,4820.6999,N,430.8743,W,10.00,309.48,161016,,*35
$GPRMC,124702,A,4820.7051,N,430.8837,W,10.00,309.48,161016,,*35
$GPRMC,124702,A,4820.7102,N,430.8931,W,10.00,309.48,161016,,*35
$GPRMC,124702,A,4820.7154,N,430.9025,W,10.00,309.48,161016,,*3B
$GPRMC,124702,A,4820.7205,N,430.9119,W,10.00,309.48,161016,,*32
$GPRMC,124702,A,4820.7257,N,430.9213,W,10.00,309.48,161016,,*3C
$GPRMC,124702,A,4820.7309,N,430.9307,W,10.00,309.48,161016,,*32
$GPRMC,124702,A,4820.7360,N,430.9402,W,10.00,309.48,161016,,*3F
$GPRMC,124702,A,4820.7412,N,430.9496,W,10.00,309.48,161016,,*30
$GPRMC,124702,A,4820.7463,N,430.9590,W,10.00,309.48,161016,,*31
$GPRMC,124702,A,4820.7515,N,430.9684,W,10.00,309.48,161016,,*37
$GPRMC,124702,A,4820.7567,N,430.9778,W,10.00,309.48,161016,,*30
$GPRMC,124702,A,4820.7618,N,430.9872,W,10.00,309.48,161016,,*3E
$GPRMC,124702,A,4820.7670,N,430.9966,W,10.00,309.48,161016,,*34
$GPRMC,124702,A,4820.7722,N,431.0060,W,10.00,309.48,161016,,*35
$GPRMC,124702,A,4820.7773,N,431.0154,W,10.00,309.48,161016,,*37
$GPRMC,124702,A,4820.7825,N,431.0248,W,10.00,309.48,161016,,*35
$GPRMC,124702,A,4820.7876,N,431.0342,W,10.00,309.48,161016,,*38
$GPRMC,124702,A,4820.7928,N,431.0436,W,10.00,309.48,161016,,*36
$GPRMC,124702,A,4820.7980,N,431.0530,W,10.00,309.48,161016,,*33
$GPRMC,124702,A,4820.8031,N,431.0624,W,10.00,309.48,161016,,*39
$GPRMC,124702,A,4820.8083,N,431.0718,W,10.00,309.48,161016,,*3E
$GPRMC,124702,A,4820.8134,N,431.0812,W,10.00,309.48,161016,,*36
$GPRMC,124702,A,4820.8186,N,431.0906,W,10.00,309.48,161016,,*3B
$GPRMC,124702,A,4820.8238,N,431.1000,W,10.00,309.48,161016,,*33
$GPRMC,124702,A,4820.8289,N,431.1094,W,10.00,309.48,161016,,*34
$GPRMC,124702,A,4820.8341,N,431.1188,W,10.00,309.48,161016,,*3D
$GPRMC,124702,A,4820.8393,N,431.1282,W,10.00,309.48,161016,,*3B
$GPRMC,124702,A,4820.8444,N,431.1376,W,10.00,309.48,161016,,*3C
$GPRMC,124702,A,4820.8496,N,431.1470,W,10.00,309.48,161016,,*32
$GPRMC,124702,A,4820.8547,N,431.1564,W,10.00,309.48,161016,,*3B
$GPRMC,124702,A,4820.8599,N,431.1658,W,10.00,309.48,161016,,*34
$GPRMC,124702,A,4820.8651,N,431.1752,W,10.00,309.48,161016,,*38
$GPRMC,124702,A,4820.8702,N,431.1846,W,10.00,309.48,161016,,*35
$GPRMC,124702,A,4820.8754,N,431.1940,W,10.00,309.48,161016,,*31
$GPRMC,124702,A,4820.8805,N,431.2034,W,10.00,309.48,161016,,*33
$GPRMC,124702,A,4820.8857,N,431.2129,W,10.00,309.48,161016,,*39
$GPRMC,124702,A,4820.8909,N,431.2223,W,10.00,309.48,161016,,*3A
$GPRMC,124702,A,4820.8960,N,431.2317,W,10.00,309.48,161016,,*33
$GPRMC,124702,A,4820.9012,N,431.2411,W,10.00,309.48,161016,,*3F
$GPRMC,124702,A,4820.9064,N,431.2505,W,10.00,309.48,161016,,*3A
$GPRMC,124702,A,4820.9115,N,431.2599,W,10.00,309.48,161016,,*38
$GPRMC,124702,A,4820.9167,N,431.2693,W,10.00,309.48,161016,,*34
$GPRMC,124702,A,4820.9218,N,431.2787,W,10.00,309.48,161016,,*3B
$GPRMC,124702,A,4820.9270,N,431.2881,W,10.00,309.48,161016,,*3C
$GPRMC,124702,A,4820.9322,N,431.2975,W,10.00,309.48,161016,,*30
$GPRMC,124702,A,4820.9373,N,431.3069,W,10.00,309.48,161016,,*31
$GPRMC,124702,A,4820.9425,N,431.3163,W,10.00,309.48,161016,,*3E
$GPRMC,124702,A,4820.9476,N,431.3257,W,10.00,309.48,161016,,*3C
$GPRMC,124702,A,4820.9528,N,431.3351,W,10.00,309.48,161016,,*31
$GPRMC,124702,A,4820.9580,N,431.3445,W,10.00,309.48,161016,,*31
$GPRMC,124702,A,4820.9631,N,431.3539,W,10.00,309.48,161016,,*32
$GPRMC,124702,A,4820.9683,N,431.3633,W,10.00,309.48,161016,,*32
$GPRMC,124702,A,4820.9734,N,431.3727,W,10.00,309.48,161016,,*3B
$GPRMC,124702,A,4820.9786,N,431.3821,W,10.00,309.48,161016,,*3B
$GPRMC,124702,A,4820.9838,N,431.3915,W,10.00,309.48,161016,,*37
$GPRMC,124702,A,4820.9889,N,431.4009,W,10.00,309.48,161016,,*3E
$GPRMC,124702,A,4820.9941,N,431.4103,W,10.00,309.48,161016,,*30
$GPRMC,124702,A,4820.9992,N,431.4197,W,10.00,309.48,161016,,*33
$GPRMC,124702,A,4821.0044,N,431.4291,W,10.00,309.48,161016,,*3C
$GPRMC,124702,A,4821.0096,N,431.4386,W,10.00,309.48,161016,,*34
$GPRMC,124702,A,4821.0116,N,431.4423,W,10.00,262.47,161016,,*36
$GPRMC,124702,A,4821.0111,N,431.4479,W,10.00,262.47,161016,,*3E
$GPRMC,124702,A,4821.0106,N,431.4535,W,10.00,262.47,161016,,*31
$GPRMC,124702,A,4821.0101,N,431.4590,W,10.00,262.47,161016,,*39
$GPRMC,124702,A,4821.0097,N,431.4646,W,10.00,262.47,161016,,*3F
$GPRMC,124702,A,4821.0092,N,431.4702,W,10.00,262.47,161016,,*3B
$GPRMC,124702,A,4821.0087,N,431.4758,W,10.00,262.47,161016,,*30
$GPRMC,124702,A,4821.0082,N,431.4814,W,10.00,262.47,161016,,*32
$GPRMC,124702,A,4821.0077,N,431.4869,W,10.00,262.47,161016,,*32
$GPRMC,124702,A,4821.0072,N,431.4925,W,10.00,262.47,161016,,*3E
$GPRMC,124702,A,4821.0067,N,431.4981,W,10.00,262.47,161016,,*34
$GPRMC,124702,A,4821.0062,N,431.5037,W,10.00,262.47,161016,,*34
$GPRMC,124702,A,4821.0057,N,431.5093,W,10.00,262.47,161016,,*3C
$GPRMC,124702,A,4821.0052,N,431.5148,W,10.00,262.47,161016,,*3E
$GPRMC,124702,A,4821.0047,N,431.5204,W,10.00,262.47,161016,,*31
$GPRMC,124702,A,4821.0042,N,431.5260,W,10.00,262.47,161016,,*36
$GPRMC,124702,A,4821.0038,N,431.5316,W,10.00,262.47,161016,,*3B
$GPRMC,124702,A,4821.0033,N,431.5372,W,10.00,262.47,161016,,*32
$GPRMC,124702,A,4821.0028,N,431.5427,W,10.00,262.47,161016,,*3F
$GPRMC,124702,A,4821.0023,N,431.5483,W,10.00,262.47,161016,,*3A
$GPRMC,124702,A,4821.0018,N,431.5539,W,10.00,262.47,161016,,*32
$GPRMC,124702,A,4821.0013,N,431.5595,W,10.00,262.47,161016,,*3F
$GPRMC,124702,A,4821.0008,N,431.5651,W,10.00,262.47,161016,,*3E
$GPRMC,124702,A,4821.0003,N,431.5706,W,10.00,262.47,161016,,*36
$GPRMC,124702,A,4820.9998,N,431.5762,W,10.00,262.47,161016,,*37
$GPRMC,124702,A,4820.9993,N,431.5818,W,10.00,262.47,161016,,*3E
$GPRMC,124702,A,4820.9988,N,431.5874,W,10.00,262.47,161016,,*3E
$GPRMC,124702,A,4820.9983,N,431.5930,W,10.00,262.47,161016,,*34
$GPRMC,124702,A,4820.9979,N,431.5986,W,10.00,262.47,161016,,*3C
$GPRMC,124702,A,4820.9974,N,431.6041,W,10.00,262.47,161016,,*30
$GPRMC,124702,A,4820.9969,N,431.6097,W,10.00,262.47,161016,,*37
$GPRMC,124702,A,4820.9964,N,431.6153,W,10.00,262.47,161016,,*33
$GPRMC,124702,A,4820.9959,N,431.6209,W,10.00,262.47,161016,,*31
$GPRMC,124702,A,4820.9954,N,431.6265,W,10.00,262.47,161016,,*36
$GPRMC,124702,A,4820.9949,N,431.6320,W,10.00,262.47,161016,,*3A
$GPRMC,124702,A,4820.9944,N,431.6376,W,10.00,262.47,161016,,*34
$GPRMC,124702,A,4820.9939,N,431.6432,W,10.00,262.47,161016,,*39
$GPRMC,124702,A,4820.9934,N,431.6488,W,10.00,262.47,161016,,*35
$GPRMC,124702,A,4820.9929,N,431.6544,W,10.00,262.47,161016,,*38
$GPRMC,124702,A,4820.9924,N,431.6599,W,10.00,262.47,161016,,*35
$GPRMC,124702,A,4820.9919,N,431.6655,W,10.00,262.47,161016,,*38
$GPRMC,124702,A,4820.9915,N,431.6711,W,10.00,262.47,161016,,*35
$GPRMC,124702,A,4820.9910,N,431.6767,W,10.00,262.47,161016,,*31
$GPRMC,124702,A,4820.9905,N,431.6823,W,10.00,262.47,161016,,*3A
$GPRMC,124702,A,4820.9900,N,431.6878,W,10.00,262.47,161016,,*31
$GPRMC,124702,A,4820.9895,N,431.6934,W,10.00,262.47,161016,,*35
$GPRMC,124702,A,4820.9890,N,431.6990,W,10.00,262.47,161016,,*3E
$GPRMC,124702,A,4820.9885,N,431.7046,W,10.00,262.47,161016,,*39
$GPRMC,124702,A,4820.9880,N,431.7102,W,10.00,262.47,161016,,*3D
$GPRMC,124702,A,4820.9875,N,431.7157,W,10.00,262.47,161016,,*37
$GPRMC,124702,A,4820.9870,N,431.7213,W,10.00,262.47,161016,,*31
$GPRMC,124702,A,4820.9865,N,431.7269,W,10.00,262.47,161016,,*38
$GPRMC,124702,A,4820.9860,N,431.7325,W,10.00,262.47,161016,,*34
$GPRMC,124702,A,4820.9856,N,431.7381,W,10.00,262.47,161016,,*3F
$GPRMC,124702,A,4820.9851,N,431.7436,W,10.00,262.47,161016,,*33
$GPRMC,124702,A,4820.9846,N,431.7492,W,10.00,262.47,161016,,*3B
$GPRMC,124702,A,4820.9841,N,431.7548,W,10.00,262.47,161016,,*3A
$GPRMC,124702,A,4820.9836,N,431.7604,W,10.00,262.47,161016,,*31
$GPRMC,124702,A,4820.9831,N,431.7660,W,10.00,262.47,161016,,*34
$GPRMC,124702,A,4820.9826,N,431.7716,W,10.00,262.47,161016,,*32
$GPRMC,124702,A,4820.9821,N,431.7771,W,10.00,262.47,161016,,*34
$GPRMC,124702,A,4820.9816,N,431.7827,W,10.00,262.47,161016,,*3C
$GPRMC,124702,A,4820.9811,N,431.7883,W,10.00,262.47,161016,,*35
$GPRMC,124702,A,4820.9806,N,431.7939,W,10.00,262.47,161016,,*33
$GPRMC,124702,A,4820.9801,N,431.7995,W,10.00,262.47,161016,,*32
$GPRMC,124702,A,4820.9796,N,431.8050,W,10.00,262.47,161016,,*3C
$GPRMC,124702,A,4820.9792,N,431.8106,W,10.00,262.47,161016,,*3A
$GPRMC,124702,A,4820.9787,N,431.8162,W,10.00,262.47,161016,,*3C
$GPRMC,124702,A,4820.9782,N,431.8218,W,10.00,262.47,161016,,*37
$GPRMC,124702,A,4820.9777,N,431.8274,W,10.00,262.47,161016,,*37
$GPRMC,124702,A,4820.9772,N,431.8329,W,10.00,262.47,161016,,*3B
$GPRMC,124702,A,4820.9767,N,431.8385,W,10.00,262.47,161016,,*39
$GPRMC,124702,A,4820.9762,N,431.8441,W,10.00,262.47,161016,,*33
$GPRMC,124702,A,4820.9757,N,431.8497,W,10.00,262.47,161016,,*3E
$GPRMC,124702,A,4820.9752,N,431.8553,W,10.00,262.47,161016,,*32
$GPRMC,124702,A,4820.9747,N,431.8608,W,10.00,262.47,161016,,*3B
$GPRMC,124702,A,4820.9742,N,431.8664,W,10.00,262.47,161016,,*34
$GPRMC,124702,A,4820.9737,N,431.8720,W,10.00,262.47,161016,,*37
$GPRMC,124702,A,4820.9733,N,431.8776,W,10.00,262.47,161016,,*30
$GPRMC,124702,A,4820.9728,N,431.8832,W,10.00,262.47,161016,,*35
$GPRMC,124702,A,4820.9723,N,431.8887,W,10.00,262.47,161016,,*30
$GPRMC,124702,A,4820.9718,N,431.8943,W,10.00,262.47,161016,,*31
$GPRMC,124702,A,4820.9713,N,431.8999,W,10.00,262.47,161016,,*3D
$GPRMC,124702,A,4820.9708,N,431.9055,W,10.00,262.47,161016,,*3F
$GPRMC,124702,A,4820.9703,N,431.9111,W,10.00,262.47,161016,,*35
$GPRMC,124702,A,4820.9698,N,431.9166,W,10.00,262.47,161016,,*36
$GPRMC,124702,A,4820.9693,N,431.9222,W,10.00,262.47,161016,,*3E
$GPRMC,124702,A,4820.9688,N,431.9278,W,10.00,262.47,161016,,*3B
$GPRMC,124702,A,4820.9683,N,431.9334,W,10.00,262.47,161016,,*39
$GPRMC,124702,A,4820.9678,N,431.9390,W,10.00,262.47,161016,,*33
$GPRMC,124702,A,4820.9673,N,431.9446,W,10.00,262.47,161016,,*34
$GPRMC,124702,A,4820.9669,N,431.9501,W,10.00,262.47,161016,,*3D
$GPRMC,124702,A,4820.9664,N,431.9557,W,10.00,262.47,161016,,*33
$GPRMC,124702,A,4820.9659,N,431.9613,W,10.00,262.47,161016,,*3E
$GPRMC,124702,A,4820.9654,N,431.9669,W,10.00,262.47,161016,,*3E
$GPRMC,124702,A,4820.9649,N,431.9725,W,10.00,262.47,161016,,*3B
$GPRMC,124702,A,4820.9644,N,431.9780,W,10.00,262.47,161016,,*39
$GPRMC,124702,A,4820.9639,N,431.9836,W,10.00,262.47,161016,,*31
$GPRMC,124702,A,4820.9634,N,431.9892,W,10.00,262.47,161016,,*32
$GPRMC,124702,A,4820.9629,N,431.9948,W,10.00,262.47,161016,,*38
$GPRMC,124702,A,4820.9624,N,432.0004,W,10.00,262.47,161016,,*3E
$GPRMC,124702,A,4820.9619,N,432.0059,W,10.00,262.47,161016,,*38
$GPRMC,124702,A,4820.9614,N,432.0115,W,10.00,262.47,161016,,*3C
$GPRMC,124702,A,4820.9609,N,432.0171,W,10.00,262.47,161016,,*32
$GPRMC,124702,A,4820.9605,N,432.0227,W,10.00,262.47,161016,,*3E
$GPRMC,124702,A,4820.9600,N,432.0283,W,10.00,262.47,161016,,*35
$GPRMC,124702,A,4820.9595,N,432.0338,W,10.00,262.47,161016,,*3B
$GPRMC,124702,A,4820.9590,N,432.0394,W,10.00,262.47,161016,,*38
$GPRMC,124702,A,4820.9585,N,432.0450,W,10.00,262.47,161016,,*33
$GPRMC,124702,A,4820.9580,N,432.0506,W,10.00,262.47,161016,,*34
$GPRMC,124702,A,4820.9575,N,432.0562,W,10.00,262.47,161016,,*3C
$GPRMC,124702,A,4820.9570,N,432.0617,W,10.00,262.47,161016,,*38
$GPRMC,124702,A,4820.9565,N,432.0673,W,10.00,262.47,161016,,*3E
$GPRMC,124702,A,4820.9560,N,432.0729,W,10.00,262.47,161016,,*35
$GPRMC,124702,A,4820.9555,N,432.0785,W,10.00,262.47,161016,,*35
$GPRMC,124702,A,4820.9550,N,432.0841,W,10.00,262.47,161016,,*37
$GPRMC,124702,A,4820.9545,N,432.0896,W,10.00,262.47,161016,,*39
$GPRMC,124702,A,4820.9541,N,432.0952,W,10.00,262.47,161016,,*34
$GPRMC,124702,A,4820.9536,N,432.1008,W,10.00,262.47,161016,,*33
$GPRMC,124702,A,4820.9531,N,432.1064,W,10.00,262.47,161016,,*3E
$GPRMC,124702,A,4820.9526,N,432.1120,W,10.00,262.47,161016,,*39
$GPRMC,124702,A,4820.9521,N,432.1175,W,10.00,262.47,161016,,*3E
$GPRMC,124702,A,4820.9516,N,432.1231,W,10.00,262.47,161016,,*39
$GPRMC,124702,A,4820.9511,N,432.1287,W,10.00,262.47,161016,,*33
$GPRMC,124702,A,4820.9506,N,432.1343,W,10.00,262.47,161016,,*3C
$GPRMC,124702,A,4820.9501,N,432.1399,W,10.00,262.47,161016,,*3C
$GPRMC,124702,A,4820.9496,N,432.1454,W,10.00,262.47,161016,,*35
$GPRMC,124702,A,4820.9491,N,432.1510,W,10.00,262.47,161016,,*33
$GPRMC,124702,A,4820.9486,N,432.1566,W,10.00,262.47,161016,,*34
$GPRMC,124702,A,4820.9481,N,432.1622,W,10.00,262.47,161016,,*30
$GPRMC,124702,A,4820.9477,N,432.1678,W,10.00,262.47,161016,,*36
$GPRMC,124702,A,4820.9472,N,432.1734,W,10.00,262.47,161016,,*3A
$GPRMC,124702,A,4820.9467,N,432.1789,W,10.00,262.47,161016,,*38
$GPRMC,124702,A,4820.9462,N,432.1845,W,10.00,262.47,161016,,*32
$GPRMC,124702,A,4820.9457,N,432.1901,W,10.00,262.47,161016,,*35
$GPRMC,124702,A,4820.9452,N,432.1957,W,10.00,262.47,161016,,*33
$GPRMC,124702,A,4820.9447,N,432.2013,W,10.00,262.47,161016,,*3D
$GPRMC,124702,A,4820.9442,N,432.2068,W,10.00,262.47,161016,,*34
$GPRMC,124702,A,4820.9437,N,432.2124,W,10.00,262.47,161016,,*3F
$GPRMC,124702,A,4820.9432,N,432.2180,W,10.00,262.47,161016,,*34
$GPRMC,124702,A,4820.9427,N,432.2236,W,10.00,262.47,161016,,*3E
$GPRMC,124702,A,4820.9422,N,432.2292,W,10.00,262.47,161016,,*35
$GPRMC,124702,A,4820.9417,N,432.2347,W,10.00,262.47,161016,,*3A
$GPRMC,124702,A,4820.9413,N,432.2403,W,10.00,262.47,161016,,*39
$GPRMC,124702,A,4820.9408,N,432.2459,W,10.00,262.47,161016,,*3C
$GPRMC,124702,A,4820.9403,N,432.2515,W,10.00,262.47,161016,,*3E
$GPRMC,124702,A,4820.9398,N,432.2571,W,10.00,262.47,161016,,*39
$GPRMC,124702,A,4820.9393,N,432.2626,W,10.00,262.47,161016,,*33
$GPRMC,124702,A,4820.9388,N,432.2682,W,10.00,262.47,161016,,*37
$GPRMC,124702,A,4820.9383,N,432.2738,W,10.00,262.47,161016,,*3C
$GPRMC,124702,A,4820.9378,N,432.2794,W,10.00,262.47,161016,,*3E
$GPRMC,124702,A,4820.9373,N,432.2850,W,10.00,262.47,161016,,*32
$GPRMC,124702,A,4820.9368,N,432.2905,W,10.00,262.47,161016,,*39
$GPRMC,124702,A,4820.9363,N,432.2961,W,10.00,262.47,161016,,*30
$GPRMC,124702,A,4820.9358,N,432.3017,W,10.00,262.47,161016,,*31
$GPRMC,124702,A,4820.9353,N,432.3073,W,10.00,262.47,161016,,*38
$GPRMC,124702,A,4820.9349,N,432.3129,W,10.00,262.47,161016,,*3D
$GPRMC,124702,A,4820.9344,N,432.3184,W,10.00,262.47,161016,,*37
$GPRMC,124702,A,4820.9339,N,432.3240,W,10.00,262.47,161016,,*36
$GPRMC,124702,A,4820.9334,N,432.3296,W,10.00,262.47,161016,,*30
$GPRMC,124702,A,4820.9329,N,432.3352,W,10.00,262.47,161016,,*35
$GPRMC,124702,A,4820.9324,N,432.3408,W,10.00,262.47,161016,,*30
$GPRMC,124702,A,4820.9319,N,432.3463,W,10.00,262.47,161016,,*33
$GPRMC,124702,A,4820.9314,N,432.3519,W,10.00,262.47,161016,,*32
$GPRMC,124702,A,4820.9309,N,432.3575,W,10.00,262.47,161016,,*34
$GPRMC,124702,A,4820.9304,N,432.3631,W,10.00,262.47,161016,,*3A
$GPRMC,124702,A,4820.9299,N,432.3687,W,10.00,262.47,161016,,*32
$GPRMC,124702,A,4820.9294,N,432.3742,W,10.00,262.47,161016,,*37
$GPRMC,124702,A,4820.9289,N,432.3798,W,10.00,262.47,161016,,*3C
$GPRMC,124702,A,4820.9285,N,432.3854,W,10.00,262.47,161016,,*3F
$GPRMC,124702,A,4820.9280,N,432.3910,W,10.00,262.47,161016,,*3B
$GPRMC,124702,A,4820.9275,N,432.3966,W,10.00,262.47,161016,,*30
$GPRMC,124702,A,4820.9270,N,432.4022,W,10.00,262.47,161016,,*3B
$GPRMC,124702,A,4820.9265,N,432.4077,W,10.00,262.47,161016,,*3F
$GPRMC,124702,A,4820.9260,N,432.4133,W,10.00,262.47,161016,,*3B
$GPRMC,124702,A,4820.9255,N,432.4189,W,10.00,262.47,161016,,*3C
$GPRMC,124702,A,4820.9250,N,432.4245,W,10.00,262.47,161016,,*3A
$GPRMC,124702,A,4820.9245,N,432.4301,W,10.00,262.47,161016,,*3F
$GPRMC,124702,A,4820.9240,N,432.4356,W,10.00,262.47,161016,,*38
$GPRMC,124702,A,4820.9235,N,432.4412,W,10.00,262.47,161016,,*3D
$GPRMC,124702,A,4820.9230,N,432.4468,W,10.00,262.47,161016,,*35
$GPRMC,124702,A,4820.9225,N,432.4524,W,10.00,262.47,161016,,*38
$GPRMC,124702,A,4820.9220,N,432.4580,W,10.00,262.47,161016,,*33
$GPRMC,124702,A,4820.9216,N,432.4635,W,10.00,262.47,161016,,*3B
$GPRMC,124702,A,4820.9211,N,432.4691,W,10.00,262.47,161016,,*32
$GPRMC,124702,A,4820.9206,N,432.4747,W,10.00,262.47,161016,,*3E
$GPRMC,124702,A,4820.9201,N,432.4803,W,10.00,262.47,161016,,*36
$GPRMC,124702,A,4820.9196,N,432.4859,W,10.00,262.47,161016,,*34
$GPRMC,124702,A,4820.9191,N,432.4914,W,10.00,262.47,161016,,*3B
$GPRMC,124702,A,4820.9186,N,432.4970,W,10.00,262.47,161016,,*3F
$GPRMC,124702,A,4820.9181,N,432.5026,W,10.00,262.47,161016,,*33
$GPRMC,124702,A,4820.9176,N,432.5082,W,10.00,262.47,161016,,*35
$GPRMC,124702,A,4820.9171,N,432.5138,W,10.00,262.47,161016,,*32
$GPRMC,124702,A,4820.9166,N,432.5193,W,10.00,262.47,161016,,*35
$GPRMC,124702,A,4820.9161,N,432.5249,W,10.00,262.47,161016,,*36
$GPRMC,124702,A,4820.9156,N,432.5305,W,10.00,262.47,161016,,*3B
$GPRMC,124702,A,4820.9152,N,432.5361,W,10.00,262.47,161016,,*3D
$GPRMC,124702,A,4820.9147,N,432.5417,W,10.00,262.47,161016,,*3F
$GPRMC,124702,A,4820.9142,N,432.5472,W,10.00,262.47,161016,,*39
$GPRMC,124702,A,4820.9137,N,432.5528,W,10.00,262.47,161016,,*35
$GPRMC,124702,A,4820.9132,N,432.5584,W,10.00,262.47,161016,,*36
$GPRMC,124702,A,4820.9127,N,432.5640,W,10.00,262.47,161016,,*39
$GPRMC,124702,A,4820.9122,N,432.5696,W,10.00,262.47,161016,,*37
$GPRMC,124702,A,4820.9117,N,432.5751,W,10.00,262.47,161016,,*3B
$GPRMC,124702,A,4820.9112,N,432.5807,W,10.00,262.47,161016,,*32
$GPRMC,124702,A,4820.9107,N,432.5863,W,10.00,262.47,161016,,*34
$GPRMC,124702,A,4820.9102,N,432.5919,W,10.00,262.47,161016,,*3D
$GPRMC,124702,A,4820.9097,N,432.5975,W,10.00,262.47,161016,,*3A
$GPRMC,124702,A,4820.9092,N,432.6030,W,10.00,262.47,161016,,*34
$GPRMC,124702,A,4820.9087,N,432.6086,W,10.00,262.47,161016,,*3D
$GPRMC,124702,A,4820.9083,N,432.6142,W,10.00,262.47,161016,,*30
$GPRMC,124702,A,4820.9078,N,432.6198,W,10.00,262.47,161016,,*33
$GPRMC,124702,A,4820.9073,N,432.6254,W,10.00,262.47,161016,,*3B
$GPRMC,124702,A,4820.9068,N,432.6309,W,10.00,262.47,161016,,*38
$GPRMC,124702,A,4820.9063,N,432.6365,W,10.00,262.47,161016,,*39
$GPRMC,124702,A,4820.9058,N,432.6421,W,10.00,262.47,161016,,*36
$GPRMC,124702,A,4820.9053,N,432.6477,W,10.00,262.47,161016,,*3E
$GPRMC,124702,A,4820.9048,N,432.6533,W,10.00,262.47,161016,,*35
$GPRMC,124702,A,4820.9043,N,432.6588,W,10.00,262.47,161016,,*3E
$GPRMC,124702,A,4820.9038,N,432.6644,W,10.00,262.47,161016,,*31
$GPRMC,124702,A,4820.9033,N,432.6700,W,10.00,262.47,161016,,*3B
$GPRMC,124702,A,4820.9028,N,432.6756,W,10.00,262.47,161016,,*32
$GPRMC,124702,A,4820.9023,N,432.6812,W,10.00,262.47,161016,,*36
$GPRMC,124702,A,4820.9018,N,432.6867,W,10.00,262.47,161016,,*3C
$GPRMC,124702,A,4820.9014,N,432.6923,W,10.00,262.47,161016,,*31
$GPRMC,124702,A,4820.9009,N,432.6979,W,10.00,262.47,161016,,*32
$GPRMC,124702,A,4820.9004,N,432.7035,W,10.00,262.47,161016,,*3F
$GPRMC,124702,A,4820.8999,N,432.7091,W,10.00,262.47,161016,,*3D
$GPRMC,124702,A,4820.8994,N,432.7147,W,10.00,262.47,161016,,*3A
$GPRMC,124702,A,4820.8989,N,432.7202,W,10.00,262.47,161016,,*34
$GPRMC,124702,A,4820.8984,N,432.7258,W,10.00,262.47,161016,,*36
$GPRMC,124702,A,4820.8979,N,432.7314,W,10.00,262.47,161016,,*3D
$GPRMC,124702,A,4820.8974,N,432.7370,W,10.00,262.47,161016,,*32
$GPRMC,124702,A,4820.8969,N,432.7426,W,10.00,262.47,161016,,*3A
$GPRMC,124702,A,4820.8964,N,432.7481,W,10.00,262.47,161016,,*3A
$GPRMC,124702,A,4820.8959,N,432.7537,W,10.00,262.47,161016,,*38
$GPRMC,124702,A,4820.8954,N,432.7593,W,10.00,262.47,161016,,*3B
$GPRMC,124702,A,4820.8949,N,432.7649,W,10.00,262.47,161016,,*33
$GPRMC,124702,A,4820.8945,N,432.7705,W,10.00,262.47,161016,,*36
$GPRMC,124702,A,4820.8940,N,432.7760,W,10.00,262.47,161016,,*30
$GPRMC,124702,A,4820.8935,N,432.7816,W,10.00,262.47,161016,,*3C
$GPRMC,124702,A,4820.8930,N,432.7872,W,10.00,262.47,161016,,*3B
$GPRMC,124702,A,4820.8925,N,432.7928,W,10.00,262.47,161016,,*31
$GPRMC,124702,A,4820.8920,N,432.7984,W,10.00,262.47,161016,,*32
$GPRMC,124702,A,4820.8915,N,432.8039,W,10.00,262.47,161016,,*34
$GPRMC,124702,A,4820.8910,N,432.8095,W,10.00,262.47,161016,,*37
$GPRMC,124702,A,4820.8905,N,432.8151,W,10.00,262.47,161016,,*3A
$GPRMC,124702,A,4820.8900,N,432.8207,W,10.00,262.47,161016,,*3F
$GPRMC,124702,A,4820.8895,N,432.8263,W,10.00,262.47,161016,,*30
$GPRMC,124702,A,4820.8890,N,432.8318,W,10.00,262.47,161016,,*38
$GPRMC,124702,A,4820.8885,N,432.8374,W,10.00,262.47,161016,,*36
$GPRMC,124702,A,4820.8880,N,432.8430,W,10.00,262.47,161016,,*34
$GPRMC,124702,A,4820.8876,N,432.8486,W,10.00,262.47,161016,,*30
$GPRMC,124702,A,4820.8871,N,432.8542,W,10.00,262.47,161016,,*3E
$GPRMC,124702,A,4820.8866,N,432.8597,W,10.00,262.47,161016,,*30
$GPRMC,124702,A,4820.8861,N,432.8653,W,10.00,262.47,161016,,*3C
$GPRMC,124702,A,4820.8856,N,432.8709,W,10.00,262.47,161016,,*36
$GPRMC,124702,A,4820.8851,N,432.8765,W,10.00,262.47,161016,,*3B
$GPRMC,124702,A,4820.8846,N,432.8821,W,10.00,262.47,161016,,*32
$GPRMC,124702,A,4820.8841,N,432.8876,W,10.00,262.47,161016,,*37
$GPRMC,124702,A,4820.8836,N,432.8932,W,10.00,262.47,161016,,*36
$GPRMC,124702,A,4820.8831,N,432.8988,W,10.00,262.47,161016,,*30
$GPRMC,124702,A,4820.8826,N,432.9044,W,10.00,262.47,161016,,*3E
$GPRMC,124702,A,4820.8821,N,432.9100,W,10.00,262.47,161016,,*38
$GPRMC,124702,A,4820.8816,N,432.9155,W,10.00,262.47,161016,,*3C
$GPRMC,124702,A,4820.8811,N,432.9211,W,10.00,262.47,161016,,*38
$GPRMC,124702,A,4820.8807,N,432.9267,W,10.00,262.47,161016,,*3E
$GPRMC,124702,A,4820.8802,N,432.9323,W,10.00,262.47,161016,,*3A
$GPRMC,124702,A,4820.8797,N,432.9379,W,10.00,262.47,161016,,*36
$GPRMC,124702,A,4820.8792,N,432.9434,W,10.00,262.47,161016,,*3D
$GPRMC,124702,A,4820.8787,N,432.9490,W,10.00,262.47,161016,,*37
$GPRMC,124702,A,4820.8782,N,432.9546,W,10.00,262.47,161016,,*38
$GPRMC,124702,A,4820.8777,N,432.9602,W,10.00,262.47,161016,,*31
$GPRMC,124702,A,4820.8772,N,432.9658,W,10.00,262.47,161016,,*3B
$GPRMC,124702,A,4820.8767,N,432.9713,W,10.00,262.47,161016,,*31
$GPRMC,124702,A,4820.8762,N,432.9769,W,10.00,262.47,161016,,*39
$GPRMC,124702,A,4820.8757,N,432.9825,W,10.00,262.47,161016,,*38
$GPRMC,124702,A,4820.8752,N,432.9881,W,10.00,262.47,161016,,*33
$GPRMC,124702,A,4820.8747,N,432.9937,W,10.00,262.47,161016,,*3B
$GPRMC,124702,A,4820.8742,N,432.9992,W,10.00,262.47,161016,,*31
$GPRMC,124702,A,4820.8738,N,433.0048,W,10.00,262.47,161016,,*3A
$GPRMC,124702,A,4820.8733,N,433.0104,W,10.00,262.47,161016,,*38
$GPRMC,124702,A,4820.8728,N,433.0160,W,10.00,262.47,161016,,*30
$GPRMC,124702,A,4820.8723,N,433.0216,W,10.00,262.47,161016,,*39
$GPRMC,124702,A,4820.8718,N,433.0271,W,10.00,262.47,161016,,*30
$GPRMC,124702,A,4820.8713,N,433.0327,W,10.00,262.47,161016,,*39
$GPRMC,124702,A,4820.8708,N,433.0383,W,10.00,262.47,161016,,*3D
$GPRMC,124702,A,4820.8703,N,433.0439,W,10.00,262.47,161016,,*30
$GPRMC,124702,A,4820.8698,N,433.0495,W,10.00,262.47,161016,,*35
$GPRMC,124702,A,4820.8693,N,433.0550,W,10.00,262.47,161016,,*36
$GPRMC,124702,A,4820.8688,N,433.0606,W,10.00,262.47,161016,,*3C
$GPRMC,124702,A,4820.8683,N,433.0662,W,10.00,262.47,161016,,*35
$GPRMC,124702,A,4820.8678,N,433.0718,W,10.00,262.47,161016,,*3D
$GPRMC,124702,A,4820.8673,N,433.0774,W,10.00,262.47,161016,,*3C
$GPRMC,124702,A,4820.8668,N,433.0829,W,10.00,262.47,161016,,*31
$GPRMC,124702,A,4820.8664,N,433.0885,W,10.00,262.47,161016,,*3B
$GPRMC,124702,A,4820.8659,N,433.0941,W,10.00,262.47,161016,,*3C
$GPRMC,124702,A,4820.8654,N,433.0997,W,10.00,262.47,161016,,*3A
$GPRMC,124702,A,4820.8649,N,433.1053,W,10.00,262.47,161016,,*36
$GPRMC,124702,A,4820.8644,N,433.1108,W,10.00,262.47,161016,,*34
$GPRMC,124702,A,4820.8639,N,433.1164,W,10.00,262.47,161016,,*34
$GPRMC,124702,A,4820.8634,N,433.1220,W,10.00,262.47,161016,,*3A
$GPRMC,124702,A,4820.8629,N,433.1276,W,10.00,262.47,161016,,*35
$GPRMC,124702,A,4820.8624,N,433.1332,W,10.00,262.47,161016,,*39
$GPRMC,124702,A,4820.8619,N,433.1388,W,10.00,262.47,161016,,*36
$GPRMC,124702,A,4820.8614,N,433.1443,W,10.00,262.47,161016,,*3B
$GPRMC,124702,A,4820.8609,N,433.1499,W,10.00,262.47,161016,,*30
$GPRMC,124702,A,4820.8604,N,433.1555,W,10.00,262.47,161016,,*3C
$GPRMC,124702,A,4820.8599,N,433.1611,W,10.00,262.47,161016,,*38
$GPRMC,124702,A,4820.8595,N,433.1667,W,10.00,262.47,161016,,*35
$GPRMC,124702,A,4820.8590,N,433.1722,W,10.00,262.47,161016,,*30
$GPRMC,124702,A,4820.8585,N,433.1778,W,10.00,262.47,161016,,*3B
$GPRMC,124702,A,4820.8580,N,433.1834,W,10.00,262.47,161016,,*39
$GPRMC,124702,A,4820.8575,N,433.1890,W,10.00,262.47,161016,,*3D
$GPRMC,124702,A,4820.8570,N,433.1946,W,10.00,262.47,161016,,*32
$GPRMC,124702,A,4820.8565,N,433.2001,W,10.00,262.47,161016,,*3F
$GPRMC,124702,A,4820.8560,N,433.2057,W,10.00,262.47,161016,,*39
$GPRMC,124702,A,4820.8555,N,433.2113,W,10.00,262.47,161016,,*3E
$GPRMC,124702,A,4820.8550,N,433.2169,W,10.00,262.47,161016,,*36
$GPRMC,124702,A,4820.8545,N,433.2225,W,10.00,262.47,161016,,*39
$GPRMC,124702,A,4820.8540,N,433.2280,W,10.00,262.47,161016,,*33
$GPRMC,124702,A,4820.8535,N,433.2336,W,10.00,262.47,161016,,*3D
$GPRMC,124702,A,4820.8530,N,433.2392,W,10.00,262.47,161016,,*36
$GPRMC,124702,A,4820.8525,N,433.2448,W,10.00,262.47,161016,,*32
$GPRMC,124702,A,4820.8521,N,433.2504,W,10.00,262.47,161016,,*3F
$GPRMC,124702,A,4820.8516,N,433.2559,W,10.00,262.47,161016,,*33
$GPRMC,124702,A,4820.8511,N,433.2615,W,10.00,262.47,161016,,*3F
$GPRMC,124702,A,4820.8506,N,433.2671,W,10.00,262.47,161016,,*3B
$GPRMC,124702,A,4820.8501,N,433.2727,W,10.00,262.47,161016,,*3E
$GPRMC,124702,A,4820.8496,N,433.2783,W,10.00,262.47,161016,,*3F
$GPRMC,124702,A,4820.8491,N,433.2838,W,10.00,262.47,161016,,*37
$GPRMC,124702,A,4820.8486,N,433.2894,W,10.00,262.47,161016,,*37
$GPRMC,124702,A,4820.8481,N,433.2950,W,10.00,262.47,161016,,*39
$GPRMC,124702,A,4820.8476,N,433.3006,W,10.00,262.47,161016,,*3A
$GPRMC,124702,A,4820.8471,N,433.3062,W,10.00,262.47,161016,,*3F
$GPRMC,124702,A,4820.8466,N,433.3117,W,10.00,262.47,161016,,*3A
$GPRMC,124702,A,4820.8461,N,433.3173,W,10.00,262.47,161016,,*3F
$GPRMC,124702,A,4820.8456,N,433.3229,W,10.00,262.47,161016,,*37
$GPRMC,124702,A,4820.8451,N,433.3285,W,10.00,262.47,161016,,*36
$GPRMC,124702,A,4820.8447,N,433.3341,W,10.00,262.47,161016,,*38
$GPRMC,124702,A,4820.8442,N,433.3396,W,10.00,262.47,161016,,*37
$GPRMC,124702,A,4820.8437,N,433.3452,W,10.00,262.47,161016,,*3A
$GPRMC,124702,A,4820.8432,N,433.3508,W,10.00,262.47,161016,,*31
$GPRMC,124702,A,4820.8427,N,433.3564,W,10.00,262.47,161016,,*3F
$GPRMC,124702,A,4820.8422,N,433.3620,W,10.00,262.47,161016,,*39
$GPRMC,124702,A,4820.8417,N,433.3675,W,10.00,262.47,161016,,*3F
$GPRMC,124702,A,4820.8412,N,433.3731,W,10.00,262.47,161016,,*3B
$GPRMC,124702,A,4820.8407,N,433.3787,W,10.00,262.47,161016,,*32
$GPRMC,124702,A,4820.8402,N,433.3843,W,10.00,262.47,161016,,*30
$GPRMC,124702,A,4820.8397,N,433.3899,W,10.00,262.47,161016,,*3C
$GPRMC,124702,A,4820.8392,N,433.3954,W,10.00,262.47,161016,,*39
$GPRMC,124702,A,4820.8387,N,433.4010,W,10.00,262.47,161016,,*33
$GPRMC,124702,A,4820.8382,N,433.4066,W,10.00,262.47,161016,,*37
$GPRMC,124702,A,4820.8377,N,433.4122,W,10.00,262.47,161016,,*3C
$GPRMC,124702,A,4820.8373,N,433.4178,W,10.00,262.47,161016,,*37
$GPRMC,124702,A,4820.8368,N,433.4233,W,10.00,262.47,161016,,*31
$GPRMC,124702,A,4820.8363,N,433.4289,W,10.00,262.47,161016,,*3B
$GPRMC,124702,A,4820.8358,N,433.4345,W,10.00,262.47,161016,,*32
$GPRMC,124702,A,4820.8353,N,433.4401,W,10.00,262.47,161016,,*3E
$GPRMC,124702,A,4820.8348,N,433.4457,W,10.00,262.47,161016,,*37
$GPRMC,124702,A,4820.8343,N,433.4512,W,10.00,262.47,161016,,*3C
$GPRMC,124702,A,4820.8338,N,433.4568,W,10.00,262.47,161016,,*3D
$GPRMC,124702,A,4820.8333,N,433.4624,W,10.00,262.47,161016,,*3D
$GPRMC,124702,A,4820.8328,N,433.4680,W,10.00,262.47,161016,,*39
$GPRMC,124702,A,4820.8323,N,433.4736,W,10.00,262.47,161016,,*3E
$GPRMC,124702,A,4820.8318,N,433.4791,W,10.00,262.47,161016,,*3B
$GPRMC,124702,A,4820.8313,N,433.4847,W,10.00,262.47,161016,,*34
$GPRMC,124702,A,4820.8308,N,433.4903,W,10.00,262.47,161016,,*3F
$GPRMC,124702,A,4820.8303,N,433.4959,W,10.00,262.47,161016,,*3B
$GPRMC,124702,A,4820.8299,N,433.5015,W,10.00,262.47,161016,,*39
$GPRMC,124702,A,4820.8294,N,433.5070,W,10.00,262.47,161016,,*37
$GPRMC,124702,A,4820.8289,N,433.5126,W,10.00,262.47,161016,,*39
$GPRMC,124702,A,4820.8284,N,433.5182,W,10.00,262.47,161016,,*3A
$GPRMC,124702,A,4820.8279,N,433.5238,W,10.00,262.47,161016,,*3A
$GPRMC,124702,A,4820.8274,N,433.5294,W,10.00,262.47,161016,,*31
$GPRMC,124702,A,4820.8269,N,433.5349,W,10.00,262.47,161016,,*3C
$GPRMC,124702,A,4820.8264,N,433.5405,W,10.00,262.47,161016,,*3E
$GPRMC,124702,A,4820.8259,N,433.5461,W,10.00,262.47,161016,,*32
$GPRMC,124702,A,4820.8254,N,433.5517,W,10.00,262.47,161016,,*3F
$GPRMC,124702,A,4820.8249,N,433.5573,W,10.00,262.47,161016,,*31
$GPRMC,124702,A,4820.8244,N,433.5628,W,10.00,262.47,161016,,*31
$GPRMC,124702,A,4820.8239,N,433.5684,W,10.00,262.47,161016,,*3D
$GPRMC,124702,A,4820.8234,N,433.5740,W,10.00,262.47,161016,,*39
$GPRMC,124702,A,4820.8229,N,433.5796,W,10.00,262.47,161016,,*3E
$GPRMC,124702,A,4820.8225,N,433.5852,W,10.00,262.47,161016,,*35
$GPRMC,124702,A,4820.8220,N,433.5907,W,10.00,262.47,161016,,*31
$GPRMC,124702,A,4820.8215,N,433.5963,W,10.00,262.47,161016,,*35
$GPRMC,124702,A,4820.8210,N,433.6019,W,10.00,262.47,161016,,*37
$GPRMC,124702,A,4820.8205,N,433.6075,W,10.00,262.47,161016,,*39
$GPRMC,124702,A,4820.8200,N,433.6131,W,10.00,262.47,161016,,*3D
$GPRMC,124702,A,4820.8195,N,433.6186,W,10.00,262.47,161016,,*3E
$GPRMC,124702,A,4820.8190,N,433.6242,W,10.00,262.47,161016,,*30
$GPRMC,124702,A,4820.8185,N,433.6298,W,10.00,262.47,161016,,*33
$GPRMC,124702,A,4820.8180,N,433.6354,W,10.00,262.47,161016,,*37
$GPRMC,124702,A,4820.8175,N,433.6410,W,10.00,262.47,161016,,*3A
$GPRMC,124702,A,4820.8170,N,433.6465,W,10.00,262.47,161016,,*3D
$GPRMC,124702,A,4820.8165,N,433.6521,W,10.00,262.47,161016,,*38
$GPRMC,124702,A,4820.8160,N,433.6577,W,10.00,262.47,161016,,*3E
$GPRMC,124702,A,4820.8155,N,433.6633,W,10.00,262.47,161016,,*3B
$GPRMC,124702,A,4820.8150,N,433.6689,W,10.00,262.47,161016,,*3F
$GPRMC,124702,A,4820.8146,N,433.6744,W,10.00,262.47,161016,,*38
$GPRMC,124702,A,4820.8141,N,433.6800,W,10.00,262.47,161016,,*30
$GPRMC,124702,A,4820.8136,N,433.6856,W,10.00,262.47,161016,,*33
$GPRMC,124702,A,4820.8131,N,433.6912,W,10.00,262.47,161016,,*35
$GPRMC,124702,A,4820.8126,N,433.6968,W,10.00,262.47,161016,,*3E
$GPRMC,124702,A,4820.8121,N,433.7023,W,10.00,262.47,161016,,*3E
$GPRMC,124702,A,4820.8116,N,433.7079,W,10.00,262.47,161016,,*35
$GPRMC,124702,A,4820.8111,N,433.7135,W,10.00,262.47,161016,,*3B
$GPRMC,124702,A,4820.8106,N,433.7191,W,10.00,262.47,161016,,*33
$GPRMC,124702,A,4820.8101,N,433.7247,W,10.00,262.47,161016,,*3C
$GPRMC,124702,A,4820.8096,N,433.7302,W,10.00,262.47,161016,,*33
$GPRMC,124702,A,4820.8091,N,433.7358,W,10.00,262.47,161016,,*3B
$GPRMC,124702,A,4820.8086,N,433.7414,W,10.00,262.47,161016,,*32
$GPRMC,124702,A,4820.8081,N,433.7470,W,10.00,262.47,161016,,*37
$GPRMC,124702,A,4820.8076,N,433.7526,W,10.00,262.47,161016,,*3D
$GPRMC,124702,A,4820.8072,N,433.7581,W,10.00,262.47,161016,,*34
$GPRMC,124702,A,4820.8067,N,433.7637,W,10.00,262.47,161016,,*3E
$GPRMC,124702,A,4820.8062,N,433.7693,W,10.00,262.47,161016,,*35
$GPRMC,124702,A,4820.8057,N,433.7749,W,10.00,262.47,161016,,*35
$GPRMC,124702,A,4820.8052,N,433.7805,W,10.00,262.47,161016,,*37
$GPRMC,124702,A,4820.8047,N,433.7860,W,10.00,262.47,161016,,*30
$GPRMC,124702,A,4820.8042,N,433.7916,W,10.00,262.47,161016,,*35
$GPRMC,124702,A,4820.8037,N,433.7972,W,10.00,262.47,161016,,*35
$GPRMC,124702,A,4820.8032,N,433.8028,W,10.00,262.47,161016,,*39
$GPRMC,124702,A,4820.8027,N,433.8084,W,10.00,262.47,161016,,*3B
$GPRMC,124702,A,4820.8022,N,433.8139,W,10.00,262.47,161016,,*39
$GPRMC,124702,A,4820.8017,N,433.8195,W,10.00,262.47,161016,,*39
$GPRMC,124702,A,4820.8012,N,433.8251,W,10.00,262.47,161016,,*37
$GPRMC,124702,A,4820.8007,N,433.8307,W,10.00,262.47,161016,,*31
$GPRMC,124702,A,4820.8002,N,433.8363,W,10.00,262.47,161016,,*36
$GPRMC,124702,A,4820.7997,N,433.8418,W,10.00,262.47,161016,,*37
$GPRMC,124702,A,4820.7993,N,433.8474,W,10.00,262.47,161016,,*39
$GPRMC,124702,A,4820.7988,N,433.8530,W,10.00,262.47,161016,,*32
$GPRMC,124702,A,4820.7983,N,433.8586,W,10.00,262.47,161016,,*34
$GPRMC,124702,A,4820.7978,N,433.8642,W,10.00,262.47,161016,,*3B
$GPRMC,124702,A,4820.7973,N,433.8697,W,10.00,262.47,161016,,*38
$GPRMC,124702,A,4820.7968,N,433.8753,W,10.00,262.47,161016,,*3B
$GPRMC,124702,A,4820.7963,N,433.8809,W,10.00,262.47,161016,,*30
$GPRMC,124702,A,4820.7958,N,433.8865,W,10.00,262.47,161016,,*32
$GPRMC,124702,A,4820.7953,N,433.8921,W,10.00,262.47,161016,,*38
$GPRMC,124702,A,4820.7948,N,433.8976,W,10.00,262.47,161016,,*30
$GPRMC,124702,A,4820.7943,N,433.9032,W,10.00,262.47,161016,,*33
$GPRMC,124702,A,4820.7938,N,433.9088,W,10.00,262.47,161016,,*3E
$GPRMC,124702,A,4820.7933,N,433.9144,W,10.00,262.47,161016,,*34
$GPRMC,124702,A,4820.7928,N,433.9200,W,10.00,262.47,161016,,*3D
$GPRMC,124702,A,4820.7923,N,433.9255,W,10.00,262.47,161016,,*36
$GPRMC,124702,A,4820.7918,N,433.9311,W,10.00,262.47,161016,,*3F
$GPRMC,124702,A,4820.7914,N,433.9367,W,10.00,262.47,161016,,*32
$GPRMC,124702,A,4820.7909,N,433.9423,W,10.00,262.47,161016,,*39
$GPRMC,124702,A,4820.7904,N,433.9479,W,10.00,262.47,161016,,*3B
$GPRMC,124702,A,4820.7899,N,433.9534,W,10.00,262.47,161016,,*36
$GPRMC,124702,A,4820.7894,N,433.9590,W,10.00,262.47,161016,,*35
$GPRMC,124702,A,4820.7889,N,433.9646,W,10.00,262.47,161016,,*31
$GPRMC,124702,A,4820.7884,N,433.9702,W,10.00,262.47,161016,,*3D
$GPRMC,124702,A,4820.7879,N,433.9758,W,10.00,262.47,161016,,*30
$GPRMC,124702,A,4820.7874,N,433.9813,W,10.00,262.47,161016,,*3D
$GPRMC,124702,A,4820.7869,N,433.9869,W,10.00,262.47,161016,,*3C
$GPRMC,124702,A,4820.7864,N,433.9925,W,10.00,262.47,161016,,*38
$GPRMC,124702,A,4820.7859,N,433.9981,W,10.00,262.47,161016,,*38
$GPRMC,124702,A,4820.7854,N,434.0037,W,10.00,262.47,161016,,*3F
$GPRMC,124702,A,4820.7849,N,434.0092,W,10.00,262.47,161016,,*3C
$GPRMC,124702,A,4820.7844,N,434.0148,W,10.00,262.47,161016,,*37
$GPRMC,124702,A,4820.7839,N,434.0204,W,10.00,262.47,161016,,*36
$GPRMC,124702,A,4820.7835,N,434.0260,W,10.00,262.47,161016,,*38
$GPRMC,124702,A,4820.7830,N,434.0316,W,10.00,262.47,161016,,*3D
$GPRMC,124702,A,4820.7825,N,434.0371,W,10.00,262.47,161016,,*38
$GPRMC,124702,A,4820.7820,N,434.0427,W,10.00,262.47,161016,,*39
$GPRMC,124702,A,4820.7815,N,434.0483,W,10.00,262.47,161016,,*31
$GPRMC,124702,A,4820.7810,N,434.0539,W,10.00,262.47,161016,,*34
$GPRMC,124702,A,4820.7805,N,434.0595,W,10.00,262.47,161016,,*36
$GPRMC,124702,A,4820.7800,N,434.0650,W,10.00,262.47,161016,,*39
$GPRMC,124702,A,4820.7795,N,434.0706,W,10.00,262.47,161016,,*38
$GPRMC,124702,A,4820.7790,N,434.0762,W,10.00,262.47,161016,,*3F
$GPRMC,124702,A,4820.7785,N,434.0818,W,10.00,262.47,161016,,*39
$GPRMC,124702,A,4820.7780,N,434.0874,W,10.00,262.47,161016,,*36
$GPRMC,124702,A,4820.7775,N,434.0929,W,10.00,262.47,161016,,*35
$GPRMC,124702,A,4820.7770,N,434.0985,W,10.00,262.47,161016,,*36
$GPRMC,124702,A,4820.7765,N,434.1041,W,10.00,262.47,161016,,*32
$GPRMC,124702,A,4820.7760,N,434.1097,W,10.00,262.47,161016,,*3C
$GPRMC,124702,A,4820.7755,N,434.1153,W,10.00,262.47,161016,,*33
$GPRMC,124702,A,4820.7751,N,434.1208,W,10.00,262.47,161016,,*3A
$GPRMC,124702,A,4820.7746,N,434.1264,W,10.00,262.47,161016,,*36
$GPRMC,124702,A,4820.7741,N,434.1320,W,10.00,262.47,161016,,*30
$GPRMC,124702,A,4820.7736,N,434.1376,W,10.00,262.47,161016,,*33
$GPRMC,124702,A,4820.7731,N,434.1432,W,10.00,262.47,161016,,*33
$GPRMC,124702,A,4820.7726,N,434.1487,W,10.00,262.47,161016,,*3B
$GPRMC,124702,A,4820.7721,N,434.1543,W,10.00,262.47,161016,,*35
$GPRMC,124702,A,4820.7716,N,434.1599,W,10.00,262.47,161016,,*36
$GPRMC,124702,A,4820.7711,N,434.1655,W,10.00,262.47,161016,,*32
$GPRMC,124702,A,4820.7706,N,434.1711,W,10.00,262.47,161016,,*35
$GPRMC,124702,A,4820.7701,N,434.1766,W,10.00,262.47,161016,,*32
$GPRMC,124702,A,4820.7696,N,434.1822,W,10.00,262.47,161016,,*32
$GPRMC,124702,A,4820.7691,N,434.1878,W,10.00,262.47,161016,,*3A
$GPRMC,124702,A,4820.7686,N,434.1934,W,10.00,262.47,161016,,*35
$GPRMC,124702,A,4820.7681,N,434.1990,W,10.00,262.47,161016,,*3C
$GPRMC,124702,A,4820.7676,N,434.2045,W,10.00,262.47,161016,,*36
$GPRMC,124702,A,4820.7672,N,434.2101,W,10.00,262.47,161016,,*33
$GPRMC,124702,A,4820.7667,N,434.2157,W,10.00,262.47,161016,,*34
$GPRMC,124702,A,4820.7662,N,434.2213,W,10.00,262.47,161016,,*32
