$GPRMC,090150,A,4821.9346,N,429.1212,W,10.00,250.52,051115,,*3A
$GPRMC,090150,A,4821.9334,N,429.1266,W,10.00,250.52,051115,,*3C
$GPRMC,090150,A,4821.9321,N,429.1320,W,10.00,250.52,051115,,*3B
$GPRMC,090150,A,4821.9308,N,429.1374,W,10.00,250.52,051115,,*31
$GPRMC,090150,A,4821.9295,N,429.1428,W,10.00,250.52,051115,,*3A
$GPRMC,090150,A,4821.9283,N,429.1482,W,10.00,250.52,051115,,*3D
$GPRMC,090150,A,4821.9270,N,429.1536,W,10.00,250.52,051115,,*3F
$GPRMC,090150,A,4821.9257,N,429.1590,W,10.00,250.52,051115,,*36
$GPRMC,090150,A,4821.9244,N,429.1644,W,10.00,250.52,051115,,*3E
$GPRMC,090150,A,4821.9232,N,429.1698,W,10.00,250.52,051115,,*3E
$GPRMC,090150,A,4821.9219,N,429.1752,W,10.00,250.52,051115,,*30
$GPRMC,090150,A,4821.9206,N,429.1806,W,10.00,250.52,051115,,*30
$GPRMC,090150,A,4821.9194,N,429.1860,W,10.00,250.52,051115,,*38
$GPRMC,090150,A,4821.9181,N,429.1914,W,10.00,250.52,051115,,*3E
$GPRMC,090150,A,4821.9168,N,429.1968,W,10.00,250.52,051115,,*32
$GPRMC,090150,A,4821.9155,N,429.2022,W,10.00,250.52,051115,,*38
$GPRMC,090150,A,4821.9143,N,429.2076,W,10.00,250.52,051115,,*3E
$GPRMC,090150,A,4821.9130,N,429.2130,W,10.00,250.52,051115,,*39
$GPRMC,090150,A,4821.9117,N,429.2184,W,10.00,250.52,051115,,*33
$GPRMC,090150,A,4821.9104,N,429.2238,W,10.00,250.52,051115,,*35
$GPRMC,090150,A,4821.9092,N,429.2292,W,10.00,250.52,051115,,*3B
$GPRMC,090150,A,4821.9079,N,429.2346,W,10.00,250.52,051115,,*36
$GPRMC,090150,A,4821.9066,N,429.2400,W,10.00,250.52,051115,,*3D
$GPRMC,090150,A,4821.9053,N,429.2454,W,10.00,250.52,051115,,*3A
$GPRMC,090150,A,4821.9041,N,429.2508,W,10.00,250.52,051115,,*31
$GPRMC,090150,A,4821.9028,N,429.2562,W,10.00,250.52,051115,,*32
$GPRMC,090150,A,4821.9015,N,429.2616,W,10.00,250.52,051115,,*3C
$GPRMC,090150,A,4821.9003,N,429.2670,W,10.00,250.52,051115,,*3B
$GPRMC,090150,A,4821.8990,N,429.2724,W,10.00,250.52,051115,,*39
$GPRMC,090150,A,4821.8977,N,429.2778,W,10.00,250.52,051115,,*39
$GPRMC,090150,A,4821.8964,N,429.2832,W,10.00,250.52,051115,,*3A
$GPRMC,090150,A,4821.8952,N,429.2886,W,10.00,250.52,051115,,*30
$GPRMC,090150,A,4821.8939,N,429.2940,W,10.00,250.52,051115,,*36
$GPRMC,090150,A,4821.8926,N,429.2994,W,10.00,250.52,051115,,*31
$GPRMC,090150,A,4821.8913,N,429.3048,W,10.00,250.52,051115,,*3E
$GPRMC,090150,A,4821.8901,N,429.3102,W,10.00,250.52,051115,,*32
$GPRMC,090150,A,4821.8888,N,429.3156,W,10.00,250.52,051115,,*33
$GPRMC,090150,A,4821.8875,N,429.3210,W,10.00,250.52,051115,,*30
$GPRMC,090150,A,4821.8862,N,429.3264,W,10.00,250.52,051115,,*35
$GPRMC,090150,A,4821.8850,N,429.3318,W,10.00,250.52,051115,,*3E
$GPRMC,090150,A,4821.8837,N,429.3372,W,10.00,250.52,051115,,*33
$GPRMC,090150,A,4821.8824,N,429.3426,W,10.00,250.52,051115,,*37
$GPRMC,090150,A,4821.8812,N,429.3480,W,10.00,250.52,051115,,*3E
$GPRMC,090150,A,4821.8799,N,429.3534,W,10.00,250.52,051115,,*3C
$GPRMC,090150,A,4821.8786,N,429.3588,W,10.00,250.52,051115,,*35
$GPRMC,090150,A,4821.8773,N,429.3642,W,10.00,250.52,051115,,*3A
$GPRMC,090150,A,4821.8761,N,429.3696,W,10.00,250.52,051115,,*30
$GPRMC,090150,A,4821.8748,N,429.3750,W,10.00,250.52,051115,,*30
$GPRMC,090150,A,4821.8735,N,429.3804,W,10.00,250.52,051115,,*34
$GPRMC,090150,A,4821.8722,N,429.3858,W,10.00,250.52,051115,,*3B
$GPRMC,090150,A,4821.8710,N,429.3912,W,10.00,250.52,051115,,*35
$GPRMC,090150,A,4821.8697,N,429.3966,W,10.00,250.52,051115,,*38
$GPRMC,090150,A,4821.8684,N,429.4020,W,10.00,250.52,051115,,*36
$GPRMC,090150,A,4821.8671,N,429.4074,W,10.00,250.52,051115,,*3D
$GPRMC,090150,A,4821.8659,N,429.4128,W,10.00,250.52,051115,,*3F
$GPRMC,090150,A,4821.8646,N,429.4182,W,10.00,250.52,051115,,*31
$GPRMC,090150,A,4821.8633,N,429.4236,W,10.00,250.52,051115,,*3F
$GPRMC,090150,A,4821.8621,N,429.4290,W,10.00,250.52,051115,,*30
$GPRMC,090150,A,4821.8608,N,429.4344,W,10.00,250.52,051115,,*33
$GPRMC,090150,A,4821.8595,N,429.4398,W,10.00,250.52,051115,,*35
$GPRMC,090150,A,4821.8582,N,429.4452,W,10.00,250.52,051115,,*32
$GPRMC,090150,A,4821.8570,N,429.4506,W,10.00,250.52,051115,,*3F
$GPRMC,090150,A,4821.8557,N,429.4560,W,10.00,250.52,051115,,*3A
$GPRMC,090150,A,4821.8544,N,429.4614,W,10.00,250.52,051115,,*38
$GPRMC,090150,A,4821.8531,N,429.4668,W,10.00,250.52,051115,,*31
$GPRMC,090150,A,4821.8519,N,429.4722,W,10.00,250.52,051115,,*34
$GPRMC,090150,A,4821.8506,N,429.4776,W,10.00,250.52,051115,,*3B
$GPRMC,090150,A,4821.8493,N,429.4830,W,10.00,250.52,051115,,*3B
$GPRMC,090150,A,4821.8480,N,429.4884,W,10.00,250.52,051115,,*36
$GPRMC,090150,A,4821.8468,N,429.4938,W,10.00,250.52,051115,,*36
$GPRMC,090150,A,4821.8455,N,429.4992,W,10.00,250.52,051115,,*38
$GPRMC,090150,A,4821.8442,N,429.5046,W,10.00,250.52,051115,,*3F
$GPRMC,090150,A,4821.8430,N,429.5100,W,10.00,250.52,051115,,*39
$GPRMC,090150,A,4821.8417,N,429.5154,W,10.00,250.52,051115,,*3D
$GPRMC,090150,A,4821.8404,N,429.5208,W,10.00,250.52,051115,,*35
$GPRMC,090150,A,4821.8391,N,429.5262,W,10.00,250.52,051115,,*32
$GPRMC,090150,A,4821.8379,N,429.5316,W,10.00,250.52,051115,,*36
$GPRMC,090150,A,4821.8366,N,429.5370,W,10.00,250.52,051115,,*38
$GPRMC,090150,A,4821.8353,N,429.5424,W,10.00,250.52,051115,,*38
$GPRMC,090150,A,4821.8340,N,429.5478,W,10.00,250.52,051115,,*33
$GPRMC,090150,A,4821.8328,N,429.5532,W,10.00,250.52,051115,,*32
$GPRMC,090150,A,4821.8315,N,429.5586,W,10.00,250.52,051115,,*33
$GPRMC,090150,A,4821.8302,N,429.5640,W,10.00,250.52,051115,,*3C
$GPRMC,090150,A,4821.8289,N,429.5694,W,10.00,250.52,051115,,*37
$GPRMC,090150,A,4821.8277,N,429.5748,W,10.00,250.52,051115,,*36
$GPRMC,090150,A,4821.8264,N,429.5802,W,10.00,250.52,051115,,*35
$GPRMC,090150,A,4821.8251,N,429.5856,W,10.00,250.52,051115,,*32
$GPRMC,090150,A,4821.8239,N,429.5910,W,10.00,250.52,051115,,*3F
$GPRMC,090150,A,4821.8226,N,429.5964,W,10.00,250.52,051115,,*32
$GPRMC,090150,A,4821.8213,N,429.6018,W,10.00,250.52,051115,,*35
$GPRMC,090150,A,4821.8200,N,429.6072,W,10.00,250.52,051115,,*3B
$GPRMC,090150,A,4821.8188,N,429.6126,W,10.00,250.52,051115,,*38
$GPRMC,090150,A,4821.8175,N,429.6180,W,10.00,250.52,051115,,*36
$GPRMC,090150,A,4821.8162,N,429.6234,W,10.00,250.52,051115,,*3C
$GPRMC,090150,A,4821.8149,N,429.6288,W,10.00,250.52,051115,,*32
$GPRMC,090150,A,4821.8137,N,429.6342,W,10.00,250.52,051115,,*3C
$GPRMC,090150,A,4821.8124,N,429.6396,W,10.00,250.52,051115,,*37
$GPRMC,090150,A,4821.8111,N,429.6450,W,10.00,250.52,051115,,*3C
$GPRMC,090150,A,4821.8098,N,429.6504,W,10.00,250.52,051115,,*3C
$GPRMC,090150,A,4821.8086,N,429.6558,W,10.00,250.52,051115,,*3A
$GPRMC,090150,A,4821.8073,N,429.6611,W,10.00,250.52,051115,,*3E
$GPRMC,090150,A,4821.8060,N,429.6665,W,10.00,250.52,051115,,*3F
$GPRMC,090150,A,4821.8048,N,429.6719,W,10.00,250.52,051115,,*3F
$GPRMC,090150,A,4821.8035,N,429.6773,W,10.00,250.52,051115,,*39
$GPRMC,090150,A,4821.8022,N,429.6827,W,10.00,250.52,051115,,*31
$GPRMC,090150,A,4821.8009,N,429.6881,W,10.00,250.52,051115,,*34
$GPRMC,090150,A,4821.7997,N,429.6935,W,10.00,250.52,051115,,*3B
$GPRMC,090150,A,4821.7984,N,429.6989,W,10.00,250.52,051115,,*3E
$GPRMC,090150,A,4821.7971,N,429.7043,W,10.00,250.52,051115,,*3A
$GPRMC,090150,A,4821.7958,N,429.7097,W,10.00,250.52,051115,,*38
$GPRMC,090150,A,4821.7946,N,429.7151,W,10.00,250.52,051115,,*3C
$GPRMC,090150,A,4821.7933,N,429.7205,W,10.00,250.52,051115,,*3C
$GPRMC,090150,A,4821.7920,N,429.7259,W,10.00,250.52,051115,,*37
$GPRMC,090150,A,4821.7907,N,429.7313,W,10.00,250.52,051115,,*3D
$GPRMC,090150,A,4821.7895,N,429.7367,W,10.00,250.52,051115,,*34
$GPRMC,090150,A,4821.7882,N,429.7421,W,10.00,250.52,051115,,*37
$GPRMC,090150,A,4821.7869,N,429.7475,W,10.00,250.52,051115,,*33
$GPRMC,090150,A,4821.7856,N,429.7529,W,10.00,250.52,051115,,*37
$GPRMC,090150,A,4821.7844,N,429.7583,W,10.00,250.52,051115,,*34
$GPRMC,090150,A,4821.7831,N,429.7637,W,10.00,250.52,051115,,*3A
$GPRMC,090150,A,4821.7818,N,429.7691,W,10.00,250.52,051115,,*3D
$GPRMC,090150,A,4821.7806,N,429.7745,W,10.00,250.52,051115,,*3A
$GPRMC,090150,A,4821.7793,N,429.7799,W,10.00,250.52,051115,,*38
$GPRMC,090150,A,4821.7780,N,429.7853,W,10.00,250.52,051115,,*33
$GPRMC,090150,A,4821.7767,N,429.7907,W,10.00,250.52,051115,,*3A
$GPRMC,090150,A,4821.7755,N,429.7961,W,10.00,250.52,051115,,*3B
$GPRMC,090150,A,4821.7742,N,429.8015,W,10.00,250.52,051115,,*38
$GPRMC,090150,A,4821.7729,N,429.8069,W,10.00,250.52,051115,,*3E
$GPRMC,090150,A,4821.7716,N,429.8123,W,10.00,250.52,051115,,*3D
$GPRMC,090150,A,4821.7704,N,429.8177,W,10.00,250.52,051115,,*3F
$GPRMC,090150,A,4821.7691,N,429.8231,W,10.00,250.52,051115,,*33
$GPRMC,090150,A,4821.7678,N,429.8285,W,10.00,250.52,051115,,*3B
$GPRMC,090150,A,4821.7665,N,429.8339,W,10.00,250.52,051115,,*31
$GPRMC,090150,A,4821.7653,N,429.8393,W,10.00,250.52,051115,,*34
$GPRMC,090150,A,4821.7640,N,429.8447,W,10.00,250.52,051115,,*38
$GPRMC,090150,A,4821.7627,N,429.8501,W,10.00,250.52,051115,,*3A
$GPRMC,090150,A,4821.7614,N,429.8555,W,10.00,250.52,051115,,*3B
$GPRMC,090150,A,4821.7602,N,429.8609,W,10.00,250.52,051115,,*36
$GPRMC,090150,A,4821.7589,N,429.8663,W,10.00,250.52,051115,,*3A
$GPRMC,090150,A,4821.7576,N,429.8717,W,10.00,250.52,051115,,*38
$GPRMC,090150,A,4821.7564,N,429.8771,W,10.00,250.52,051115,,*3B
$GPRMC,090150,A,4821.7551,N,429.8825,W,10.00,250.52,051115,,*33
$GPRMC,090150,A,4821.7538,N,429.8879,W,10.00,250.52,051115,,*35
$GPRMC,090150,A,4821.7525,N,429.8933,W,10.00,250.52,051115,,*36
$GPRMC,090150,A,4821.7513,N,429.8987,W,10.00,250.52,051115,,*3C
$GPRMC,090150,A,4821.7500,N,429.9041,W,10.00,250.52,051115,,*3C
$GPRMC,090150,A,4821.7487,N,429.9095,W,10.00,250.52,051115,,*3B
$GPRMC,090150,A,4821.7474,N,429.9149,W,10.00,250.52,051115,,*37
$GPRMC,090150,A,4821.7462,N,429.9203,W,10.00,250.52,051115,,*3D
$GPRMC,090150,A,4821.7449,N,429.9257,W,10.00,250.52,051115,,*35
$GPRMC,090150,A,4821.7436,N,429.9311,W,10.00,250.52,051115,,*3E
$GPRMC,090150,A,4821.7423,N,429.9365,W,10.00,250.52,051115,,*39
$GPRMC,090150,A,4821.7411,N,429.9419,W,10.00,250.52,051115,,*34
$GPRMC,090150,A,4821.7398,N,429.9473,W,10.00,250.52,051115,,*3E
$GPRMC,090150,A,4821.7385,N,429.9527,W,10.00,250.52,051115,,*32
$GPRMC,090150,A,4821.7372,N,429.9581,W,10.00,250.52,051115,,*36
$GPRMC,090150,A,4821.7360,N,429.9635,W,10.00,250.52,051115,,*39
$GPRMC,090150,A,4821.7347,N,429.9689,W,10.00,250.52,051115,,*3B
$GPRMC,090150,A,4821.7334,N,429.9743,W,10.00,250.52,051115,,*38
$GPRMC,090150,A,4821.7322,N,429.9797,W,10.00,250.52,051115,,*36
$GPRMC,090150,A,4821.7309,N,429.9851,W,10.00,250.52,051115,,*3A
$GPRMC,090150,A,4821.7296,N,429.9905,W,10.00,250.52,051115,,*3D
$GPRMC,090150,A,4821.7283,N,429.9959,W,10.00,250.52,051115,,*30
$GPRMC,090150,A,4821.7271,N,430.0013,W,10.00,250.52,051115,,*3B
$GPRMC,090150,A,4821.7258,N,430.0067,W,10.00,250.52,051115,,*33
$GPRMC,090150,A,4821.7245,N,430.0121,W,10.00,250.52,051115,,*3C
$GPRMC,090150,A,4821.7232,N,430.0175,W,10.00,250.52,051115,,*3D
$GPRMC,090150,A,4821.7220,N,430.0229,W,10.00,250.52,051115,,*34
$GPRMC,090150,A,4821.7207,N,430.0283,W,10.00,250.52,051115,,*31
$GPRMC,090150,A,4821.7194,N,430.0337,W,10.00,250.52,051115,,*36
$GPRMC,090150,A,4821.7181,N,430.0391,W,10.00,250.52,051115,,*3E
$GPRMC,090150,A,4821.7169,N,430.0445,W,10.00,250.52,051115,,*36
$GPRMC,090150,A,4821.7156,N,430.0499,W,10.00,250.52,051115,,*3B
$GPRMC,090150,A,4821.7143,N,430.0553,W,10.00,250.52,051115,,*38
$GPRMC,090150,A,4821.7130,N,430.0607,W,10.00,250.52,051115,,*3E
$GPRMC,090150,A,4821.7118,N,430.0661,W,10.00,250.52,051115,,*34
$GPRMC,090150,A,4821.7105,N,430.0715,W,10.00,250.52,051115,,*3A
$GPRMC,090150,A,4821.7092,N,430.0769,W,10.00,250.52,051115,,*3E
$GPRMC,090150,A,4821.7080,N,430.0823,W,10.00,250.52,051115,,*3C
$GPRMC,090150,A,4821.7067,N,430.0877,W,10.00,250.52,051115,,*34
$GPRMC,090150,A,4821.7054,N,430.0931,W,10.00,250.52,051115,,*37
$GPRMC,090150,A,4821.7041,N,430.0985,W,10.00,250.52,051115,,*3C
$GPRMC,090150,A,4821.7029,N,430.1039,W,10.00,250.52,051115,,*3D
$GPRMC,090150,A,4821.7016,N,430.1093,W,10.00,250.52,051115,,*31
$GPRMC,090150,A,4821.7003,N,430.1147,W,10.00,250.52,051115,,*3D
$GPRMC,090150,A,4821.6990,N,430.1201,W,10.00,250.52,051115,,*3E
$GPRMC,090150,A,4821.6978,N,430.1255,W,10.00,250.52,051115,,*39
$GPRMC,090150,A,4821.6965,N,430.1309,W,10.00,250.52,051115,,*3D
$GPRMC,090150,A,4821.6952,N,430.1363,W,10.00,250.52,051115,,*35
$GPRMC,090150,A,4821.6939,N,430.1417,W,10.00,250.52,051115,,*3C
$GPRMC,090150,A,4821.6927,N,430.1471,W,10.00,250.52,051115,,*33
$GPRMC,090150,A,4821.6914,N,430.1525,W,10.00,250.52,051115,,*33
$GPRMC,090150,A,4821.6901,N,430.1579,W,10.00,250.52,051115,,*3E
$GPRMC,090150,A,4821.6888,N,430.1633,W,10.00,250.52,051115,,*33
$GPRMC,090150,A,4821.6876,N,430.1687,W,10.00,250.52,051115,,*3D
$GPRMC,090150,A,4821.6863,N,430.1741,W,10.00,250.52,051115,,*32
$GPRMC,090150,A,4821.6850,N,430.1795,W,10.00,250.52,051115,,*3B
$GPRMC,090150,A,4821.6837,N,430.1849,W,10.00,250.52,051115,,*34
$GPRMC,090150,A,4821.6825,N,430.1903,W,10.00,250.52,051115,,*38
$GPRMC,090150,A,4821.6812,N,430.1957,W,10.00,250.52,051115,,*3D
$GPRMC,090150,A,4821.6799,N,430.2011,W,10.00,250.52,051115,,*39
$GPRMC,090150,A,4821.6787,N,430.2065,W,10.00,250.52,051115,,*35
$GPRMC,090150,A,4821.6774,N,430.2119,W,10.00,250.52,051115,,*33
$GPRMC,090150,A,4821.6761,N,430.2173,W,10.00,250.52,051115,,*3B
$GPRMC,090150,A,4821.6748,N,430.2227,W,10.00,250.52,051115,,*32
$GPRMC,090150,A,4821.6736,N,430.2281,W,10.00,250.52,051115,,*37
$GPRMC,090150,A,4821.6723,N,430.2335,W,10.00,250.52,051115,,*3D
$GPRMC,090150,A,4821.6710,N,430.2389,W,10.00,250.52,051115,,*3A
$GPRMC,090150,A,4821.6697,N,430.2443,W,10.00,250.52,051115,,*35
$GPRMC,090150,A,4821.6685,N,430.2497,W,10.00,250.52,051115,,*3F
$GPRMC,090150,A,4821.6672,N,430.2551,W,10.00,250.52,051115,,*3C
$GPRMC,090150,A,4821.6659,N,430.2605,W,10.00,250.52,051115,,*37
$GPRMC,090150,A,4821.6646,N,430.2659,W,10.00,250.52,051115,,*30
$GPRMC,090150,A,4821.6634,N,430.2713,W,10.00,250.52,051115,,*3A
$GPRMC,090150,A,4821.6621,N,430.2767,W,10.00,250.52,051115,,*3D
$GPRMC,090150,A,4821.6608,N,430.2821,W,10.00,250.52,051115,,*3B
$GPRMC,090150,A,4821.6595,N,430.2875,W,10.00,250.52,051115,,*3D
$GPRMC,090150,A,4821.6583,N,430.2929,W,10.00,250.52,051115,,*32
$GPRMC,090150,A,4821.6570,N,430.2983,W,10.00,250.52,051115,,*3E
$GPRMC,090150,A,4821.6557,N,430.3037,W,10.00,250.52,051115,,*3C
$GPRMC,090150,A,4821.6544,N,430.3091,W,10.00,250.52,051115,,*32
$GPRMC,090150,A,4821.6532,N,430.3145,W,10.00,250.52,051115,,*3B
$GPRMC,090150,A,4821.6519,N,430.3199,W,10.00,250.52,051115,,*33
$GPRMC,090150,A,4821.6506,N,430.3253,W,10.00,250.52,051115,,*38
$GPRMC,090150,A,4821.6493,N,430.3307,W,10.00,250.52,051115,,*35
$GPRMC,090150,A,4821.6481,N,430.3361,W,10.00,250.52,051115,,*36
$GPRMC,090150,A,4821.6468,N,430.3415,W,10.00,250.52,051115,,*35
$GPRMC,090150,A,4821.6455,N,430.3469,W,10.00,250.52,051115,,*30
$GPRMC,090150,A,4821.6443,N,430.3523,W,10.00,250.52,051115,,*38
$GPRMC,090150,A,4821.6430,N,430.3577,W,10.00,250.52,051115,,*3D
$GPRMC,090150,A,4821.6417,N,430.3631,W,10.00,250.52,051115,,*39
$GPRMC,090150,A,4821.6404,N,430.3685,W,10.00,250.52,051115,,*34
$GPRMC,090150,A,4821.6392,N,430.3739,W,10.00,250.52,051115,,*3A
$GPRMC,090150,A,4821.6379,N,430.3793,W,10.00,250.52,051115,,*3F
$GPRMC,090150,A,4821.6366,N,430.3847,W,10.00,250.52,051115,,*37
$GPRMC,090150,A,4821.6353,N,430.3901,W,10.00,250.52,051115,,*32
$GPRMC,090150,A,4821.6341,N,430.3955,W,10.00,250.52,051115,,*30
$GPRMC,090150,A,4821.6328,N,430.4009,W,10.00,250.52,051115,,*38
$GPRMC,090150,A,4821.6315,N,430.4063,W,10.00,250.52,051115,,*3A
$GPRMC,090150,A,4821.6302,N,430.4117,W,10.00,250.52,051115,,*3E
$GPRMC,090150,A,4821.6290,N,430.4171,W,10.00,250.52,051115,,*34
$GPRMC,090150,A,4821.6277,N,430.4225,W,10.00,250.52,051115,,*3F
$GPRMC,090150,A,4821.6264,N,430.4279,W,10.00,250.52,051115,,*34
$GPRMC,090150,A,4821.6251,N,430.4333,W,10.00,250.52,051115,,*3D
$GPRMC,090150,A,4821.6239,N,430.4387,W,10.00,250.52,051115,,*3C
$GPRMC,090150,A,4821.6226,N,430.4441,W,10.00,250.52,051115,,*3F
$GPRMC,090150,A,4821.6213,N,430.4495,W,10.00,250.52,051115,,*30
$GPRMC,090150,A,4821.6200,N,430.4549,W,10.00,250.52,051115,,*32
$GPRMC,090150,A,4821.6188,N,430.4603,W,10.00,250.52,051115,,*3C
$GPRMC,090150,A,4821.6175,N,430.4657,W,10.00,250.52,051115,,*3F
$GPRMC,090150,A,4821.6162,N,430.4711,W,10.00,250.52,051115,,*3A
$GPRMC,090150,A,4821.6149,N,430.4765,W,10.00,250.52,051115,,*30
$GPRMC,090150,A,4821.6137,N,430.4819,W,10.00,250.52,051115,,*3D
$GPRMC,090150,A,4821.6124,N,430.4873,W,10.00,250.52,051115,,*33
$GPRMC,090150,A,4821.6111,N,430.4927,W,10.00,250.52,051115,,*35
$GPRMC,090150,A,4821.6099,N,430.4981,W,10.00,250.52,051115,,*38
$GPRMC,090150,A,4821.6086,N,430.5035,W,10.00,250.52,051115,,*31
$GPRMC,090150,A,4821.6073,N,430.5089,W,10.00,250.52,051115,,*3C
$GPRMC,090150,A,4821.6060,N,430.5143,W,10.00,250.52,051115,,*39
$GPRMC,090150,A,4821.6048,N,430.5197,W,10.00,250.52,051115,,*3A
$GPRMC,090150,A,4821.6035,N,430.5251,W,10.00,250.52,051115,,*39
$GPRMC,090150,A,4821.6022,N,430.5305,W,10.00,250.52,051115,,*3F
$GPRMC,090150,A,4821.6009,N,430.5359,W,10.00,250.52,051115,,*3F
$GPRMC,090150,A,4821.5997,N,430.5413,W,10.00,250.52,051115,,*3B
$GPRMC,090150,A,4821.5984,N,430.5467,W,10.00,250.52,051115,,*3A
$GPRMC,090150,A,4821.5971,N,430.5521,W,10.00,250.52,051115,,*33
$GPRMC,090150,A,4821.5958,N,430.5574,W,10.00,250.52,051115,,*38
$GPRMC,090150,A,4821.5946,N,430.5628,W,10.00,250.52,051115,,*3D
$GPRMC,090150,A,4821.5933,N,430.5682,W,10.00,250.52,051115,,*3F
$GPRMC,090150,A,4821.5920,N,430.5736,W,10.00,250.52,051115,,*33
$GPRMC,090150,A,4821.5907,N,430.5790,W,10.00,250.52,051115,,*3A
$GPRMC,090150,A,4821.5895,N,430.5844,W,10.00,250.52,051115,,*36
$GPRMC,090150,A,4821.5882,N,430.5898,W,10.00,250.52,051115,,*31
$GPRMC,090150,A,4821.5869,N,430.5952,W,10.00,250.52,051115,,*33
$GPRMC,090150,A,4821.5856,N,430.6006,W,10.00,250.52,051115,,*34
$GPRMC,090150,A,4821.5844,N,430.6060,W,10.00,250.52,051115,,*37
$GPRMC,090150,A,4821.5831,N,430.6114,W,10.00,250.52,051115,,*37
$GPRMC,090150,A,4821.5818,N,430.6168,W,10.00,250.52,051115,,*37
$GPRMC,090150,A,4821.5805,N,430.6222,W,10.00,250.52,051115,,*36
$GPRMC,090150,A,4821.5793,N,430.6276,W,10.00,250.52,051115,,*37
$GPRMC,090150,A,4821.5780,N,430.6330,W,10.00,250.52,051115,,*36
$GPRMC,090150,A,4821.5767,N,430.6384,W,10.00,250.52,051115,,*30
$GPRMC,090150,A,4821.5754,N,430.6438,W,10.00,250.52,051115,,*30
$GPRMC,090150,A,4821.5742,N,430.6492,W,10.00,250.52,051115,,*37
$GPRMC,090150,A,4821.5729,N,430.6546,W,10.00,250.52,051115,,*32
$GPRMC,090150,A,4821.5716,N,430.6600,W,10.00,250.52,051115,,*3F
$GPRMC,090150,A,4821.5703,N,430.6654,W,10.00,250.52,051115,,*3A
$GPRMC,090150,A,4821.5691,N,430.6708,W,10.00,250.52,051115,,*38
$GPRMC,090150,A,4821.5678,N,430.6762,W,10.00,250.52,051115,,*33
$GPRMC,090150,A,4821.5665,N,430.6816,W,10.00,250.52,051115,,*33
$GPRMC,090150,A,4821.5653,N,430.6870,W,10.00,250.52,051115,,*36
$GPRMC,090150,A,4821.5640,N,430.6924,W,10.00,250.52,051115,,*34
$GPRMC,090150,A,4821.5627,N,430.6978,W,10.00,250.52,051115,,*3C
$GPRMC,090150,A,4821.5614,N,430.7032,W,10.00,250.52,051115,,*3A
$GPRMC,090150,A,4821.5602,N,430.7086,W,10.00,250.52,051115,,*32
$GPRMC,090150,A,4821.5589,N,430.7140,W,10.00,250.52,051115,,*39
$GPRMC,090150,A,4821.5576,N,430.7194,W,10.00,250.52,051115,,*30
$GPRMC,090150,A,4821.5563,N,430.7248,W,10.00,250.52,051115,,*36
$GPRMC,090150,A,4821.5551,N,430.7302,W,10.00,250.52,051115,,*38
$GPRMC,090150,A,4821.5538,N,430.7356,W,10.00,250.52,051115,,*36
$GPRMC,090150,A,4821.5525,N,430.7410,W,10.00,250.52,051115,,*3F
$GPRMC,090150,A,4821.5512,N,430.7464,W,10.00,250.52,051115,,*38
$GPRMC,090150,A,4821.5500,N,430.7518,W,10.00,250.52,051115,,*31
$GPRMC,090150,A,4821.5487,N,430.7572,W,10.00,250.52,051115,,*33
$GPRMC,090150,A,4821.5474,N,430.7626,W,10.00,250.52,051115,,*3D
$GPRMC,090150,A,4821.5461,N,430.7680,W,10.00,250.52,051115,,*35
$GPRMC,090150,A,4821.5449,N,430.7734,W,10.00,250.52,051115,,*31
$GPRMC,090150,A,4821.5436,N,430.7788,W,10.00,250.52,051115,,*3E
$GPRMC,090150,A,4821.5423,N,430.7842,W,10.00,250.52,051115,,*33
$GPRMC,090150,A,4821.5410,N,430.7896,W,10.00,250.52,051115,,*3A
$GPRMC,090150,A,4821.5398,N,430.7950,W,10.00,250.52,051115,,*36
$GPRMC,090150,A,4821.5385,N,430.8004,W,10.00,250.52,051115,,*3D
$GPRMC,090150,A,4821.5372,N,430.8058,W,10.00,250.52,051115,,*3C
$GPRMC,090150,A,4821.5359,N,430.8112,W,10.00,250.52,051115,,*3A
$GPRMC,090150,A,4821.5347,N,430.8166,W,10.00,250.52,051115,,*36
$GPRMC,090150,A,4821.5334,N,430.8220,W,10.00,250.52,051115,,*33
$GPRMC,090150,A,4821.5321,N,430.8274,W,10.00,250.52,051115,,*36
$GPRMC,090150,A,4821.5308,N,430.8328,W,10.00,250.52,051115,,*35
$GPRMC,090150,A,4821.5296,N,430.8382,W,10.00,250.52,051115,,*33
$GPRMC,090150,A,4821.5283,N,430.8436,W,10.00,250.52,051115,,*3F
$GPRMC,090150,A,4821.5270,N,430.8490,W,10.00,250.52,051115,,*3F
$GPRMC,090150,A,4821.5257,N,430.8544,W,10.00,250.52,051115,,*32
$GPRMC,090150,A,4821.5245,N,430.8598,W,10.00,250.52,051115,,*30
$GPRMC,090150,A,4821.5232,N,430.8652,W,10.00,250.52,051115,,*35
$GPRMC,090150,A,4821.5219,N,430.8706,W,10.00,250.52,051115,,*3C
$GPRMC,090150,A,4821.5206,N,430.8760,W,10.00,250.52,051115,,*32
$GPRMC,090150,A,4821.5194,N,430.8814,W,10.00,250.52,051115,,*36
$GPRMC,090150,A,4821.5181,N,430.8868,W,10.00,250.52,051115,,*39
$GPRMC,090150,A,4821.5168,N,430.8922,W,10.00,250.52,051115,,*31
$GPRMC,090150,A,4821.5156,N,430.8976,W,10.00,250.52,051115,,*3D
$GPRMC,090150,A,4821.5143,N,430.9030,W,10.00,250.52,051115,,*33
$GPRMC,090150,A,4821.5130,N,430.9084,W,10.00,250.52,051115,,*38
$GPRMC,090150,A,4821.5117,N,430.9138,W,10.00,250.52,051115,,*3B
$GPRMC,090150,A,4821.5105,N,430.9192,W,10.00,250.52,051115,,*38
$GPRMC,090150,A,4821.5092,N,430.9246,W,10.00,250.52,051115,,*3D
$GPRMC,090150,A,4821.5079,N,430.9300,W,10.00,250.52,051115,,*3B
$GPRMC,090150,A,4821.5066,N,430.9354,W,10.00,250.52,051115,,*34
$GPRMC,090150,A,4821.5054,N,430.9408,W,10.00,250.52,051115,,*3B
$GPRMC,090150,A,4821.5041,N,430.9462,W,10.00,250.52,051115,,*33
$GPRMC,090150,A,4821.5028,N,430.9516,W,10.00,250.52,051115,,*3E
$GPRMC,090150,A,4821.5015,N,430.9570,W,10.00,250.52,051115,,*30
$GPRMC,090150,A,4821.5003,N,430.9624,W,10.00,250.52,051115,,*35
$GPRMC,090150,A,4821.4990,N,430.9678,W,10.00,250.52,051115,,*3E
$GPRMC,090150,A,4821.4977,N,430.9732,W,10.00,250.52,051115,,*38
$GPRMC,090150,A,4821.4964,N,430.9786,W,10.00,250.52,051115,,*35
$GPRMC,090150,A,4821.4952,N,430.9840,W,10.00,250.52,051115,,*35
$GPRMC,090150,A,4821.4939,N,430.9894,W,10.00,250.52,051115,,*31
$GPRMC,090150,A,4821.4926,N,430.9948,W,10.00,250.52,051115,,*3F
$GPRMC,090150,A,4821.4913,N,431.0002,W,10.00,250.52,051115,,*36
$GPRMC,090150,A,4821.4901,N,431.0056,W,10.00,250.52,051115,,*34
$GPRMC,090150,A,4821.4888,N,431.0110,W,10.00,250.52,051115,,*37
$GPRMC,090150,A,4821.4875,N,431.0163,W,10.00,250.52,051115,,*31
$GPRMC,090150,A,4821.4862,N,431.0217,W,10.00,250.52,051115,,*37
$GPRMC,090150,A,4821.4850,N,431.0271,W,10.00,250.52,051115,,*36
$GPRMC,090150,A,4821.4837,N,431.0325,W,10.00,250.52,051115,,*37
$GPRMC,090150,A,4821.4824,N,431.0379,W,10.00,250.52,051115,,*3C
$GPRMC,090150,A,4821.4811,N,431.0433,W,10.00,250.52,051115,,*33
$GPRMC,090150,A,4821.4799,N,431.0487,W,10.00,250.52,051115,,*33
$GPRMC,090150,A,4821.4786,N,431.0541,W,10.00,250.52,051115,,*36
$GPRMC,090150,A,4821.4773,N,431.0595,W,10.00,250.52,051115,,*35
$GPRMC,090150,A,4821.4760,N,431.0649,W,10.00,250.52,051115,,*35
$GPRMC,090150,A,4821.4748,N,431.0703,W,10.00,250.52,051115,,*30
$GPRMC,090150,A,4821.4735,N,431.0757,W,10.00,250.52,051115,,*3B
$GPRMC,090150,A,4821.4722,N,431.0811,W,10.00,250.52,051115,,*30
$GPRMC,090150,A,4821.4709,N,431.0865,W,10.00,250.52,051115,,*3A
$GPRMC,090150,A,4821.4697,N,431.0919,W,10.00,250.52,051115,,*36
$GPRMC,090150,A,4821.4684,N,431.0973,W,10.00,250.52,051115,,*38
$GPRMC,090150,A,4821.4671,N,431.1027,W,10.00,250.52,051115,,*3B
$GPRMC,090150,A,4821.4658,N,431.1081,W,10.00,250.52,051115,,*3C
$GPRMC,090150,A,4821.4646,N,431.1135,W,10.00,250.52,051115,,*3D
$GPRMC,090150,A,4821.4633,N,431.1189,W,10.00,250.52,051115,,*38
$GPRMC,090150,A,4821.4620,N,431.1243,W,10.00,250.52,051115,,*3F
$GPRMC,090150,A,4821.4607,N,431.1297,W,10.00,250.52,051115,,*33
$GPRMC,090150,A,4821.4595,N,431.1351,W,10.00,250.52,051115,,*30
$GPRMC,090150,A,4821.4582,N,431.1405,W,10.00,250.52,051115,,*30
$GPRMC,090150,A,4821.4569,N,431.1459,W,10.00,250.52,051115,,*3C
$GPRMC,090150,A,4821.4556,N,431.1513,W,10.00,250.52,051115,,*3F
$GPRMC,090150,A,4821.4544,N,431.1567,W,10.00,250.52,051115,,*3F
$GPRMC,090150,A,4821.4531,N,431.1621,W,10.00,250.52,051115,,*3C
$GPRMC,090150,A,4821.4518,N,431.1675,W,10.00,250.52,051115,,*36
$GPRMC,090150,A,4821.4505,N,431.1729,W,10.00,250.52,051115,,*32
$GPRMC,090150,A,4821.4493,N,431.1783,W,10.00,250.52,051115,,*3C
$GPRMC,090150,A,4821.4480,N,431.1837,W,10.00,250.52,051115,,*3E
$GPRMC,090150,A,4821.4467,N,431.1891,W,10.00,250.52,051115,,*3B
$GPRMC,090150,A,4821.4454,N,431.1945,W,10.00,250.52,051115,,*33
$GPRMC,090150,A,4821.4442,N,431.1999,W,10.00,250.52,051115,,*35
$GPRMC,090150,A,4821.4429,N,431.2053,W,10.00,250.52,051115,,*34
$GPRMC,090150,A,4821.4416,N,431.2107,W,10.00,250.52,051115,,*38
$GPRMC,090150,A,4821.4403,N,431.2161,W,10.00,250.52,051115,,*3C
$GPRMC,090150,A,4821.4391,N,431.2215,W,10.00,250.52,051115,,*30
$GPRMC,090150,A,4821.4378,N,431.2269,W,10.00,250.52,051115,,*3C
$GPRMC,090150,A,4821.4365,N,431.2323,W,10.00,250.52,051115,,*3F
$GPRMC,090150,A,4821.4352,N,431.2377,W,10.00,250.52,051115,,*3A
$GPRMC,090150,A,4821.4340,N,431.2431,W,10.00,250.52,051115,,*3C
$GPRMC,090150,A,4821.4327,N,431.2485,W,10.00,250.52,051115,,*32
$GPRMC,090150,A,4821.4314,N,431.2539,W,10.00,250.52,051115,,*34
$GPRMC,090150,A,4821.4302,N,431.2593,W,10.00,250.52,051115,,*33
$GPRMC,090150,A,4821.4289,N,431.2647,W,10.00,250.52,051115,,*3B
$GPRMC,090150,A,4821.4276,N,431.2701,W,10.00,250.52,051115,,*38
$GPRMC,090150,A,4821.4263,N,431.2755,W,10.00,250.52,051115,,*3D
$GPRMC,090150,A,4821.4251,N,431.2809,W,10.00,250.52,051115,,*3A
$GPRMC,090150,A,4821.4238,N,431.2863,W,10.00,250.52,051115,,*39
$GPRMC,090150,A,4821.4225,N,431.2917,W,10.00,250.52,051115,,*37
$GPRMC,090150,A,4821.4212,N,431.2971,W,10.00,250.52,051115,,*33
$GPRMC,090150,A,4821.4200,N,431.3025,W,10.00,250.52,051115,,*39
$GPRMC,090150,A,4821.4187,N,431.3079,W,10.00,250.52,051115,,*3C
$GPRMC,090150,A,4821.4174,N,431.3133,W,10.00,250.52,051115,,*3F
$GPRMC,090150,A,4821.4161,N,431.3187,W,10.00,250.52,051115,,*34
$GPRMC,090150,A,4821.4149,N,431.3241,W,10.00,250.52,051115,,*37
$GPRMC,090150,A,4821.4136,N,431.3295,W,10.00,250.52,051115,,*36
$GPRMC,090150,A,4821.4123,N,431.3349,W,10.00,250.52,051115,,*32
$GPRMC,090150,A,4821.4110,N,431.3403,W,10.00,250.52,051115,,*3B
$GPRMC,090150,A,4821.4098,N,431.3457,W,10.00,250.52,051115,,*3B
$GPRMC,090150,A,4821.4085,N,431.3511,W,10.00,250.52,051115,,*34
$GPRMC,090150,A,4821.4072,N,431.3565,W,10.00,250.52,051115,,*3F
$GPRMC,090150,A,4821.4059,N,431.3619,W,10.00,250.52,051115,,*3E
$GPRMC,090150,A,4821.4047,N,431.3673,W,10.00,250.52,051115,,*3D
$GPRMC,090150,A,4821.4034,N,431.3727,W,10.00,250.52,051115,,*39
$GPRMC,090150,A,4821.4021,N,431.3780,W,10.00,250.52,051115,,*30
$GPRMC,090150,A,4821.4008,N,431.3834,W,10.00,250.52,051115,,*3B
$GPRMC,090150,A,4821.3996,N,431.3888,W,10.00,250.52,051115,,*35
$GPRMC,090150,A,4821.3983,N,431.3942,W,10.00,250.52,051115,,*36
$GPRMC,090150,A,4821.3970,N,431.3996,W,10.00,250.52,051115,,*33
$GPRMC,090150,A,4821.3957,N,431.4050,W,10.00,250.52,051115,,*32
$GPRMC,090150,A,4821.3945,N,431.4104,W,10.00,250.52,051115,,*31
$GPRMC,090150,A,4821.3932,N,431.4158,W,10.00,250.52,051115,,*38
$GPRMC,090150,A,4821.3919,N,431.4212,W,10.00,250.52,051115,,*3C
$GPRMC,090150,A,4821.3906,N,431.4266,W,10.00,250.52,051115,,*31
$GPRMC,090150,A,4821.3894,N,431.4320,W,10.00,250.52,051115,,*38
$GPRMC,090150,A,4821.3881,N,431.4374,W,10.00,250.52,051115,,*3D
$GPRMC,090150,A,4821.3868,N,431.4428,W,10.00,250.52,051115,,*34
$GPRMC,090150,A,4821.3855,N,431.4482,W,10.00,250.52,051115,,*3A
$GPRMC,090150,A,4821.3843,N,431.4536,W,10.00,250.52,051115,,*33
$GPRMC,090150,A,4821.3830,N,431.4590,W,10.00,250.52,051115,,*3B
$GPRMC,090150,A,4821.3817,N,431.4644,W,10.00,250.52,051115,,*34
$GPRMC,090150,A,4821.3804,N,431.4698,W,10.00,250.52,051115,,*37
$GPRMC,090150,A,4821.3792,N,431.4752,W,10.00,250.52,051115,,*30
$GPRMC,090150,A,4821.3779,N,431.4806,W,10.00,250.52,051115,,*3B
$GPRMC,090150,A,4821.3766,N,431.4860,W,10.00,250.52,051115,,*35
$GPRMC,090150,A,4821.3753,N,431.4914,W,10.00,250.52,051115,,*31
$GPRMC,090150,A,4821.3741,N,431.4968,W,10.00,250.52,051115,,*39
$GPRMC,090150,A,4821.3728,N,431.5022,W,10.00,250.52,051115,,*30
$GPRMC,090150,A,4821.3715,N,431.5076,W,10.00,250.52,051115,,*3F
$GPRMC,090150,A,4821.3702,N,431.5130,W,10.00,250.52,051115,,*3A
$GPRMC,090150,A,4821.3690,N,431.5184,W,10.00,250.52,051115,,*3F
$GPRMC,090150,A,4821.3677,N,431.5238,W,10.00,250.52,051115,,*32
$GPRMC,090150,A,4821.3664,N,431.5292,W,10.00,250.52,051115,,*30
$GPRMC,090150,A,4821.3651,N,431.5346,W,10.00,250.52,051115,,*3E
$GPRMC,090150,A,4821.3639,N,431.5400,W,10.00,250.52,051115,,*35
$GPRMC,090150,A,4821.3626,N,431.5454,W,10.00,250.52,051115,,*3A
$GPRMC,090150,A,4821.3613,N,431.5508,W,10.00,250.52,051115,,*34
$GPRMC,090150,A,4821.3600,N,431.5562,W,10.00,250.52,051115,,*3A
$GPRMC,090150,A,4821.3588,N,431.5616,W,10.00,250.52,051115,,*39
$GPRMC,090150,A,4821.3575,N,431.5670,W,10.00,250.52,051115,,*3B
$GPRMC,090150,A,4821.3562,N,431.5724,W,10.00,250.52,051115,,*3D
$GPRMC,090150,A,4821.3549,N,431.5778,W,10.00,250.52,051115,,*3D
$GPRMC,090150,A,4821.3537,N,431.5832,W,10.00,250.52,051115,,*35
$GPRMC,090150,A,4821.3524,N,431.5886,W,10.00,250.52,051115,,*38
$GPRMC,090150,A,4821.3511,N,431.5940,W,10.00,250.52,051115,,*35
$GPRMC,090150,A,4821.3498,N,431.5994,W,10.00,250.52,051115,,*3C
$GPRMC,090150,A,4821.3486,N,431.6048,W,10.00,250.52,051115,,*38
$GPRMC,090150,A,4821.3473,N,431.6102,W,10.00,250.52,051115,,*3D
$GPRMC,090150,A,4821.3460,N,431.6156,W,10.00,250.52,051115,,*3E
$GPRMC,090150,A,4821.3447,N,431.6210,W,10.00,250.52,051115,,*3A
$GPRMC,090150,A,4821.3435,N,431.6264,W,10.00,250.52,051115,,*3C
$GPRMC,090150,A,4821.3422,N,431.6318,W,10.00,250.52,051115,,*30
$GPRMC,090150,A,4821.3409,N,431.6372,W,10.00,250.52,051115,,*35
$GPRMC,090150,A,4821.3396,N,431.6426,W,10.00,250.52,051115,,*32
$GPRMC,090150,A,4821.3384,N,431.6480,W,10.00,250.52,051115,,*3D
$GPRMC,090150,A,4821.3371,N,431.6534,W,10.00,250.52,051115,,*39
$GPRMC,090150,A,4821.3358,N,431.6588,W,10.00,250.52,051115,,*35
$GPRMC,090150,A,4821.3345,N,431.6642,W,10.00,250.52,051115,,*3C
$GPRMC,090150,A,4821.3333,N,431.6696,W,10.00,250.52,051115,,*34
$GPRMC,090150,A,4821.3320,N,431.6750,W,10.00,250.52,051115,,*3D
$GPRMC,090150,A,4821.3307,N,431.6803,W,10.00,250.52,051115,,*31
$GPRMC,090150,A,4821.3294,N,431.6857,W,10.00,250.52,051115,,*3B
$GPRMC,090150,A,4821.3282,N,431.6911,W,10.00,250.52,051115,,*3F
$GPRMC,090150,A,4821.3269,N,431.6965,W,10.00,250.52,051115,,*39
$GPRMC,090150,A,4821.3256,N,431.7019,W,10.00,250.52,051115,,*36
$GPRMC,090150,A,4821.3243,N,431.7073,W,10.00,250.52,051115,,*3E
$GPRMC,090150,A,4821.3231,N,431.7127,W,10.00,250.52,051115,,*3B
$GPRMC,090150,A,4821.3218,N,431.7181,W,10.00,250.52,051115,,*3C
$GPRMC,090150,A,4821.3205,N,431.7235,W,10.00,250.52,051115,,*3C
$GPRMC,090150,A,4821.3192,N,431.7289,W,10.00,250.52,051115,,*36
$GPRMC,090150,A,4821.3180,N,431.7343,W,10.00,250.52,051115,,*32
$GPRMC,090150,A,4821.3167,N,431.7397,W,10.00,250.52,051115,,*32
$GPRMC,090150,A,4821.3154,N,431.7451,W,10.00,250.52,051115,,*3F
$GPRMC,090150,A,4821.3141,N,431.7505,W,10.00,250.52,051115,,*3B
$GPRMC,090150,A,4821.3129,N,431.7559,W,10.00,250.52,051115,,*3C
$GPRMC,090150,A,4821.3116,N,431.7613,W,10.00,250.52,051115,,*3D
$GPRMC,090150,A,4821.3103,N,431.7667,W,10.00,250.52,051115,,*3A
$GPRMC,090150,A,4821.3090,N,431.7721,W,10.00,250.52,051115,,*32
$GPRMC,090150,A,4821.3078,N,431.7775,W,10.00,250.52,051115,,*35
$GPRMC,090150,A,4821.3065,N,431.7829,W,10.00,250.52,051115,,*3F
$GPRMC,090150,A,4821.3052,N,431.7883,W,10.00,250.52,051115,,*3B
$GPRMC,090150,A,4821.3039,N,431.7937,W,10.00,250.52,051115,,*38
$GPRMC,090150,A,4821.3027,N,431.7991,W,10.00,250.52,051115,,*3B
$GPRMC,090150,A,4821.3014,N,431.8045,W,10.00,250.52,051115,,*34
$GPRMC,090150,A,4821.3001,N,431.8099,W,10.00,250.52,051115,,*31
$GPRMC,090150,A,4821.2988,N,431.8153,W,10.00,250.52,051115,,*3F
$GPRMC,090150,A,4821.2976,N,431.8207,W,10.00,250.52,051115,,*3C
$GPRMC,090150,A,4821.2963,N,431.8261,W,10.00,250.52,051115,,*38
$GPRMC,090150,A,4821.2950,N,431.8315,W,10.00,250.52,051115,,*3A
$GPRMC,090150,A,4821.2937,N,431.8369,W,10.00,250.52,051115,,*30
$GPRMC,090150,A,4821.2925,N,431.8423,W,10.00,250.52,051115,,*3A
$GPRMC,090150,A,4821.2912,N,431.8477,W,10.00,250.52,051115,,*3F
$GPRMC,090150,A,4821.2899,N,431.8531,W,10.00,250.52,051115,,*3E
$GPRMC,090150,A,4821.2886,N,431.8585,W,10.00,250.52,051115,,*3F
$GPRMC,090150,A,4821.2873,N,431.8639,W,10.00,250.52,051115,,*31
$GPRMC,090150,A,4821.2861,N,431.8693,W,10.00,250.52,051115,,*32
$GPRMC,090150,A,4821.2848,N,431.8747,W,10.00,250.52,051115,,*31
$GPRMC,090150,A,4821.2835,N,431.8801,W,10.00,250.52,051115,,*36
$GPRMC,090150,A,4821.2822,N,431.8855,W,10.00,250.52,051115,,*31
$GPRMC,090150,A,4821.2810,N,431.8909,W,10.00,250.52,051115,,*38
$GPRMC,090150,A,4821.2797,N,431.8963,W,10.00,250.52,051115,,*34
$GPRMC,090150,A,4821.2784,N,431.9017,W,10.00,250.52,051115,,*3D
$GPRMC,090150,A,4821.2771,N,431.9071,W,10.00,250.52,051115,,*37
$GPRMC,090150,A,4821.2759,N,431.9125,W,10.00,250.52,051115,,*3D
$GPRMC,090150,A,4821.2746,N,431.9179,W,10.00,250.52,051115,,*3A
$GPRMC,090150,A,4821.2733,N,431.9233,W,10.00,250.52,051115,,*35
$GPRMC,090150,A,4821.2720,N,431.9287,W,10.00,250.52,051115,,*38
$GPRMC,090150,A,4821.2708,N,431.9341,W,10.00,250.52,051115,,*39
$GPRMC,090150,A,4821.2695,N,431.9395,W,10.00,250.52,051115,,*35
$GPRMC,090150,A,4821.2682,N,431.9448,W,10.00,250.52,051115,,*34
$GPRMC,090150,A,4821.2669,N,431.9502,W,10.00,250.52,051115,,*3E
$GPRMC,090150,A,4821.2657,N,431.9556,W,10.00,250.52,051115,,*32
$GPRMC,090150,A,4821.2644,N,431.9610,W,10.00,250.52,051115,,*31
$GPRMC,090150,A,4821.2631,N,431.9664,W,10.00,250.52,051115,,*30
$GPRMC,090150,A,4821.2618,N,431.9718,W,10.00,250.52,051115,,*31
$GPRMC,090150,A,4821.2606,N,431.9772,W,10.00,250.52,051115,,*32
$GPRMC,090150,A,4821.2593,N,431.9826,W,10.00,250.52,051115,,*33
$GPRMC,090150,A,4821.2580,N,431.9880,W,10.00,250.52,051115,,*3D
$GPRMC,090150,A,4821.2567,N,431.9934,W,10.00,250.52,051115,,*3A
$GPRMC,090150,A,4821.2555,N,431.9988,W,10.00,250.52,051115,,*3C
$GPRMC,090150,A,4821.2542,N,432.0042,W,10.00,250.52,051115,,*3F
$GPRMC,090150,A,4821.2529,N,432.0096,W,10.00,250.52,051115,,*3B
$GPRMC,090150,A,4821.2516,N,432.0150,W,10.00,250.52,051115,,*3C
$GPRMC,090150,A,4821.2504,N,432.0204,W,10.00,250.52,051115,,*3D
$GPRMC,090150,A,4821.2491,N,432.0258,W,10.00,250.52,051115,,*39
$GPRMC,090150,A,4821.2478,N,432.0312,W,10.00,250.52,051115,,*31
$GPRMC,090150,A,4821.2465,N,432.0366,W,10.00,250.52,051115,,*3E
$GPRMC,090150,A,4821.2453,N,432.0420,W,10.00,250.52,051115,,*3E
$GPRMC,090150,A,4821.2440,N,432.0474,W,10.00,250.52,051115,,*3D
$GPRMC,090150,A,4821.2427,N,432.0528,W,10.00,250.52,051115,,*34
$GPRMC,090150,A,4821.2414,N,432.0582,W,10.00,250.52,051115,,*34
$GPRMC,090150,A,4821.2402,N,432.0636,W,10.00,250.52,051115,,*3F
$GPRMC,090150,A,4821.2389,N,432.0690,W,10.00,250.52,051115,,*37
$GPRMC,090150,A,4821.2376,N,432.0744,W,10.00,250.52,051115,,*3F
$GPRMC,090150,A,4821.2363,N,432.0798,W,10.00,250.52,051115,,*3A
$GPRMC,090150,A,4821.2351,N,432.0852,W,10.00,250.52,051115,,*32
$GPRMC,090150,A,4821.2338,N,432.0906,W,10.00,250.52,051115,,*3D
$GPRMC,090150,A,4821.2325,N,432.0960,W,10.00,250.52,051115,,*31
$GPRMC,090150,A,4821.2312,N,432.1014,W,10.00,250.52,051115,,*3E
$GPRMC,090150,A,4821.2300,N,432.1068,W,10.00,250.52,051115,,*36
$GPRMC,090150,A,4821.2287,N,432.1122,W,10.00,250.52,051115,,*37
$GPRMC,090150,A,4821.2274,N,432.1176,W,10.00,250.52,051115,,*3A
$GPRMC,090150,A,4821.2261,N,432.1230,W,10.00,250.52,051115,,*3F
$GPRMC,090150,A,4821.2249,N,432.1284,W,10.00,250.52,051115,,*3A
$GPRMC,090150,A,4821.2236,N,432.1338,W,10.00,250.52,051115,,*34
$GPRMC,090150,A,4821.2223,N,432.1392,W,10.00,250.52,051115,,*30
$GPRMC,090150,A,4821.2210,N,432.1446,W,10.00,250.52,051115,,*3E
$GPRMC,090150,A,4821.2198,N,432.1500,W,10.00,250.52,051115,,*3E
$GPRMC,090150,A,4821.2185,N,432.1554,W,10.00,250.52,051115,,*33
$GPRMC,090150,A,4821.2172,N,432.1608,W,10.00,250.52,051115,,*31
$GPRMC,090150,A,4821.2159,N,432.1662,W,10.00,250.52,051115,,*34
$GPRMC,090150,A,4821.2147,N,432.1716,W,10.00,250.52,051115,,*39
$GPRMC,090150,A,4821.2134,N,432.1770,W,10.00,250.52,051115,,*3D
$GPRMC,090150,A,4821.2121,N,432.1824,W,10.00,250.52,051115,,*37
$GPRMC,090150,A,4821.2108,N,432.1877,W,10.00,250.52,051115,,*3A
$GPRMC,090150,A,4821.2096,N,432.1931,W,10.00,250.52,051115,,*3F
$GPRMC,090150,A,4821.2083,N,432.1985,W,10.00,250.52,051115,,*34
$GPRMC,090150,A,4821.2070,N,432.2039,W,10.00,250.52,051115,,*35
$GPRMC,090150,A,4821.2057,N,432.2093,W,10.00,250.52,051115,,*30
$GPRMC,090150,A,4821.2045,N,432.2147,W,10.00,250.52,051115,,*3B
$GPRMC,090150,A,4821.2032,N,432.2201,W,10.00,250.52,051115,,*3A
$GPRMC,090150,A,4821.2019,N,432.2255,W,10.00,250.52,051115,,*32
$GPRMC,090150,A,4821.2006,N,432.2309,W,10.00,250.52,051115,,*34
$GPRMC,090150,A,4821.1993,N,432.2363,W,10.00,250.52,051115,,*3E
$GPRMC,090150,A,4821.1981,N,432.2417,W,10.00,250.52,051115,,*39
$GPRMC,090150,A,4821.1968,N,432.2471,W,10.00,250.52,051115,,*3E
$GPRMC,090150,A,4821.1955,N,432.2525,W,10.00,250.52,051115,,*30
$GPRMC,090150,A,4821.1942,N,432.2579,W,10.00,250.52,051115,,*3F
$GPRMC,090150,A,4821.1930,N,432.2633,W,10.00,250.52,051115,,*37
$GPRMC,090150,A,4821.1917,N,432.2687,W,10.00,250.52,051115,,*3D
$GPRMC,090150,A,4821.1904,N,432.2741,W,10.00,250.52,051115,,*34
$GPRMC,090150,A,4821.1891,N,432.2795,W,10.00,250.52,051115,,*30
$GPRMC,090150,A,4821.1879,N,432.2849,W,10.00,250.52,051115,,*38
$GPRMC,090150,A,4821.1866,N,432.2903,W,10.00,250.52,051115,,*39
$GPRMC,090150,A,4821.1853,N,432.2957,W,10.00,250.52,051115,,*3E
$GPRMC,090150,A,4821.1840,N,432.3011,W,10.00,250.52,051115,,*36
$GPRMC,090150,A,4821.1828,N,432.3065,W,10.00,250.52,051115,,*3B
$GPRMC,090150,A,4821.1815,N,432.3119,W,10.00,250.52,051115,,*3F
$GPRMC,090150,A,4821.1802,N,432.3173,W,10.00,250.52,051115,,*35
$GPRMC,090150,A,4821.1789,N,432.3227,W,10.00,250.52,051115,,*3B
$GPRMC,090150,A,4821.1777,N,432.3281,W,10.00,250.52,051115,,*36
$GPRMC,090150,A,4821.1764,N,432.3335,W,10.00,250.52,051115,,*3A
$GPRMC,090150,A,4821.1751,N,432.3389,W,10.00,250.52,051115,,*3B
$GPRMC,090150,A,4821.1738,N,432.3443,W,10.00,250.52,051115,,*35
$GPRMC,090150,A,4821.1726,N,432.3497,W,10.00,250.52,051115,,*33
$GPRMC,090150,A,4821.1713,N,432.3551,W,10.00,250.52,051115,,*3E
$GPRMC,090150,A,4821.1700,N,432.3605,W,10.00,250.52,051115,,*3E
$GPRMC,090150,A,4821.1687,N,432.3659,W,10.00,250.52,051115,,*39
$GPRMC,090150,A,4821.1675,N,432.3713,W,10.00,250.52,051115,,*3B
$GPRMC,090150,A,4821.1662,N,432.3767,W,10.00,250.52,051115,,*3E
$GPRMC,090150,A,4821.1649,N,432.3821,W,10.00,250.52,051115,,*3A
$GPRMC,090150,A,4821.1636,N,432.3875,W,10.00,250.52,051115,,*33
$GPRMC,090150,A,4821.1624,N,432.3929,W,10.00,250.52,051115,,*38
$GPRMC,090150,A,4821.1611,N,432.3983,W,10.00,250.52,051115,,*3E
$GPRMC,090150,A,4821.1598,N,432.4037,W,10.00,250.52,051115,,*3D
$GPRMC,090150,A,4821.1585,N,432.4090,W,10.00,250.52,051115,,*3C
$GPRMC,090150,A,4821.1573,N,432.4144,W,10.00,250.52,051115,,*3D
$GPRMC,090150,A,4821.1560,N,432.4198,W,10.00,250.52,051115,,*3E
$GPRMC,090150,A,4821.1547,N,432.4252,W,10.00,250.52,051115,,*3E
$GPRMC,090150,A,4821.1534,N,432.4306,W,10.00,250.52,051115,,*3A
$GPRMC,090150,A,4821.1522,N,432.4360,W,10.00,250.52,051115,,*3D
$GPRMC,090150,A,4821.1509,N,432.4414,W,10.00,250.52,051115,,*30
$GPRMC,090150,A,4821.1496,N,432.4468,W,10.00,250.52,051115,,*3C
$GPRMC,090150,A,4821.1483,N,432.4522,W,10.00,250.52,051115,,*37
$GPRMC,090150,A,4821.1470,N,432.4576,W,10.00,250.52,051115,,*3A
$GPRMC,090150,A,4821.1458,N,432.4630,W,10.00,250.52,051115,,*31
$GPRMC,090150,A,4821.1445,N,432.4684,W,10.00,250.52,051115,,*32
$GPRMC,090150,A,4821.1432,N,432.4738,W,10.00,250.52,051115,,*34
$GPRMC,090150,A,4821.1419,N,432.4792,W,10.00,250.52,051115,,*3D
$GPRMC,090150,A,4821.1407,N,432.4846,W,10.00,250.52,051115,,*34
$GPRMC,090150,A,4821.1394,N,432.4900,W,10.00,250.52,051115,,*3A
$GPRMC,090150,A,4821.1381,N,432.4954,W,10.00,250.52,051115,,*3F
$GPRMC,090150,A,4821.1368,N,432.5008,W,10.00,250.52,051115,,*39
$GPRMC,090150,A,4821.1356,N,432.5062,W,10.00,250.52,051115,,*38
$GPRMC,090150,A,4821.1343,N,432.5116,W,10.00,250.52,051115,,*3E
$GPRMC,090150,A,4821.1330,N,432.5170,W,10.00,250.52,051115,,*3A
$GPRMC,090150,A,4821.1317,N,432.5224,W,10.00,250.52,051115,,*3D
$GPRMC,090150,A,4821.1305,N,432.5278,W,10.00,250.52,051115,,*37
$GPRMC,090150,A,4821.1292,N,432.5332,W,10.00,250.52,051115,,*37
$GPRMC,090150,A,4821.1279,N,432.5386,W,10.00,250.52,051115,,*3D
$GPRMC,090150,A,4821.1266,N,432.5440,W,10.00,250.52,051115,,*3E
$GPRMC,090150,A,4821.1254,N,432.5494,W,10.00,250.52,051115,,*36
$GPRMC,090150,A,4821.1241,N,432.5548,W,10.00,250.52,051115,,*32
$GPRMC,090150,A,4821.1228,N,432.5602,W,10.00,250.52,051115,,*30
$GPRMC,090150,A,4821.1215,N,432.5656,W,10.00,250.52,051115,,*3F
$GPRMC,090150,A,4821.1203,N,432.5710,W,10.00,250.52,051115,,*3B
$GPRMC,090150,A,4821.1190,N,432.5764,W,10.00,250.52,051115,,*31
$GPRMC,090150,A,4821.1177,N,432.5818,W,10.00,250.52,051115,,*3C
$GPRMC,090150,A,4821.1164,N,432.5872,W,10.00,250.52,051115,,*32
$GPRMC,090150,A,4821.1152,N,432.5926,W,10.00,250.52,051115,,*37
$GPRMC,090150,A,4821.1139,N,432.5980,W,10.00,250.52,051115,,*36
$GPRMC,090150,A,4821.1126,N,432.6034,W,10.00,250.52,051115,,*3D
$GPRMC,090150,A,4821.1113,N,432.6088,W,10.00,250.52,051115,,*3C
$GPRMC,090150,A,4821.1101,N,432.6142,W,10.00,250.52,051115,,*38
$GPRMC,090150,A,4821.1088,N,432.6195,W,10.00,250.52,051115,,*32
$GPRMC,090150,A,4821.1075,N,432.6249,W,10.00,250.52,051115,,*32
$GPRMC,090150,A,4821.1062,N,432.6303,W,10.00,250.52,051115,,*3B
$GPRMC,090150,A,4821.1049,N,432.6357,W,10.00,250.52,051115,,*33
$GPRMC,090150,A,4821.1037,N,432.6411,W,10.00,250.52,051115,,*3F
$GPRMC,090150,A,4821.1024,N,432.6465,W,10.00,250.52,051115,,*3E
$GPRMC,090150,A,4821.1011,N,432.6519,W,10.00,250.52,051115,,*32
$GPRMC,090150,A,4821.0998,N,432.6573,W,10.00,250.52,051115,,*37
$GPRMC,090150,A,4821.0986,N,432.6627,W,10.00,250.52,051115,,*3A
$GPRMC,090150,A,4821.0973,N,432.6681,W,10.00,250.52,051115,,*3C
$GPRMC,090150,A,4821.0960,N,432.6735,W,10.00,250.52,051115,,*30
$GPRMC,090150,A,4821.0947,N,432.6789,W,10.00,250.52,051115,,*32
$GPRMC,090150,A,4821.0935,N,432.6843,W,10.00,250.52,051115,,*3E
$GPRMC,090150,A,4821.0922,N,432.6897,W,10.00,250.52,051115,,*31
$GPRMC,090150,A,4821.0909,N,432.6951,W,10.00,250.52,051115,,*33
$GPRMC,090150,A,4821.0896,N,432.7005,W,10.00,250.52,051115,,*3D
$GPRMC,090150,A,4821.0884,N,432.7059,W,10.00,250.52,051115,,*37
$GPRMC,090150,A,4821.0871,N,432.7113,W,10.00,250.52,051115,,*32
$GPRMC,090150,A,4821.0858,N,432.7167,W,10.00,250.52,051115,,*3A
$GPRMC,090150,A,4821.0845,N,432.7221,W,10.00,250.52,051115,,*37
$GPRMC,090150,A,4821.0833,N,432.7275,W,10.00,250.52,051115,,*37
$GPRMC,090150,A,4821.0820,N,432.7329,W,10.00,250.52,051115,,*3D
$GPRMC,090150,A,4821.0807,N,432.7383,W,10.00,250.52,051115,,*38
$GPRMC,090150,A,4821.0794,N,432.7437,W,10.00,250.52,051115,,*35
$GPRMC,090150,A,4821.0782,N,432.7491,W,10.00,250.52,051115,,*3E
$GPRMC,090150,A,4821.0769,N,432.7545,W,10.00,250.52,051115,,*33
$GPRMC,090150,A,4821.0756,N,432.7599,W,10.00,250.52,051115,,*3E
$GPRMC,090150,A,4821.0743,N,432.7653,W,10.00,250.52,051115,,*3F
$GPRMC,090150,A,4821.0730,N,432.7707,W,10.00,250.52,051115,,*3B
$GPRMC,090150,A,4821.0718,N,432.7761,W,10.00,250.52,051115,,*31
$GPRMC,090150,A,4821.0705,N,432.7815,W,10.00,250.52,051115,,*31
$GPRMC,090150,A,4821.0692,N,432.7869,W,10.00,250.52,051115,,*35
$GPRMC,090150,A,4821.0679,N,432.7923,W,10.00,250.52,051115,,*3F
$GPRMC,090150,A,4821.0667,N,432.7977,W,10.00,250.52,051115,,*31
$GPRMC,090150,A,4821.0654,N,432.8031,W,10.00,250.52,051115,,*35
$GPRMC,090150,A,4821.0641,N,432.8085,W,10.00,250.52,051115,,*3E
$GPRMC,090150,A,4821.0628,N,432.8138,W,10.00,250.52,051115,,*36
$GPRMC,090150,A,4821.0616,N,432.8192,W,10.00,250.52,051115,,*3B
$GPRMC,090150,A,4821.0603,N,432.8246,W,10.00,250.52,051115,,*35
$GPRMC,090150,A,4821.0590,N,432.8300,W,10.00,250.52,051115,,*3F
$GPRMC,090150,A,4821.0577,N,432.8354,W,10.00,250.52,051115,,*37
$GPRMC,090150,A,4821.0565,N,432.8408,W,10.00,250.52,051115,,*3A
$GPRMC,090150,A,4821.0552,N,432.8462,W,10.00,250.52,051115,,*32
$GPRMC,090150,A,4821.0539,N,432.8516,W,10.00,250.52,051115,,*3D
$GPRMC,090150,A,4821.0526,N,432.8570,W,10.00,250.52,051115,,*33
$GPRMC,090150,A,4821.0514,N,432.8624,W,10.00,250.52,051115,,*30
$GPRMC,090150,A,4821.0501,N,432.8678,W,10.00,250.52,051115,,*3D
$GPRMC,090150,A,4821.0488,N,432.8732,W,10.00,250.52,051115,,*32
$GPRMC,090150,A,4821.0475,N,432.8786,W,10.00,250.52,051115,,*3F
$GPRMC,090150,A,4821.0463,N,432.8840,W,10.00,250.52,051115,,*3D
$GPRMC,090150,A,4821.0450,N,432.8894,W,10.00,250.52,051115,,*34
$GPRMC,090150,A,4821.0437,N,432.8948,W,10.00,250.52,051115,,*35
$GPRMC,090150,A,4821.0424,N,432.9002,W,10.00,250.52,051115,,*31
$GPRMC,090150,A,4821.0411,N,432.9056,W,10.00,250.52,051115,,*36
$GPRMC,090150,A,4821.0399,N,432.9110,W,10.00,250.52,051115,,*32
$GPRMC,090150,A,4821.0386,N,432.9164,W,10.00,250.52,051115,,*3F
$GPRMC,090150,A,4821.0373,N,432.9218,W,10.00,250.52,051115,,*3D
$GPRMC,090150,A,4821.0360,N,432.9272,W,10.00,250.52,051115,,*33
$GPRMC,090150,A,4821.0348,N,432.9326,W,10.00,250.52,051115,,*39
$GPRMC,090150,A,4821.0335,N,432.9380,W,10.00,250.52,051115,,*3F
$GPRMC,090150,A,4821.0322,N,432.9434,W,10.00,250.52,051115,,*31
$GPRMC,090150,A,4821.0309,N,432.9488,W,10.00,250.52,051115,,*3F
$GPRMC,090150,A,4821.0297,N,432.9542,W,10.00,250.52,051115,,*3E
$GPRMC,090150,A,4821.0284,N,432.9596,W,10.00,250.52,051115,,*35
$GPRMC,090150,A,4821.0271,N,432.9650,W,10.00,250.52,051115,,*36
$GPRMC,090150,A,4821.0258,N,432.9704,W,10.00,250.52,051115,,*3D
$GPRMC,090150,A,4821.0246,N,432.9758,W,10.00,250.52,051115,,*3B
$GPRMC,090150,A,4821.0233,N,432.9812,W,10.00,250.52,051115,,*38
$GPRMC,090150,A,4821.0220,N,432.9866,W,10.00,250.52,051115,,*39
$GPRMC,090150,A,4821.0207,N,432.9920,W,10.00,250.52,051115,,*3F
$GPRMC,090150,A,4821.0195,N,432.9973,W,10.00,250.52,051115,,*31
$GPRMC,090150,A,4821.0182,N,433.0027,W,10.00,250.52,051115,,*37
$GPRMC,090150,A,4821.0169,N,433.0081,W,10.00,250.52,051115,,*3E
$GPRMC,090150,A,4821.0156,N,433.0135,W,10.00,250.52,051115,,*3C
$GPRMC,090150,A,4821.0144,N,433.0189,W,10.00,250.52,051115,,*38
$GPRMC,090150,A,4821.0131,N,433.0243,W,10.00,250.52,051115,,*3F
$GPRMC,090150,A,4821.0118,N,433.0297,W,10.00,250.52,051115,,*3D
$GPRMC,090150,A,4821.0105,N,433.0351,W,10.00,250.52,051115,,*3A
$GPRMC,090150,A,4821.0092,N,433.0405,W,10.00,250.52,051115,,*33
$GPRMC,090150,A,4821.0080,N,433.0459,W,10.00,250.52,051115,,*39
$GPRMC,090150,A,4821.0067,N,433.0513,W,10.00,250.52,051115,,*3F
$GPRMC,090150,A,4821.0054,N,433.0567,W,10.00,250.52,051115,,*3C
$GPRMC,090150,A,4821.0041,N,433.0621,W,10.00,250.52,051115,,*39
$GPRMC,090150,A,4821.0029,N,433.0675,W,10.00,250.52,051115,,*36
$GPRMC,090150,A,4821.0016,N,433.0729,W,10.00,250.52,051115,,*32
$GPRMC,090150,A,4821.0003,N,433.0783,W,10.00,250.52,051115,,*36
$GPRMC,090150,A,4820.9990,N,433.0837,W,10.00,250.52,051115,,*3D
$GPRMC,090150,A,4820.9978,N,433.0891,W,10.00,250.52,051115,,*37
$GPRMC,090150,A,4820.9965,N,433.0945,W,10.00,250.52,051115,,*33
$GPRMC,090150,A,4820.9952,N,433.0999,W,10.00,250.52,051115,,*36
$GPRMC,090150,A,4820.9939,N,433.1053,W,10.00,250.52,051115,,*35
$GPRMC,090150,A,4820.9927,N,433.1107,W,10.00,250.52,051115,,*3A
$GPRMC,090150,A,4820.9914,N,433.1161,W,10.00,250.52,051115,,*3A
$GPRMC,090150,A,4820.9901,N,433.1215,W,10.00,250.52,051115,,*3E
$GPRMC,090150,A,4820.9888,N,433.1269,W,10.00,250.52,051115,,*35
$GPRMC,090150,A,4820.9876,N,433.1323,W,10.00,250.52,051115,,*3B
$GPRMC,090150,A,4820.9863,N,433.1377,W,10.00,250.52,051115,,*3E
$GPRMC,090150,A,4820.9850,N,433.1431,W,10.00,250.52,051115,,*3B
$GPRMC,090150,A,4820.9837,N,433.1485,W,10.00,250.52,051115,,*35
$GPRMC,090150,A,4820.9824,N,433.1539,W,10.00,250.52,051115,,*31
$GPRMC,090150,A,4820.9812,N,433.1593,W,10.00,250.52,051115,,*34
$GPRMC,090150,A,4820.9799,N,433.1647,W,10.00,250.52,051115,,*32
$GPRMC,090150,A,4820.9786,N,433.1701,W,10.00,250.52,051115,,*3F
$GPRMC,090150,A,4820.9773,N,433.1754,W,10.00,250.52,051115,,*35
$GPRMC,090150,A,4820.9761,N,433.1808,W,10.00,250.52,051115,,*30
$GPRMC,090150,A,4820.9748,N,433.1862,W,10.00,250.52,051115,,*37
$GPRMC,090150,A,4820.9735,N,433.1916,W,10.00,250.52,051115,,*3F
$GPRMC,090150,A,4820.9722,N,433.1970,W,10.00,250.52,051115,,*39
$GPRMC,090150,A,4820.9710,N,433.2024,W,10.00,250.52,051115,,*33
$GPRMC,090150,A,4820.9697,N,433.2078,W,10.00,250.52,051115,,*34
$GPRMC,090150,A,4820.9684,N,433.2132,W,10.00,250.52,051115,,*39
$GPRMC,090150,A,4820.9671,N,433.2186,W,10.00,250.52,051115,,*3C
$GPRMC,090150,A,4820.9659,N,433.2240,W,10.00,250.52,051115,,*3F
$GPRMC,090150,A,4820.9646,N,433.2294,W,10.00,250.52,051115,,*38
$GPRMC,090150,A,4820.9633,N,433.2348,W,10.00,250.52,051115,,*3A
$GPRMC,090150,A,4820.9620,N,433.2402,W,10.00,250.52,051115,,*31
$GPRMC,090150,A,4820.9607,N,433.2456,W,10.00,250.52,051115,,*35
$GPRMC,090150,A,4820.9595,N,433.2510,W,10.00,250.52,051115,,*3E
$GPRMC,090150,A,4820.9582,N,433.2564,W,10.00,250.52,051115,,*3B
$GPRMC,090150,A,4820.9569,N,433.2618,W,10.00,250.52,051115,,*36
$GPRMC,090150,A,4820.9556,N,433.2672,W,10.00,250.52,051115,,*36
$GPRMC,090150,A,4820.9544,N,433.2726,W,10.00,250.52,051115,,*35
$GPRMC,090150,A,4820.9531,N,433.2780,W,10.00,250.52,051115,,*3B
$GPRMC,090150,A,4820.9518,N,433.2834,W,10.00,250.52,051115,,*30
$GPRMC,090150,A,4820.9505,N,433.2888,W,10.00,250.52,051115,,*3B
$GPRMC,090150,A,4820.9493,N,433.2942,W,10.00,250.52,051115,,*32
$GPRMC,090150,A,4820.9480,N,433.2996,W,10.00,250.52,051115,,*39
$GPRMC,090150,A,4820.9467,N,433.3050,W,10.00,250.52,051115,,*32
$GPRMC,090150,A,4820.9454,N,433.3104,W,10.00,250.52,051115,,*32
$GPRMC,090150,A,4820.9442,N,433.3158,W,10.00,250.52,051115,,*3C
$GPRMC,090150,A,4820.9429,N,433.3212,W,10.00,250.52,051115,,*3C
$GPRMC,090150,A,4820.9416,N,433.3266,W,10.00,250.52,051115,,*33
$GPRMC,090150,A,4820.9403,N,433.3320,W,10.00,250.52,051115,,*34
$GPRMC,090150,A,4820.9391,N,433.3374,W,10.00,250.52,051115,,*39
$GPRMC,090150,A,4820.9378,N,433.3427,W,10.00,250.52,051115,,*3F
$GPRMC,090150,A,4820.9365,N,433.3481,W,10.00,250.52,051115,,*3F
$GPRMC,090150,A,4820.9352,N,433.3535,W,10.00,250.52,051115,,*35
$GPRMC,090150,A,4820.9339,N,433.3589,W,10.00,250.52,051115,,*3F
$GPRMC,090150,A,4820.9327,N,433.3643,W,10.00,250.52,051115,,*35
$GPRMC,090150,A,4820.9314,N,433.3697,W,10.00,250.52,051115,,*3C
$GPRMC,090150,A,4820.9301,N,433.3751,W,10.00,250.52,051115,,*33
$GPRMC,090150,A,4820.9288,N,433.3805,W,10.00,250.52,051115,,*3D
$GPRMC,090150,A,4820.9276,N,433.3859,W,10.00,250.52,051115,,*35
$GPRMC,090150,A,4820.9263,N,433.3913,W,10.00,250.52,051115,,*3E
$GPRMC,090150,A,4820.9250,N,433.3967,W,10.00,250.52,051115,,*3D
$GPRMC,090150,A,4820.9237,N,433.4021,W,10.00,250.52,051115,,*30
$GPRMC,090150,A,4820.9225,N,433.4075,W,10.00,250.52,051115,,*32
$GPRMC,090150,A,4820.9212,N,433.4129,W,10.00,250.52,051115,,*3E
$GPRMC,090150,A,4820.9199,N,433.4183,W,10.00,250.52,051115,,*3E
$GPRMC,090150,A,4820.9186,N,433.4237,W,10.00,250.52,051115,,*3C
$GPRMC,090150,A,4820.9174,N,433.4291,W,10.00,250.52,051115,,*3D
$GPRMC,090150,A,4820.9161,N,433.4345,W,10.00,250.52,051115,,*31
$GPRMC,090150,A,4820.9148,N,433.4399,W,10.00,250.52,051115,,*3B
$GPRMC,090150,A,4820.9135,N,433.4453,W,10.00,250.52,051115,,*30
$GPRMC,090150,A,4820.9122,N,433.4507,W,10.00,250.52,051115,,*36
$GPRMC,090150,A,4820.9110,N,433.4561,W,10.00,250.52,051115,,*37
$GPRMC,090150,A,4820.9097,N,433.4615,W,10.00,250.52,051115,,*39
$GPRMC,090150,A,4820.9084,N,433.4669,W,10.00,250.52,051115,,*30
$GPRMC,090150,A,4820.9071,N,433.4723,W,10.00,250.52,051115,,*35
$GPRMC,090150,A,4820.9059,N,433.4777,W,10.00,250.52,051115,,*3E
$GPRMC,090150,A,4820.9046,N,433.4831,W,10.00,250.52,051115,,*3D
$GPRMC,090150,A,4820.9033,N,433.4885,W,10.00,250.52,051115,,*30
$GPRMC,090150,A,4820.9020,N,433.4939,W,10.00,250.52,051115,,*34
$GPRMC,090150,A,4820.9008,N,433.4992,W,10.00,250.52,051115,,*3F
$GPRMC,090150,A,4820.8995,N,433.5046,W,10.00,250.52,051115,,*32
$GPRMC,090150,A,4820.8982,N,433.5100,W,10.00,250.52,051115,,*37
$GPRMC,090150,A,4820.8969,N,433.5154,W,10.00,250.52,051115,,*33
$GPRMC,090150,A,4820.8957,N,433.5208,W,10.00,250.52,051115,,*34
$GPRMC,090150,A,4820.8944,N,433.5262,W,10.00,250.52,051115,,*3A
$GPRMC,090150,A,4820.8931,N,433.5316,W,10.00,250.52,051115,,*3A
$GPRMC,090150,A,4820.8918,N,433.5370,W,10.00,250.52,051115,,*31
$GPRMC,090150,A,4820.8905,N,433.5424,W,10.00,250.52,051115,,*3B
$GPRMC,090150,A,4820.8893,N,433.5478,W,10.00,250.52,051115,,*3C
$GPRMC,090150,A,4820.8880,N,433.5532,W,10.00,250.52,051115,,*31
$GPRMC,090150,A,4820.8867,N,433.5586,W,10.00,250.52,051115,,*37
$GPRMC,090150,A,4820.8854,N,433.5640,W,10.00,250.52,051115,,*3E
$GPRMC,090150,A,4820.8842,N,433.5694,W,10.00,250.52,051115,,*30
$GPRMC,090150,A,4820.8829,N,433.5748,W,10.00,250.52,051115,,*3D
$GPRMC,090150,A,4820.8816,N,433.5802,W,10.00,250.52,051115,,*30
$GPRMC,090150,A,4820.8803,N,433.5856,W,10.00,250.52,051115,,*35
$GPRMC,090150,A,4820.8791,N,433.5910,W,10.00,250.52,051115,,*32
$GPRMC,090150,A,4820.8778,N,433.5964,W,10.00,250.52,051115,,*36
$GPRMC,090150,A,4820.8765,N,433.6018,W,10.00,250.52,051115,,*3B
$GPRMC,090150,A,4820.8752,N,433.6072,W,10.00,250.52,051115,,*33
$GPRMC,090150,A,4820.8739,N,433.6126,W,10.00,250.52,051115,,*3E
$GPRMC,090150,A,4820.8727,N,433.6180,W,10.00,250.52,051115,,*3D
$GPRMC,090150,A,4820.8714,N,433.6234,W,10.00,250.52,051115,,*31
$GPRMC,090150,A,4820.8701,N,433.6288,W,10.00,250.52,051115,,*32
$GPRMC,090150,A,4820.8688,N,433.6342,W,10.00,250.52,051115,,*35
$GPRMC,090150,A,4820.8676,N,433.6396,W,10.00,250.52,051115,,*3D
$GPRMC,090150,A,4820.8663,N,433.6450,W,10.00,250.52,051115,,*34
$GPRMC,090150,A,4820.8650,N,433.6504,W,10.00,250.52,051115,,*34
$GPRMC,090150,A,4820.8637,N,433.6557,W,10.00,250.52,051115,,*33
$GPRMC,090150,A,4820.8625,N,433.6611,W,10.00,250.52,051115,,*31
$GPRMC,090150,A,4820.8612,N,433.6665,W,10.00,250.52,051115,,*36
$GPRMC,090150,A,4820.8599,N,433.6719,W,10.00,250.52,051115,,*3C
$GPRMC,090150,A,4820.8586,N,433.6773,W,10.00,250.52,051115,,*3E
$GPRMC,090150,A,4820.8574,N,433.6827,W,10.00,250.52,051115,,*3D
$GPRMC,090150,A,4820.8561,N,433.6881,W,10.00,250.52,051115,,*35
$GPRMC,090150,A,4820.8548,N,433.6935,W,10.00,250.52,051115,,*30
$GPRMC,090150,A,4820.8535,N,433.6989,W,10.00,250.52,051115,,*3D
$GPRMC,090150,A,4820.8522,N,433.7043,W,10.00,250.52,051115,,*35
$GPRMC,090150,A,4820.8510,N,433.7097,W,10.00,250.52,051115,,*3D
$GPRMC,090150,A,4820.8497,N,433.7151,W,10.00,250.52,051115,,*38
$GPRMC,090150,A,4820.8484,N,433.7205,W,10.00,250.52,051115,,*38
$GPRMC,090150,A,4820.8471,N,433.7259,W,10.00,250.52,051115,,*3B
$GPRMC,090150,A,4820.8459,N,433.7313,W,10.00,250.52,051115,,*3E
$GPRMC,090150,A,4820.8446,N,433.7367,W,10.00,250.52,051115,,*33
$GPRMC,090150,A,4820.8433,N,433.7421,W,10.00,250.52,051115,,*34
$GPRMC,090150,A,4820.8420,N,433.7475,W,10.00,250.52,051115,,*37
$GPRMC,090150,A,4820.8408,N,433.7529,W,10.00,250.52,051115,,*35
$GPRMC,090150,A,4820.8395,N,433.7583,W,10.00,250.52,051115,,*36
$GPRMC,090150,A,4820.8382,N,433.7637,W,10.00,250.52,051115,,*3C
$GPRMC,090150,A,4820.8369,N,433.7691,W,10.00,250.52,051115,,*35
$GPRMC,090150,A,4820.8356,N,433.7745,W,10.00,250.52,051115,,*31
$GPRMC,090150,A,4820.8344,N,433.7799,W,10.00,250.52,051115,,*33
$GPRMC,090150,A,4820.8331,N,433.7853,W,10.00,250.52,051115,,*38
$GPRMC,090150,A,4820.8318,N,433.7907,W,10.00,250.52,051115,,*33
$GPRMC,090150,A,4820.8305,N,433.7961,W,10.00,250.52,051115,,*3F
$GPRMC,090150,A,4820.8293,N,433.8015,W,10.00,250.52,051115,,*34
$GPRMC,090150,A,4820.8280,N,433.8068,W,10.00,250.52,051115,,*3C
$GPRMC,090150,A,4820.8267,N,433.8122,W,10.00,250.52,051115,,*3A
$GPRMC,090150,A,4820.8254,N,433.8176,W,10.00,250.52,051115,,*3B
$GPRMC,090150,A,4820.8242,N,433.8230,W,10.00,250.52,051115,,*3D
$GPRMC,090150,A,4820.8229,N,433.8284,W,10.00,250.52,051115,,*3F
$GPRMC,090150,A,4820.8216,N,433.8338,W,10.00,250.52,051115,,*35
$GPRMC,090150,A,4820.8203,N,433.8392,W,10.00,250.52,051115,,*31
$GPRMC,090150,A,4820.8191,N,433.8446,W,10.00,250.52,051115,,*37
$GPRMC,090150,A,4820.8178,N,433.8500,W,10.00,250.52,051115,,*33
$GPRMC,090150,A,4820.8165,N,433.8554,W,10.00,250.52,051115,,*3E
$GPRMC,090150,A,4820.8152,N,433.8608,W,10.00,250.52,051115,,*30
$GPRMC,090150,A,4820.8139,N,433.8662,W,10.00,250.52,051115,,*31
$GPRMC,090150,A,4820.8127,N,433.8716,W,10.00,250.52,051115,,*3C
$GPRMC,090150,A,4820.8114,N,433.8770,W,10.00,250.52,051115,,*3C
$GPRMC,090150,A,4820.8101,N,433.8824,W,10.00,250.52,051115,,*36
$GPRMC,090150,A,4820.8088,N,433.8878,W,10.00,250.52,051115,,*3F
$GPRMC,090150,A,4820.8076,N,433.8932,W,10.00,250.52,051115,,*31
$GPRMC,090150,A,4820.8063,N,433.8986,W,10.00,250.52,051115,,*3A
$GPRMC,090150,A,4820.8050,N,433.9040,W,10.00,250.52,051115,,*38
$GPRMC,090150,A,4820.8037,N,433.9094,W,10.00,250.52,051115,,*30
$GPRMC,090150,A,4820.8025,N,433.9148,W,10.00,250.52,051115,,*33
$GPRMC,090150,A,4820.8012,N,433.9202,W,10.00,250.52,051115,,*3A
$GPRMC,090150,A,4820.7999,N,433.9256,W,10.00,250.52,051115,,*3E
$GPRMC,090150,A,4820.7986,N,433.9310,W,10.00,250.52,051115,,*33
$GPRMC,090150,A,4820.7973,N,433.9364,W,10.00,250.52,051115,,*3A
$GPRMC,090150,A,4820.7961,N,433.9418,W,10.00,250.52,051115,,*35
$GPRMC,090150,A,4820.7948,N,433.9471,W,10.00,250.52,051115,,*31
$GPRMC,090150,A,4820.7935,N,433.9525,W,10.00,250.52,051115,,*3B
$GPRMC,090150,A,4820.7922,N,433.9579,W,10.00,250.52,051115,,*34
$GPRMC,090150,A,4820.7910,N,433.9633,W,10.00,250.52,051115,,*38
$GPRMC,090150,A,4820.7897,N,433.9687,W,10.00,250.52,051115,,*39
$GPRMC,090150,A,4820.7884,N,433.9741,W,10.00,250.52,051115,,*30
$GPRMC,090150,A,4820.7871,N,433.9795,W,10.00,250.52,051115,,*33
$GPRMC,090150,A,4820.7859,N,433.9849,W,10.00,250.52,051115,,*37
$GPRMC,090150,A,4820.7846,N,433.9903,W,10.00,250.52,051115,,*36
$GPRMC,090150,A,4820.7833,N,433.9957,W,10.00,250.52,051115,,*35
$GPRMC,090150,A,4820.7820,N,434.0011,W,10.00,250.52,051115,,*32
$GPRMC,090150,A,4820.7807,N,434.0065,W,10.00,250.52,051115,,*34
$GPRMC,090150,A,4820.7795,N,434.0119,W,10.00,250.52,051115,,*3A
$GPRMC,090150,A,4820.7782,N,434.0173,W,10.00,250.52,051115,,*30
$GPRMC,090150,A,4820.7769,N,434.0227,W,10.00,250.52,051115,,*37
$GPRMC,090150,A,4820.7756,N,434.0281,W,10.00,250.52,051115,,*37
$GPRMC,090150,A,4820.7744,N,434.0335,W,10.00,250.52,051115,,*3A
$GPRMC,090150,A,4820.7731,N,434.0389,W,10.00,250.52,051115,,*3F
$GPRMC,090150,A,4820.7718,N,434.0443,W,10.00,250.52,051115,,*35
$GPRMC,090150,A,4820.7705,N,434.0497,W,10.00,250.52,051115,,*30
$GPRMC,090150,A,4820.7693,N,434.0551,W,10.00,250.52,051115,,*35
$GPRMC,090150,A,4820.7680,N,434.0605,W,10.00,250.52,051115,,*35
$GPRMC,090150,A,4820.7667,N,434.0659,W,10.00,250.52,051115,,*35
$GPRMC,090150,A,4820.7654,N,434.0713,W,10.00,250.52,051115,,*3A
$GPRMC,090150,A,4820.7641,N,434.0767,W,10.00,250.52,051115,,*3D
$GPRMC,090150,A,4820.7629,N,434.0821,W,10.00,250.52,051115,,*3E
$GPRMC,090150,A,4820.7616,N,434.0874,W,10.00,250.52,051115,,*32
$GPRMC,090150,A,4820.7603,N,434.0928,W,10.00,250.52,051115,,*3E
$GPRMC,090150,A,4820.7590,N,434.0982,W,10.00,250.52,051115,,*37
$GPRMC,090150,A,4820.7578,N,434.1036,W,10.00,250.52,051115,,*36
$GPRMC,090150,A,4820.7565,N,434.1090,W,10.00,250.52,051115,,*36
$GPRMC,090150,A,4820.7552,N,434.1144,W,10.00,250.52,051115,,*3A
$GPRMC,090150,A,4820.7539,N,434.1198,W,10.00,250.52,051115,,*36
$GPRMC,090150,A,4820.7527,N,434.1252,W,10.00,250.52,051115,,*3C
$GPRMC,090150,A,4820.7514,N,434.1306,W,10.00,250.52,051115,,*3C
$GPRMC,090150,A,4820.7501,N,434.1360,W,10.00,250.52,051115,,*38
$GPRMC,090150,A,4820.7488,N,434.1414,W,10.00,250.52,051115,,*3C
$GPRMC,090150,A,4820.7475,N,434.1468,W,10.00,250.52,051115,,*35
$GPRMC,090150,A,4820.7463,N,434.1522,W,10.00,250.52,051115,,*3D
$GPRMC,090150,A,4820.7450,N,434.1576,W,10.00,250.52,051115,,*3C
$GPRMC,090150,A,4820.7437,N,434.1630,W,10.00,250.52,051115,,*3C
$GPRMC,090150,A,4820.7424,N,434.1684,W,10.00,250.52,051115,,*31
$GPRMC,090150,A,4820.7412,N,434.1738,W,10.00,250.52,051115,,*32
