$GPRMC,100800,A,4822.3245,N,429.4356,W,10.00,156.91,101115,,*3F
$GPRMC,100800,A,4822.2107,N,429.3628,W,10.00,156.91,101115,,*30
$GPRMC,100800,A,4822.0968,N,429.2899,W,10.00,156.91,101115,,*36
$GPRMC,100800,A,4821.9830,N,429.2171,W,10.00,156.91,101115,,*3F
$GPRMC,100800,A,4821.8691,N,429.1442,W,10.00,156.91,101115,,*3D
$GPRMC,100800,A,4821.7835,N,429.0895,W,10.00,220.51,101115,,*3B
$GPRMC,100800,A,4821.7227,N,429.1675,W,10.00,220.51,101115,,*33
$GPRMC,100800,A,4821.6618,N,429.2455,W,10.00,220.51,101115,,*39
$GPRMC,100800,A,4821.6010,N,429.3235,W,10.00,220.51,101115,,*36
$GPRMC,100800,A,4821.5402,N,429.4014,W,10.00,220.51,101115,,*34
$GPRMC,100800,A,4821.4793,N,429.4794,W,10.00,220.51,101115,,*31
$GPRMC,100800,A,4821.4185,N,429.5574,W,10.00,220.51,101115,,*3D
$GPRMC,100800,A,4821.3576,N,429.6354,W,10.00,220.51,101115,,*35
$GPRMC,100800,A,4821.2968,N,429.7134,W,10.00,220.51,101115,,*32
$GPRMC,100800,A,4821.2360,N,429.7914,W,10.00,220.51,101115,,*3A
$GPRMC,100800,A,4821.1751,N,429.8693,W,10.00,220.51,101115,,*30
$GPRMC,100800,A,4821.1143,N,429.9473,W,10.00,220.51,101115,,*38
$GPRMC,100800,A,4821.0919,N,429.9760,W,10.00,221.52,101115,,*3D
$GPRMC,100800,A,4821.0456,N,430.0375,W,10.00,221.52,101115,,*3A
$GPRMC,100800,A,4820.9994,N,430.0989,W,10.00,221.52,101115,,*38
$GPRMC,100800,A,4820.9531,N,430.1603,W,10.00,221.52,101115,,*37
$GPRMC,100800,A,4820.9069,N,430.2218,W,10.00,221.52,101115,,*32
$GPRMC,100800,A,4820.8606,N,430.2832,W,10.00,221.52,101115,,*3E
$GPRMC,100800,A,4820.8143,N,430.3446,W,10.00,221.52,101115,,*36
$GPRMC,100800,A,4820.7681,N,430.4061,W,10.00,221.52,101115,,*36
$GPRMC,100800,A,4820.7218,N,430.4675,W,10.00,221.52,101115,,*31
$GPRMC,100800,A,4820.6756,N,430.5289,W,10.00,221.52,101115,,*39
$GPRMC,100800,A,4820.6293,N,430.5904,W,10.00,221.52,101115,,*3B
$GPRMC,100800,A,4820.5831,N,430.6518,W,10.00,221.52,101115,,*38
$GPRMC,100800,A,4820.5368,N,430.7132,W,10.00,221.52,101115,,*32
$GPRMC,100800,A,4820.4906,N,430.7746,W,10.00,221.52,101115,,*34
$GPRMC,100800,A,4820.4443,N,430.8360,W,10.00,221.52,101115,,*37
$GPRMC,100800,A,4820.3980,N,430.8975,W,10.00,221.52,101115,,*3C
$GPRMC,100800,A,4820.3518,N,430.9589,W,10.00,221.52,101115,,*3F
$GPRMC,100800,A,4820.3055,N,431.0203,W,10.00,221.52,101115,,*3E
$GPRMC,100800,A,4820.2593,N,431.0817,W,10.00,221.52,101115,,*3F
$GPRMC,100800,A,4820.2130,N,431.1431,W,10.00,221.52,101115,,*3B
$GPRMC,100800,A,4820.2096,N,431.1476,W,10.00,155.99,101115,,*32
$GPRMC,100800,A,4820.1423,N,431.1026,W,10.00,155.99,101115,,*3A
$GPRMC,100800,A,4820.0749,N,431.0576,W,10.00,155.99,101115,,*35
$GPRMC,100800,A,4820.0075,N,431.0126,W,10.00,155.99,101115,,*3C
$GPRMC,100800,A,4819.9401,N,430.9676,W,10.00,155.99,101115,,*32
$GPRMC,100800,A,4819.8727,N,430.9226,W,10.00,155.99,101115,,*35
$GPRMC,100800,A,4819.8054,N,430.8776,W,10.00,155.99,101115,,*37
$GPRMC,100800,A,4819.7380,N,430.8326,W,10.00,155.99,101115,,*33
$GPRMC,100800,A,4819.6706,N,430.7876,W,10.00,155.99,101115,,*39
$GPRMC,100800,A,4819.6032,N,430.7426,W,10.00,155.99,101115,,*30
$GPRMC,100800,A,4819.5359,N,430.6976,W,10.00,155.99,101115,,*34
$GPRMC,100800,A,4819.4685,N,430.6526,W,10.00,155.99,101115,,*38
$GPRMC,100800,A,4819.4011,N,430.6076,W,10.00,155.99,101115,,*33
$GPRMC,100800,A,4819.3337,N,430.5626,W,10.00,155.99,101115,,*33
$GPRMC,100800,A,4819.3081,N,430.5455,W,10.00,88.12,101115,,*09
$GPRMC,100800,A,4819.3107,N,430.4285,W,10.00,88.12,101115,,*0C
$GPRMC,100800,A,4819.3133,N,430.3115,W,10.00,88.12,101115,,*06
$GPRMC,100800,A,4819.3158,N,430.1945,W,10.00,88.12,101115,,*04
$GPRMC,100800,A,4819.3184,N,430.0775,W,10.00,88.12,101115,,*09
$GPRMC,100800,A,4819.3209,N,429.9605,W,10.00,88.12,101115,,*08
$GPRMC,100800,A,4819.3235,N,429.8435,W,10.00,88.12,101115,,*07
$GPRMC,100800,A,4819.3260,N,429.7265,W,10.00,88.12,101115,,*0B
$GPRMC,100800,A,4819.3286,N,429.6095,W,10.00,88.12,101115,,*0F
$GPRMC,100800,A,4819.3311,N,429.4925,W,10.00,88.12,101115,,*00
$GPRMC,100800,A,4819.3337,N,429.3755,W,10.00,88.12,101115,,*0A
$GPRMC,100800,A,4819.3362,N,429.2585,W,10.00,88.12,101115,,*04
$GPRMC,100800,A,4819.3386,N,429.1483,W,10.00,47.35,101115,,*0C
$GPRMC,100800,A,4819.3961,N,429.0547,W,10.00,47.35,101115,,*07
$GPRMC,100800,A,4819.4536,N,428.9612,W,10.00,47.35,101115,,*05
$GPRMC,100800,A,4819.5111,N,428.8676,W,10.00,47.35,101115,,*06
$GPRMC,100800,A,4819.5685,N,428.7740,W,10.00,47.35,101115,,*07
$GPRMC,100800,A,4819.6260,N,428.6805,W,10.00,47.35,101115,,*04
$GPRMC,100800,A,4819.6835,N,428.5869,W,10.00,47.35,101115,,*07
$GPRMC,100800,A,4819.7410,N,428.4933,W,10.00,47.35,101115,,*02
$GPRMC,100800,A,4819.7984,N,428.3997,W,10.00,47.35,101115,,*0B
$GPRMC,100800,A,4819.8559,N,428.3061,W,10.00,47.35,101115,,*08
$GPRMC,100800,A,4819.9134,N,428.2126,W,10.00,47.35,101115,,*05
$GPRMC,100800,A,4819.9199,N,428.2019,W,10.00,307.73,101115,,*3A
$GPRMC,100800,A,4819.9617,N,428.2831,W,10.00,307.73,101115,,*39
$GPRMC,100800,A,4820.0036,N,428.3642,W,10.00,307.73,101115,,*34
$GPRMC,100800,A,4820.0454,N,428.4453,W,10.00,307.73,101115,,*31
$GPRMC,100800,A,4820.0873,N,428.5265,W,10.00,307.73,101115,,*3A
$GPRMC,100800,A,4820.1291,N,428.6076,W,10.00,307.73,101115,,*3E
$GPRMC,100800,A,4820.1710,N,428.6888,W,10.00,307.73,101115,,*3B
$GPRMC,100800,A,4820.2128,N,428.7699,W,10.00,307.73,101115,,*3A
$GPRMC,100800,A,4820.2547,N,428.8511,W,10.00,307.73,101115,,*3B
$GPRMC,100800,A,4820.2965,N,428.9322,W,10.00,307.73,101115,,*30
$GPRMC,100800,A,4820.3384,N,429.0134,W,10.00,307.73,101115,,*39
$GPRMC,100800,A,4820.3802,N,429.0945,W,10.00,307.73,101115,,*32
$GPRMC,100800,A,4820.4220,N,429.1757,W,10.00,307.73,101115,,*33
$GPRMC,100800,A,4820.4639,N,429.2568,W,10.00,307.73,101115,,*32
$GPRMC,100800,A,4820.5057,N,429.3380,W,10.00,307.73,101115,,*3C
$GPRMC,100800,A,4820.5475,N,429.4192,W,10.00,307.73,101115,,*3E
