$GPRMC,035149,A,4821.9010,N,429.1173,W,10.00,172.42,190316,,*36
$GPRMC,035149,A,4821.7569,N,429.0886,W,10.00,172.42,190316,,*31
$GPRMC,035149,A,4821.6128,N,429.0598,W,10.00,172.42,190316,,*33
$GPRMC,035149,A,4821.4688,N,429.0310,W,10.00,172.42,190316,,*3A
$GPRMC,035149,A,4821.4046,N,429.0182,W,10.00,259.23,190316,,*3A
$GPRMC,035149,A,4821.3950,N,429.0941,W,10.00,259.23,190316,,*34
$GPRMC,035149,A,4821.3854,N,429.1699,W,10.00,259.23,190316,,*3A
$GPRMC,035149,A,4821.3758,N,429.2457,W,10.00,259.23,190316,,*3A
$GPRMC,035149,A,4821.3662,N,429.3216,W,10.00,259.23,190316,,*30
$GPRMC,035149,A,4821.3566,N,429.3974,W,10.00,259.23,190316,,*38
$GPRMC,035149,A,4821.3469,N,429.4732,W,10.00,259.23,190316,,*3D
$GPRMC,035149,A,4821.3373,N,429.5491,W,10.00,259.23,190316,,*3A
$GPRMC,035149,A,4821.3277,N,429.6249,W,10.00,259.23,190316,,*3F
$GPRMC,035149,A,4821.3181,N,429.7007,W,10.00,259.23,190316,,*3C
$GPRMC,035149,A,4821.3085,N,429.7765,W,10.00,259.23,190316,,*3A
$GPRMC,035149,A,4821.2989,N,429.8524,W,10.00,259.23,190316,,*36
$GPRMC,035149,A,4821.2892,N,429.9282,W,10.00,259.23,190316,,*37
$GPRMC,035149,A,4821.2796,N,430.0040,W,10.00,259.23,190316,,*31
$GPRMC,035149,A,4821.2700,N,430.0798,W,10.00,259.23,190316,,*3C
$GPRMC,035149,A,4821.2604,N,430.1557,W,10.00,259.23,190316,,*39
$GPRMC,035149,A,4821.2508,N,430.2315,W,10.00,259.23,190316,,*35
$GPRMC,035149,A,4821.2411,N,430.3073,W,10.00,259.23,190316,,*3E
$GPRMC,035149,A,4821.2315,N,430.3831,W,10.00,259.23,190316,,*33
$GPRMC,035149,A,4821.2219,N,430.4590,W,10.00,259.23,190316,,*3F
$GPRMC,035149,A,4821.2123,N,430.5348,W,10.00,259.23,190316,,*37
$GPRMC,035149,A,4821.2026,N,430.6106,W,10.00,259.23,190316,,*38
$GPRMC,035149,A,4821.1930,N,430.6864,W,10.00,259.23,190316,,*38
$GPRMC,035149,A,4821.1834,N,430.7622,W,10.00,259.23,190316,,*30
$GPRMC,035149,A,4821.1737,N,430.8381,W,10.00,259.23,190316,,*3F
$GPRMC,035149,A,4821.1641,N,430.9139,W,10.00,259.23,190316,,*3F
$GPRMC,035149,A,4821.1545,N,430.9897,W,10.00,259.23,190316,,*35
$GPRMC,035149,A,4821.1448,N,431.0655,W,10.00,259.23,190316,,*31
$GPRMC,035149,A,4821.1400,N,431.1036,W,10.00,255.28,190316,,*38
$GPRMC,035149,A,4821.1265,N,431.1808,W,10.00,255.28,190316,,*38
$GPRMC,035149,A,4821.1130,N,431.2580,W,10.00,255.28,190316,,*35
$GPRMC,035149,A,4821.0995,N,431.3352,W,10.00,255.28,190316,,*3B
$GPRMC,035149,A,4821.0859,N,431.4124,W,10.00,255.28,190316,,*3E
$GPRMC,035149,A,4821.0724,N,431.4896,W,10.00,255.28,190316,,*3B
$GPRMC,035149,A,4821.0589,N,431.5668,W,10.00,255.28,190316,,*30
$GPRMC,035149,A,4821.0454,N,431.6440,W,10.00,255.28,190316,,*3A
$GPRMC,035149,A,4821.0318,N,431.7212,W,10.00,255.28,190316,,*35
$GPRMC,035149,A,4821.0183,N,431.7984,W,10.00,255.28,190316,,*31
$GPRMC,035149,A,4821.0048,N,431.8756,W,10.00,255.28,190316,,*39
$GPRMC,035149,A,4820.9913,N,431.9528,W,10.00,255.28,190316,,*3C
$GPRMC,035149,A,4820.9777,N,432.0300,W,10.00,255.28,190316,,*36
$GPRMC,035149,A,4820.9642,N,432.1072,W,10.00,255.28,190316,,*36
$GPRMC,035149,A,4820.9507,N,432.1844,W,10.00,255.28,190316,,*39
$GPRMC,035149,A,4820.9371,N,432.2616,W,10.00,255.28,190316,,*34
$GPRMC,035149,A,4820.9236,N,432.3388,W,10.00,255.28,190316,,*35
$GPRMC,035149,A,4820.9101,N,432.4160,W,10.00,255.28,190316,,*31
$GPRMC,035149,A,4820.8965,N,432.4932,W,10.00,255.28,190316,,*35
$GPRMC,035149,A,4820.8830,N,432.5704,W,10.00,255.28,190316,,*3E
$GPRMC,035149,A,4820.8695,N,432.6476,W,10.00,255.28,190316,,*3A
$GPRMC,035149,A,4820.8559,N,432.7248,W,10.00,255.28,190316,,*33
$GPRMC,035149,A,4820.8424,N,432.8020,W,10.00,255.28,190316,,*3B
$GPRMC,035149,A,4820.8289,N,432.8792,W,10.00,255.28,190316,,*34
$GPRMC,035149,A,4820.8153,N,432.9564,W,10.00,255.28,190316,,*3A
$GPRMC,035149,A,4820.8018,N,433.0336,W,10.00,255.28,190316,,*3D
$GPRMC,035149,A,4820.7922,N,433.0885,W,10.00,233.11,190316,,*3B
$GPRMC,035149,A,4820.7482,N,433.1764,W,10.00,233.11,190316,,*3D
$GPRMC,035149,A,4820.7041,N,433.2644,W,10.00,233.11,190316,,*36
$GPRMC,035149,A,4820.6601,N,433.3523,W,10.00,233.11,190316,,*36
$GPRMC,035149,A,4820.6161,N,433.4403,W,10.00,233.11,190316,,*33
$GPRMC,035149,A,4820.5721,N,433.5282,W,10.00,233.11,190316,,*3C
$GPRMC,035149,A,4820.5281,N,433.6161,W,10.00,233.11,190316,,*3E
$GPRMC,035149,A,4820.4841,N,433.7041,W,10.00,233.11,190316,,*3B
$GPRMC,035149,A,4820.4400,N,433.7920,W,10.00,233.11,190316,,*3C
$GPRMC,035149,A,4820.3960,N,433.8799,W,10.00,233.11,190316,,*33
$GPRMC,035149,A,4820.3520,N,433.9679,W,10.00,233.11,190316,,*35
$GPRMC,035149,A,4820.3080,N,434.0558,W,10.00,233.11,190316,,*34
$GPRMC,035149,A,4820.2639,N,434.1437,W,10.00,233.11,190316,,*38
$GPRMC,035149,A,4820.2199,N,434.2316,W,10.00,233.11,190316,,*32
$GPRMC,035149,A,4820.1960,N,434.2794,W,10.00,227.74,190316,,*37
$GPRMC,035149,A,4820.1554,N,434.3464,W,10.00,227.74,190316,,*31
$GPRMC,035149,A,4820.1149,N,434.4133,W,10.00,227.74,190316,,*39
$GPRMC,035149,A,4820.0743,N,434.4802,W,10.00,227.74,190316,,*3F
$GPRMC,035149,A,4820.0338,N,434.5471,W,10.00,227.74,190316,,*3E
$GPRMC,035149,A,4819.9932,N,434.6141,W,10.00,227.74,190316,,*38
$GPRMC,035149,A,4819.9527,N,434.6810,W,10.00,227.74,190316,,*3D
$GPRMC,035149,A,4819.9121,N,434.7479,W,10.00,227.74,190316,,*3D
$GPRMC,035149,A,4819.8716,N,434.8148,W,10.00,227.74,190316,,*36
$GPRMC,035149,A,4819.8310,N,434.8818,W,10.00,227.74,190316,,*38
$GPRMC,035149,A,4819.7905,N,434.9487,W,10.00,227.74,190316,,*32
$GPRMC,035149,A,4819.7499,N,435.0156,W,10.00,227.74,190316,,*3B
$GPRMC,035149,A,4819.7094,N,435.0825,W,10.00,227.74,190316,,*3F
$GPRMC,035149,A,4819.6688,N,435.1494,W,10.00,227.74,190316,,*32
$GPRMC,035149,A,4819.6283,N,435.2163,W,10.00,227.74,190316,,*33
$GPRMC,035149,A,4819.5877,N,435.2833,W,10.00,227.74,190316,,*3D
$GPRMC,035149,A,4819.5471,N,435.3502,W,10.00,227.74,190316,,*39
$GPRMC,035149,A,4819.5066,N,435.4171,W,10.00,227.74,190316,,*3C
$GPRMC,035149,A,4819.4660,N,435.4840,W,10.00,227.74,190316,,*36
$GPRMC,035149,A,4819.4255,N,435.5509,W,10.00,227.74,190316,,*35
$GPRMC,035149,A,4819.3849,N,435.6178,W,10.00,227.74,190316,,*34
$GPRMC,035149,A,4819.3841,N,435.6191,W,10.00,232.87,190316,,*33
$GPRMC,035149,A,4819.3370,N,435.7123,W,10.00,232.87,190316,,*32
$GPRMC,035149,A,4819.2900,N,435.8055,W,10.00,232.87,190316,,*31
$GPRMC,035149,A,4819.2429,N,435.8987,W,10.00,232.87,190316,,*31
$GPRMC,035149,A,4819.1958,N,435.9919,W,10.00,232.87,190316,,*3F
$GPRMC,035149,A,4819.1487,N,436.0851,W,10.00,232.87,190316,,*37
$GPRMC,035149,A,4819.1017,N,436.1783,W,10.00,232.87,190316,,*3B
$GPRMC,035149,A,4819.0546,N,436.2715,W,10.00,232.87,190316,,*37
$GPRMC,035149,A,4819.0075,N,436.3647,W,10.00,232.87,190316,,*35
$GPRMC,035149,A,4818.9604,N,436.4578,W,10.00,232.87,190316,,*35
$GPRMC,035149,A,4818.9133,N,436.5510,W,10.00,232.87,190316,,*39
$GPRMC,035149,A,4818.8662,N,436.6442,W,10.00,232.87,190316,,*3E
$GPRMC,035149,A,4818.8205,N,436.7348,W,10.00,238.06,190316,,*34
$GPRMC,035149,A,4818.7938,N,436.7990,W,10.00,238.06,190316,,*31
$GPRMC,035149,A,4818.7671,N,436.8632,W,10.00,238.06,190316,,*3B
$GPRMC,035149,A,4818.7404,N,436.9274,W,10.00,238.06,190316,,*3C
$GPRMC,035149,A,4818.7137,N,436.9916,W,10.00,238.06,190316,,*36
$GPRMC,035149,A,4818.6870,N,437.0558,W,10.00,238.06,190316,,*33
$GPRMC,035149,A,4818.6603,N,437.1199,W,10.00,238.06,190316,,*31
$GPRMC,035149,A,4818.6336,N,437.1841,W,10.00,238.06,190316,,*3E
$GPRMC,035149,A,4818.6069,N,437.2483,W,10.00,238.06,190316,,*36
$GPRMC,035149,A,4818.5802,N,437.3125,W,10.00,238.06,190316,,*38
$GPRMC,035149,A,4818.5535,N,437.3767,W,10.00,238.06,190316,,*31
$GPRMC,035149,A,4818.5268,N,437.4409,W,10.00,238.06,190316,,*32
$GPRMC,035149,A,4818.5000,N,437.5051,W,10.00,238.06,190316,,*36
$GPRMC,035149,A,4818.4733,N,437.5692,W,10.00,238.06,190316,,*39
$GPRMC,035149,A,4818.4466,N,437.6334,W,10.00,238.06,190316,,*30
$GPRMC,035149,A,4818.4199,N,437.6976,W,10.00,238.06,190316,,*39
$GPRMC,035149,A,4818.3932,N,437.7618,W,10.00,238.06,190316,,*31
$GPRMC,035149,A,4818.3665,N,437.8259,W,10.00,238.06,190316,,*32
$GPRMC,035149,A,4818.3398,N,437.8901,W,10.00,238.06,190316,,*33
$GPRMC,035149,A,4818.3131,N,437.9543,W,10.00,238.06,190316,,*39
$GPRMC,035149,A,4818.2864,N,438.0185,W,10.00,238.06,190316,,*39
$GPRMC,035149,A,4818.2597,N,438.0826,W,10.00,238.06,190316,,*38
$GPRMC,035149,A,4818.2330,N,438.1468,W,10.00,238.06,190316,,*34
$GPRMC,035149,A,4818.2063,N,438.2110,W,10.00,238.06,190316,,*38
$GPRMC,035149,A,4818.1795,N,438.2752,W,10.00,238.06,190316,,*35
$GPRMC,035149,A,4818.1528,N,438.3393,W,10.00,238.06,190316,,*39
$GPRMC,035149,A,4818.1261,N,438.4035,W,10.00,238.06,190316,,*3B
$GPRMC,035149,A,4818.0994,N,438.4677,W,10.00,238.06,190316,,*3B
$GPRMC,035149,A,4818.0727,N,438.5318,W,10.00,238.06,190316,,*30
$GPRMC,035149,A,4818.0571,N,438.5694,W,10.00,222.89,190316,,*3C
$GPRMC,035149,A,4818.0035,N,438.6439,W,10.00,222.89,190316,,*3F
$GPRMC,035149,A,4817.9499,N,438.7185,W,10.00,222.89,190316,,*38
$GPRMC,035149,A,4817.8964,N,438.7930,W,10.00,222.89,190316,,*30
$GPRMC,035149,A,4817.8428,N,438.8676,W,10.00,222.89,190316,,*37
$GPRMC,035149,A,4817.7893,N,438.9421,W,10.00,222.89,190316,,*35
$GPRMC,035149,A,4817.7357,N,439.0167,W,10.00,222.89,190316,,*39
$GPRMC,035149,A,4817.6821,N,439.0912,W,10.00,222.89,190316,,*38
$GPRMC,035149,A,4817.6286,N,439.1657,W,10.00,222.89,190316,,*30
$GPRMC,035149,A,4817.5750,N,439.2403,W,10.00,222.89,190316,,*3D
$GPRMC,035149,A,4817.5215,N,439.3148,W,10.00,222.89,190316,,*32
$GPRMC,035149,A,4817.4679,N,439.3893,W,10.00,222.89,190316,,*32
$GPRMC,035149,A,4817.4143,N,439.4638,W,10.00,222.89,190316,,*34
$GPRMC,035149,A,4817.3608,N,439.5384,W,10.00,222.89,190316,,*38
$GPRMC,035149,A,4817.3273,N,439.5849,W,10.00,227.26,190316,,*3A
$GPRMC,035149,A,4817.2925,N,439.6414,W,10.00,227.26,190316,,*34
$GPRMC,035149,A,4817.2577,N,439.6978,W,10.00,227.26,190316,,*38
$GPRMC,035149,A,4817.2228,N,439.7543,W,10.00,227.26,190316,,*30
$GPRMC,035149,A,4817.1880,N,439.8108,W,10.00,227.26,190316,,*3F
$GPRMC,035149,A,4817.1532,N,439.8673,W,10.00,227.26,190316,,*30
$GPRMC,035149,A,4817.1183,N,439.9237,W,10.00,227.26,190316,,*3B
$GPRMC,035149,A,4817.0835,N,439.9802,W,10.00,227.26,190316,,*32
$GPRMC,035149,A,4817.0487,N,440.0367,W,10.00,227.26,190316,,*38
$GPRMC,035149,A,4817.0138,N,440.0931,W,10.00,227.26,190316,,*30
$GPRMC,035149,A,4816.9790,N,440.1496,W,10.00,227.26,190316,,*3D
$GPRMC,035149,A,4816.9442,N,440.2061,W,10.00,227.26,190316,,*3E
$GPRMC,035149,A,4816.9093,N,440.2625,W,10.00,227.26,190316,,*30
$GPRMC,035149,A,4816.8745,N,440.3190,W,10.00,227.26,190316,,*35
$GPRMC,035149,A,4816.8397,N,440.3754,W,10.00,227.26,190316,,*30
$GPRMC,035149,A,4816.8048,N,440.4319,W,10.00,227.26,190316,,*3B
$GPRMC,035149,A,4816.7700,N,440.4883,W,10.00,227.26,190316,,*37
$GPRMC,035149,A,4816.7352,N,440.5448,W,10.00,227.26,190316,,*3E
$GPRMC,035149,A,4816.7003,N,440.6013,W,10.00,227.26,190316,,*30
$GPRMC,035149,A,4816.6655,N,440.6577,W,10.00,227.26,190316,,*33
$GPRMC,035149,A,4816.6307,N,440.7142,W,10.00,227.26,190316,,*32
$GPRMC,035149,A,4816.5958,N,440.7706,W,10.00,227.26,190316,,*37
$GPRMC,035149,A,4816.5610,N,440.8270,W,10.00,227.26,190316,,*3F
$GPRMC,035149,A,4816.5262,N,440.8835,W,10.00,227.26,190316,,*35
$GPRMC,035149,A,4816.4913,N,440.9399,W,10.00,227.26,190316,,*35
$GPRMC,035149,A,4816.4565,N,440.9964,W,10.00,227.26,190316,,*30
$GPRMC,035149,A,4816.4216,N,441.0528,W,10.00,227.26,190316,,*3F
$GPRMC,035149,A,4816.3868,N,441.1093,W,10.00,227.26,190316,,*3F
$GPRMC,035149,A,4816.3645,N,441.1454,W,10.00,241.33,190316,,*35
$GPRMC,035149,A,4816.3465,N,441.1946,W,10.00,241.33,190316,,*3B
$GPRMC,035149,A,4816.3286,N,441.2439,W,10.00,241.33,190316,,*36
$GPRMC,035149,A,4816.3106,N,441.2931,W,10.00,241.33,190316,,*38
$GPRMC,035149,A,4816.2926,N,441.3423,W,10.00,241.33,190316,,*3C
$GPRMC,035149,A,4816.2746,N,441.3916,W,10.00,241.33,190316,,*3F
$GPRMC,035149,A,4816.2567,N,441.4408,W,10.00,241.33,190316,,*3B
$GPRMC,035149,A,4816.2387,N,441.4900,W,10.00,241.33,190316,,*36
$GPRMC,035149,A,4816.2207,N,441.5393,W,10.00,241.33,190316,,*3E
$GPRMC,035149,A,4816.2027,N,441.5885,W,10.00,241.33,190316,,*32
$GPRMC,035149,A,4816.1847,N,441.6377,W,10.00,241.33,190316,,*3A
$GPRMC,035149,A,4816.1668,N,441.6870,W,10.00,241.33,190316,,*35
$GPRMC,035149,A,4816.1488,N,441.7362,W,10.00,241.33,190316,,*30
$GPRMC,035149,A,4816.1308,N,441.7854,W,10.00,241.33,190316,,*31
$GPRMC,035149,A,4816.1128,N,441.8347,W,10.00,241.33,190316,,*37
$GPRMC,035149,A,4816.0949,N,441.8839,W,10.00,241.33,190316,,*3B
$GPRMC,035149,A,4816.0769,N,441.9331,W,10.00,241.33,190316,,*35
$GPRMC,035149,A,4816.0589,N,441.9824,W,10.00,241.33,190316,,*36
$GPRMC,035149,A,4816.0409,N,442.0316,W,10.00,241.33,190316,,*3F
$GPRMC,035149,A,4816.0229,N,442.0808,W,10.00,241.33,190316,,*3F
$GPRMC,035149,A,4816.0050,N,442.1300,W,10.00,241.33,190316,,*31
$GPRMC,035149,A,4815.9870,N,442.1793,W,10.00,241.33,190316,,*3F
$GPRMC,035149,A,4815.9690,N,442.2285,W,10.00,241.33,190316,,*3E
$GPRMC,035149,A,4815.9510,N,442.2777,W,10.00,241.33,190316,,*3D
$GPRMC,035149,A,4815.9330,N,442.3269,W,10.00,241.33,190316,,*32
$GPRMC,035149,A,4815.9151,N,442.3762,W,10.00,241.33,190316,,*39
$GPRMC,035149,A,4815.8971,N,442.4254,W,10.00,241.33,190316,,*35
$GPRMC,035149,A,4815.8791,N,442.4746,W,10.00,241.33,190316,,*33
$GPRMC,035149,A,4815.8611,N,442.5238,W,10.00,241.33,190316,,*37
$GPRMC,035149,A,4815.8431,N,442.5731,W,10.00,241.33,190316,,*3B
$GPRMC,035149,A,4815.8251,N,442.6223,W,10.00,241.33,190316,,*3E
$GPRMC,035149,A,4815.8072,N,442.6715,W,10.00,241.33,190316,,*3D
$GPRMC,035149,A,4815.7892,N,442.7207,W,10.00,241.33,190316,,*33
$GPRMC,035149,A,4815.7712,N,442.7699,W,10.00,241.33,190316,,*37
$GPRMC,035149,A,4815.7532,N,442.8192,W,10.00,241.33,190316,,*34
$GPRMC,035149,A,4815.7352,N,442.8684,W,10.00,241.33,190316,,*34
$GPRMC,035149,A,4815.7172,N,442.9176,W,10.00,241.33,190316,,*3F
$GPRMC,035149,A,4815.6992,N,442.9668,W,10.00,241.33,190316,,*30
$GPRMC,035149,A,4815.6813,N,443.0160,W,10.00,241.33,190316,,*3F
$GPRMC,035149,A,4815.6633,N,443.0652,W,10.00,241.33,190316,,*35
$GPRMC,035149,A,4815.6453,N,443.1145,W,10.00,241.33,190316,,*31
$GPRMC,035149,A,4815.6273,N,443.1637,W,10.00,241.33,190316,,*37
$GPRMC,035149,A,4815.6093,N,443.2129,W,10.00,241.33,190316,,*30
$GPRMC,035149,A,4815.5913,N,443.2621,W,10.00,241.33,190316,,*3D
$GPRMC,035149,A,4815.5733,N,443.3113,W,10.00,241.33,190316,,*36
$GPRMC,035149,A,4815.5553,N,443.3605,W,10.00,241.33,190316,,*32
$GPRMC,035149,A,4815.5373,N,443.4097,W,10.00,241.33,190316,,*3C
$GPRMC,035149,A,4815.5194,N,443.4589,W,10.00,241.33,190316,,*3D
$GPRMC,035149,A,4815.5014,N,443.5082,W,10.00,241.33,190316,,*3B
$GPRMC,035149,A,4815.4834,N,443.5574,W,10.00,241.33,190316,,*3C
$GPRMC,035149,A,4815.4654,N,443.6066,W,10.00,241.33,190316,,*31
$GPRMC,035149,A,4815.4474,N,443.6558,W,10.00,241.33,190316,,*39
