$GPRMC,095948,A,4821.2403,N,431.7217,W,10.00,251.61,241215,,*38
$GPRMC,095948,A,4821.2222,N,431.8033,W,10.00,251.61,241215,,*36
$GPRMC,095948,A,4821.2042,N,431.8849,W,10.00,251.61,241215,,*37
$GPRMC,095948,A,4821.1861,N,431.9666,W,10.00,251.61,241215,,*3F
$GPRMC,095948,A,4821.1680,N,432.0482,W,10.00,251.61,241215,,*3C
$GPRMC,095948,A,4821.1499,N,432.1298,W,10.00,251.61,241215,,*3A
$GPRMC,095948,A,4821.1318,N,432.2114,W,10.00,251.61,241215,,*30
$GPRMC,095948,A,4821.1137,N,432.2930,W,10.00,251.61,241215,,*31
$GPRMC,095948,A,4821.0956,N,432.3747,W,10.00,251.61,241215,,*30
$GPRMC,095948,A,4821.0775,N,432.4563,W,10.00,251.61,241215,,*3C
$GPRMC,095948,A,4821.0594,N,432.5379,W,10.00,251.61,241215,,*3D
$GPRMC,095948,A,4821.0413,N,432.6195,W,10.00,251.61,241215,,*30
$GPRMC,095948,A,4821.0232,N,432.7011,W,10.00,251.61,241215,,*39
$GPRMC,095948,A,4821.0051,N,432.7827,W,10.00,251.61,241215,,*33
$GPRMC,095948,A,4820.9870,N,432.8643,W,10.00,251.61,241215,,*33
$GPRMC,095948,A,4820.9689,N,432.9460,W,10.00,251.61,241215,,*39
$GPRMC,095948,A,4820.9508,N,433.0276,W,10.00,251.61,241215,,*3A
$GPRMC,095948,A,4820.9327,N,433.1092,W,10.00,251.61,241215,,*38
$GPRMC,095948,A,4820.9146,N,433.1908,W,10.00,251.61,241215,,*37
$GPRMC,095948,A,4820.8965,N,433.2724,W,10.00,251.61,241215,,*3C
$GPRMC,095948,A,4820.8784,N,433.3540,W,10.00,251.61,241215,,*3C
$GPRMC,095948,A,4820.8603,N,433.4356,W,10.00,251.61,241215,,*34
$GPRMC,095948,A,4820.8422,N,433.5172,W,10.00,251.61,241215,,*30
$GPRMC,095948,A,4820.8395,N,433.5290,W,10.00,244.86,241215,,*39
$GPRMC,095948,A,4820.8190,N,433.5946,W,10.00,244.86,241215,,*3E
$GPRMC,095948,A,4820.7985,N,433.6601,W,10.00,244.86,241215,,*32
$GPRMC,095948,A,4820.7780,N,433.7257,W,10.00,244.86,241215,,*3F
$GPRMC,095948,A,4820.7575,N,433.7913,W,10.00,244.86,241215,,*3C
$GPRMC,095948,A,4820.7369,N,433.8569,W,10.00,244.86,241215,,*39
$GPRMC,095948,A,4820.7164,N,433.9225,W,10.00,244.86,241215,,*38
$GPRMC,095948,A,4820.6959,N,433.9880,W,10.00,244.86,241215,,*3A
$GPRMC,095948,A,4820.6754,N,434.0536,W,10.00,244.86,241215,,*37
$GPRMC,095948,A,4820.6549,N,434.1192,W,10.00,244.86,241215,,*32
$GPRMC,095948,A,4820.6343,N,434.1848,W,10.00,244.86,241215,,*30
$GPRMC,095948,A,4820.6138,N,434.2503,W,10.00,244.86,241215,,*3F
$GPRMC,095948,A,4820.5933,N,434.3159,W,10.00,244.86,241215,,*35
$GPRMC,095948,A,4820.5728,N,434.3815,W,10.00,244.86,241215,,*30
$GPRMC,095948,A,4820.5522,N,434.4470,W,10.00,244.86,241215,,*30
$GPRMC,095948,A,4820.5317,N,434.5126,W,10.00,244.86,241215,,*37
$GPRMC,095948,A,4820.5112,N,434.5782,W,10.00,244.86,241215,,*38
$GPRMC,095948,A,4820.4907,N,434.6437,W,10.00,244.86,241215,,*3B
$GPRMC,095948,A,4820.4701,N,434.7093,W,10.00,244.86,241215,,*38
$GPRMC,095948,A,4820.4496,N,434.7749,W,10.00,244.86,241215,,*35
$GPRMC,095948,A,4820.4291,N,434.8404,W,10.00,244.86,241215,,*31
$GPRMC,095948,A,4820.4085,N,434.9060,W,10.00,244.86,241215,,*31
$GPRMC,095948,A,4820.3880,N,434.9716,W,10.00,244.86,241215,,*3D
$GPRMC,095948,A,4820.3675,N,435.0371,W,10.00,244.86,241215,,*34
$GPRMC,095948,A,4820.3469,N,435.1027,W,10.00,244.86,241215,,*3A
$GPRMC,095948,A,4820.3264,N,435.1682,W,10.00,244.86,241215,,*38
$GPRMC,095948,A,4820.3059,N,435.2338,W,10.00,244.86,241215,,*33
$GPRMC,095948,A,4820.2853,N,435.2994,W,10.00,244.86,241215,,*3C
$GPRMC,095948,A,4820.2648,N,435.3649,W,10.00,244.86,241215,,*36
$GPRMC,095948,A,4820.2443,N,435.4305,W,10.00,244.86,241215,,*35
$GPRMC,095948,A,4820.2237,N,435.4960,W,10.00,244.86,241215,,*39
$GPRMC,095948,A,4820.2032,N,435.5616,W,10.00,244.86,241215,,*31
$GPRMC,095948,A,4820.1989,N,435.5755,W,10.00,249.13,241215,,*3C
$GPRMC,095948,A,4820.1860,N,435.6260,W,10.00,249.13,241215,,*3A
$GPRMC,095948,A,4820.1731,N,435.6766,W,10.00,249.13,241215,,*32
$GPRMC,095948,A,4820.1603,N,435.7272,W,10.00,249.13,241215,,*33
$GPRMC,095948,A,4820.1474,N,435.7778,W,10.00,249.13,241215,,*3E
$GPRMC,095948,A,4820.1346,N,435.8284,W,10.00,249.13,241215,,*31
$GPRMC,095948,A,4820.1217,N,435.8789,W,10.00,249.13,241215,,*3C
$GPRMC,095948,A,4820.1089,N,435.9295,W,10.00,249.13,241215,,*30
$GPRMC,095948,A,4820.0960,N,435.9801,W,10.00,249.13,241215,,*38
$GPRMC,095948,A,4820.0831,N,436.0307,W,10.00,249.13,241215,,*3A
$GPRMC,095948,A,4820.0703,N,436.0813,W,10.00,249.13,241215,,*3A
$GPRMC,095948,A,4820.0574,N,436.1318,W,10.00,249.13,241215,,*39
$GPRMC,095948,A,4820.0446,N,436.1824,W,10.00,249.13,241215,,*3D
$GPRMC,095948,A,4820.0317,N,436.2330,W,10.00,249.13,241215,,*33
$GPRMC,095948,A,4820.0188,N,436.2836,W,10.00,249.13,241215,,*3A
$GPRMC,095948,A,4820.0060,N,436.3342,W,10.00,249.13,241215,,*34
$GPRMC,095948,A,4819.9931,N,436.3847,W,10.00,249.13,241215,,*34
$GPRMC,095948,A,4819.9802,N,436.4353,W,10.00,249.13,241215,,*3C
$GPRMC,095948,A,4819.9674,N,436.4859,W,10.00,249.13,241215,,*32
$GPRMC,095948,A,4819.9545,N,436.5365,W,10.00,249.13,241215,,*36
$GPRMC,095948,A,4819.9416,N,436.5870,W,10.00,249.13,241215,,*3E
$GPRMC,095948,A,4819.9288,N,436.6376,W,10.00,249.13,241215,,*31
$GPRMC,095948,A,4819.9159,N,436.6882,W,10.00,249.13,241215,,*3E
$GPRMC,095948,A,4819.9031,N,436.7388,W,10.00,249.13,241215,,*31
$GPRMC,095948,A,4819.8902,N,436.7893,W,10.00,249.13,241215,,*38
$GPRMC,095948,A,4819.8773,N,436.8399,W,10.00,249.13,241215,,*3E
$GPRMC,095948,A,4819.8645,N,436.8905,W,10.00,249.13,241215,,*35
$GPRMC,095948,A,4819.8516,N,436.9410,W,10.00,249.13,241215,,*38
$GPRMC,095948,A,4819.8387,N,436.9916,W,10.00,249.13,241215,,*3D
$GPRMC,095948,A,4819.8259,N,437.0422,W,10.00,249.13,241215,,*3D
$GPRMC,095948,A,4819.8130,N,437.0928,W,10.00,249.13,241215,,*36
$GPRMC,095948,A,4819.8001,N,437.1433,W,10.00,249.13,241215,,*33
$GPRMC,095948,A,4819.7872,N,437.1939,W,10.00,249.13,241215,,*37
$GPRMC,095948,A,4819.7744,N,437.2445,W,10.00,249.13,241215,,*38
$GPRMC,095948,A,4819.7615,N,437.2950,W,10.00,249.13,241215,,*34
$GPRMC,095948,A,4819.7486,N,437.3456,W,10.00,249.13,241215,,*36
$GPRMC,095948,A,4819.7358,N,437.3962,W,10.00,249.13,241215,,*38
$GPRMC,095948,A,4819.7229,N,437.4467,W,10.00,249.13,241215,,*30
$GPRMC,095948,A,4819.7100,N,437.4973,W,10.00,249.13,241215,,*30
$GPRMC,095948,A,4819.6972,N,437.5479,W,10.00,249.13,241215,,*3A
$GPRMC,095948,A,4819.6843,N,437.5984,W,10.00,249.13,241215,,*36
$GPRMC,095948,A,4819.6714,N,437.6490,W,10.00,249.13,241215,,*30
$GPRMC,095948,A,4819.6585,N,437.6996,W,10.00,249.13,241215,,*31
$GPRMC,095948,A,4819.6457,N,437.7501,W,10.00,249.13,241215,,*3C
$GPRMC,095948,A,4819.6328,N,437.8007,W,10.00,249.13,241215,,*3F
$GPRMC,095948,A,4819.6199,N,437.8513,W,10.00,249.13,241215,,*37
$GPRMC,095948,A,4819.6070,N,437.9018,W,10.00,249.13,241215,,*3E
$GPRMC,095948,A,4819.5942,N,437.9524,W,10.00,249.13,241215,,*3F
$GPRMC,095948,A,4819.5813,N,438.0030,W,10.00,249.13,241215,,*3C
$GPRMC,095948,A,4819.5684,N,438.0535,W,10.00,249.13,241215,,*3C
$GPRMC,095948,A,4819.5555,N,438.1041,W,10.00,249.13,241215,,*34
$GPRMC,095948,A,4819.5427,N,438.1546,W,10.00,249.13,241215,,*32
$GPRMC,095948,A,4819.5298,N,438.2052,W,10.00,249.13,241215,,*33
$GPRMC,095948,A,4819.5169,N,438.2558,W,10.00,249.13,241215,,*31
$GPRMC,095948,A,4819.5040,N,438.3063,W,10.00,249.13,241215,,*37
$GPRMC,095948,A,4819.4912,N,438.3569,W,10.00,249.13,241215,,*37
$GPRMC,095948,A,4819.4799,N,438.4011,W,10.00,240.03,241215,,*3F
$GPRMC,095948,A,4819.4688,N,438.4298,W,10.00,240.03,241215,,*3D
$GPRMC,095948,A,4819.4578,N,438.4586,W,10.00,240.03,241215,,*39
$GPRMC,095948,A,4819.4467,N,438.4874,W,10.00,240.03,241215,,*36
$GPRMC,095948,A,4819.4356,N,438.5162,W,10.00,240.03,241215,,*3C
$GPRMC,095948,A,4819.4246,N,438.5449,W,10.00,240.03,241215,,*30
$GPRMC,095948,A,4819.4135,N,438.5737,W,10.00,240.03,241215,,*3D
$GPRMC,095948,A,4819.4024,N,438.6025,W,10.00,240.03,241215,,*3B
$GPRMC,095948,A,4819.3914,N,438.6312,W,10.00,240.03,241215,,*31
$GPRMC,095948,A,4819.3803,N,438.6600,W,10.00,240.03,241215,,*30
$GPRMC,095948,A,4819.3692,N,438.6888,W,10.00,240.03,241215,,*38
$GPRMC,095948,A,4819.3582,N,438.7175,W,10.00,240.03,241215,,*30
$GPRMC,095948,A,4819.3471,N,438.7463,W,10.00,240.03,241215,,*3F
$GPRMC,095948,A,4819.3360,N,438.7751,W,10.00,240.03,241215,,*3A
$GPRMC,095948,A,4819.3250,N,438.8038,W,10.00,240.03,241215,,*3F
$GPRMC,095948,A,4819.3139,N,438.8326,W,10.00,240.03,241215,,*3F
$GPRMC,095948,A,4819.3028,N,438.8614,W,10.00,240.03,241215,,*3A
$GPRMC,095948,A,4819.2918,N,438.8901,W,10.00,240.03,241215,,*3A
$GPRMC,095948,A,4819.2807,N,438.9189,W,10.00,240.03,241215,,*3C
$GPRMC,095948,A,4819.2696,N,438.9477,W,10.00,240.03,241215,,*3E
$GPRMC,095948,A,4819.2586,N,438.9764,W,10.00,240.03,241215,,*3D
$GPRMC,095948,A,4819.2475,N,439.0052,W,10.00,240.03,241215,,*3A
$GPRMC,095948,A,4819.2364,N,439.0340,W,10.00,240.03,241215,,*3D
$GPRMC,095948,A,4819.2254,N,439.0627,W,10.00,240.03,241215,,*3B
$GPRMC,095948,A,4819.2143,N,439.0915,W,10.00,240.03,241215,,*30
$GPRMC,095948,A,4819.2032,N,439.1203,W,10.00,240.03,241215,,*3A
$GPRMC,095948,A,4819.1922,N,439.1490,W,10.00,240.03,241215,,*3D
$GPRMC,095948,A,4819.1811,N,439.1778,W,10.00,240.03,241215,,*39
$GPRMC,095948,A,4819.1700,N,439.2066,W,10.00,240.03,241215,,*3D
$GPRMC,095948,A,4819.1590,N,439.2353,W,10.00,240.03,241215,,*33
$GPRMC,095948,A,4819.1479,N,439.2641,W,10.00,240.03,241215,,*33
$GPRMC,095948,A,4819.1368,N,439.2929,W,10.00,240.03,241215,,*35
$GPRMC,095948,A,4819.1258,N,439.3216,W,10.00,240.03,241215,,*31
$GPRMC,095948,A,4819.1147,N,439.3504,W,10.00,240.03,241215,,*38
$GPRMC,095948,A,4819.1036,N,439.3792,W,10.00,240.03,241215,,*32
$GPRMC,095948,A,4819.0926,N,439.4079,W,10.00,240.03,241215,,*3E
$GPRMC,095948,A,4819.0815,N,439.4367,W,10.00,240.03,241215,,*33
$GPRMC,095948,A,4819.0704,N,439.4654,W,10.00,240.03,241215,,*39
$GPRMC,095948,A,4819.0593,N,439.4942,W,10.00,240.03,241215,,*3D
$GPRMC,095948,A,4819.0483,N,439.5230,W,10.00,240.03,241215,,*32
$GPRMC,095948,A,4819.0372,N,439.5517,W,10.00,240.03,241215,,*39
$GPRMC,095948,A,4819.0261,N,439.5805,W,10.00,240.03,241215,,*34
$GPRMC,095948,A,4819.0151,N,439.6093,W,10.00,240.03,241215,,*30
$GPRMC,095948,A,4819.0040,N,439.6380,W,10.00,240.03,241215,,*30
$GPRMC,095948,A,4818.9929,N,439.6668,W,10.00,240.03,241215,,*3D
$GPRMC,095948,A,4818.9818,N,439.6955,W,10.00,240.03,241215,,*3F
$GPRMC,095948,A,4818.9708,N,439.7243,W,10.00,240.03,241215,,*3C
$GPRMC,095948,A,4818.9597,N,439.7531,W,10.00,240.03,241215,,*3A
$GPRMC,095948,A,4818.9486,N,439.7818,W,10.00,240.03,241215,,*3D
$GPRMC,095948,A,4818.9376,N,439.8106,W,10.00,240.03,241215,,*3C
$GPRMC,095948,A,4818.9265,N,439.8393,W,10.00,240.03,241215,,*31
$GPRMC,095948,A,4818.9154,N,439.8681,W,10.00,240.03,241215,,*36
$GPRMC,095948,A,4818.9044,N,439.8969,W,10.00,240.03,241215,,*3F
$GPRMC,095948,A,4818.8933,N,439.9256,W,10.00,240.03,241215,,*31
$GPRMC,095948,A,4818.8822,N,439.9544,W,10.00,240.03,241215,,*34
$GPRMC,095948,A,4818.8711,N,439.9831,W,10.00,240.03,241215,,*34
$GPRMC,095948,A,4818.8601,N,440.0119,W,10.00,240.03,241215,,*30
$GPRMC,095948,A,4818.8490,N,440.0407,W,10.00,240.03,241215,,*30
$GPRMC,095948,A,4818.8379,N,440.0694,W,10.00,240.03,241215,,*38
$GPRMC,095948,A,4818.8268,N,440.0982,W,10.00,240.03,241215,,*31
$GPRMC,095948,A,4818.8158,N,440.1269,W,10.00,240.03,241215,,*3E
$GPRMC,095948,A,4818.8047,N,440.1557,W,10.00,240.03,241215,,*3B
$GPRMC,095948,A,4818.7936,N,440.1845,W,10.00,240.03,241215,,*35
$GPRMC,095948,A,4818.7826,N,440.2132,W,10.00,240.03,241215,,*3F
$GPRMC,095948,A,4818.7715,N,440.2420,W,10.00,240.03,241215,,*36
$GPRMC,095948,A,4818.7604,N,440.2707,W,10.00,240.03,241215,,*31
$GPRMC,095948,A,4818.7493,N,440.2995,W,10.00,240.03,241215,,*38
$GPRMC,095948,A,4818.7383,N,440.3282,W,10.00,240.03,241215,,*32
$GPRMC,095948,A,4818.7272,N,440.3570,W,10.00,240.03,241215,,*37
$GPRMC,095948,A,4818.7161,N,440.3858,W,10.00,240.03,241215,,*31
$GPRMC,095948,A,4818.7050,N,440.4145,W,10.00,240.03,241215,,*30
$GPRMC,095948,A,4818.6940,N,440.4433,W,10.00,240.03,241215,,*3D
$GPRMC,095948,A,4818.6829,N,440.4720,W,10.00,240.03,241215,,*32
$GPRMC,095948,A,4818.6718,N,440.5008,W,10.00,240.03,241215,,*33
$GPRMC,095948,A,4818.6608,N,440.5295,W,10.00,240.03,241215,,*35
$GPRMC,095948,A,4818.6497,N,440.5583,W,10.00,240.03,241215,,*31
$GPRMC,095948,A,4818.6386,N,440.5870,W,10.00,240.03,241215,,*37
$GPRMC,095948,A,4818.6275,N,440.6158,W,10.00,240.03,241215,,*3A
$GPRMC,095948,A,4818.6165,N,440.6445,W,10.00,240.03,241215,,*31
$GPRMC,095948,A,4818.6054,N,440.6733,W,10.00,240.03,241215,,*30
$GPRMC,095948,A,4818.5943,N,440.7021,W,10.00,240.03,241215,,*39
$GPRMC,095948,A,4818.5832,N,440.7308,W,10.00,240.03,241215,,*36
$GPRMC,095948,A,4818.5722,N,440.7596,W,10.00,240.03,241215,,*39
$GPRMC,095948,A,4818.5611,N,440.7883,W,10.00,240.03,241215,,*31
$GPRMC,095948,A,4818.5500,N,440.8171,W,10.00,240.03,241215,,*39
$GPRMC,095948,A,4818.5389,N,440.8458,W,10.00,240.03,241215,,*30
$GPRMC,095948,A,4818.5279,N,440.8746,W,10.00,240.03,241215,,*32
$GPRMC,095948,A,4818.5168,N,440.9033,W,10.00,240.03,241215,,*35
$GPRMC,095948,A,4818.5057,N,440.9321,W,10.00,240.03,241215,,*38
$GPRMC,095948,A,4818.4946,N,440.9608,W,10.00,240.03,241215,,*3E
$GPRMC,095948,A,4818.4835,N,440.9896,W,10.00,240.03,241215,,*32
$GPRMC,095948,A,4818.4725,N,441.0183,W,10.00,240.03,241215,,*39
$GPRMC,095948,A,4818.4614,N,441.0471,W,10.00,240.03,241215,,*32
$GPRMC,095948,A,4818.4503,N,441.0758,W,10.00,240.03,241215,,*3F
$GPRMC,095948,A,4818.4392,N,441.1046,W,10.00,240.03,241215,,*38
$GPRMC,095948,A,4818.4282,N,441.1333,W,10.00,240.03,241215,,*39
$GPRMC,095948,A,4818.4171,N,441.1621,W,10.00,240.03,241215,,*30
$GPRMC,095948,A,4818.4060,N,441.1908,W,10.00,240.03,241215,,*35
$GPRMC,095948,A,4818.3949,N,441.2196,W,10.00,240.03,241215,,*3C
$GPRMC,095948,A,4818.3839,N,441.2483,W,10.00,240.03,241215,,*3B
$GPRMC,095948,A,4818.3728,N,441.2771,W,10.00,240.03,241215,,*3A
$GPRMC,095948,A,4818.3617,N,441.3058,W,10.00,240.03,241215,,*3A
$GPRMC,095948,A,4818.3506,N,441.3346,W,10.00,240.03,241215,,*35
$GPRMC,095948,A,4818.3395,N,441.3633,W,10.00,240.03,241215,,*3E
$GPRMC,095948,A,4818.3285,N,441.3921,W,10.00,240.03,241215,,*32
$GPRMC,095948,A,4818.3174,N,441.4208,W,10.00,240.03,241215,,*38
$GPRMC,095948,A,4818.3063,N,441.4496,W,10.00,240.03,241215,,*3E
$GPRMC,095948,A,4818.2952,N,441.4783,W,10.00,240.03,241215,,*33
$GPRMC,095948,A,4818.2842,N,441.5071,W,10.00,240.03,241215,,*38
$GPRMC,095948,A,4818.2731,N,441.5358,W,10.00,240.03,241215,,*3B
$GPRMC,095948,A,4818.2620,N,441.5646,W,10.00,240.03,241215,,*30
$GPRMC,095948,A,4818.2509,N,441.5933,W,10.00,240.03,241215,,*35
$GPRMC,095948,A,4818.2398,N,441.6221,W,10.00,240.03,241215,,*30
$GPRMC,095948,A,4818.2288,N,441.6508,W,10.00,240.03,241215,,*3C
$GPRMC,095948,A,4818.2177,N,441.6796,W,10.00,240.03,241215,,*3A
$GPRMC,095948,A,4818.2066,N,441.7083,W,10.00,240.03,241215,,*39
$GPRMC,095948,A,4818.1955,N,441.7371,W,10.00,240.03,241215,,*3D
$GPRMC,095948,A,4818.1845,N,441.7658,W,10.00,240.03,241215,,*33
$GPRMC,095948,A,4818.1734,N,441.7946,W,10.00,240.03,241215,,*3A
$GPRMC,095948,A,4818.1623,N,441.8233,W,10.00,240.03,241215,,*3B
$GPRMC,095948,A,4818.1512,N,441.8521,W,10.00,240.03,241215,,*3E
$GPRMC,095948,A,4818.1401,N,441.8808,W,10.00,240.03,241215,,*3B
$GPRMC,095948,A,4818.1291,N,441.9095,W,10.00,240.03,241215,,*39
$GPRMC,095948,A,4818.1180,N,441.9383,W,10.00,240.03,241215,,*3E
$GPRMC,095948,A,4818.1069,N,441.9670,W,10.00,240.03,241215,,*31
$GPRMC,095948,A,4818.0958,N,441.9958,W,10.00,240.03,241215,,*3E
$GPRMC,095948,A,4818.0847,N,442.0245,W,10.00,240.03,241215,,*3C
$GPRMC,095948,A,4818.0737,N,442.0533,W,10.00,240.03,241215,,*32
$GPRMC,095948,A,4818.0626,N,442.0820,W,10.00,240.03,241215,,*3C
$GPRMC,095948,A,4818.0515,N,442.1108,W,10.00,240.03,241215,,*3D
$GPRMC,095948,A,4818.0404,N,442.1395,W,10.00,240.03,241215,,*3A
$GPRMC,095948,A,4818.0293,N,442.1682,W,10.00,240.03,241215,,*31
$GPRMC,095948,A,4818.0182,N,442.1970,W,10.00,240.03,241215,,*30
$GPRMC,095948,A,4818.0072,N,442.2257,W,10.00,240.03,241215,,*33
$GPRMC,095948,A,4817.9961,N,442.2545,W,10.00,240.03,241215,,*3A
$GPRMC,095948,A,4817.9850,N,442.2832,W,10.00,240.03,241215,,*34
$GPRMC,095948,A,4817.9739,N,442.3120,W,10.00,240.03,241215,,*3F
$GPRMC,095948,A,4817.9628,N,442.3407,W,10.00,240.03,241215,,*3E
$GPRMC,095948,A,4817.9518,N,442.3694,W,10.00,240.03,241215,,*36
$GPRMC,095948,A,4817.9407,N,442.3982,W,10.00,240.03,241215,,*31
$GPRMC,095948,A,4817.9296,N,442.4269,W,10.00,240.03,241215,,*36
$GPRMC,095948,A,4817.9185,N,442.4557,W,10.00,240.03,241215,,*3D
$GPRMC,095948,A,4817.9074,N,442.4844,W,10.00,240.03,241215,,*3D
$GPRMC,095948,A,4817.8963,N,442.5131,W,10.00,240.03,241215,,*39
$GPRMC,095948,A,4817.8853,N,442.5419,W,10.00,240.03,241215,,*34
$GPRMC,095948,A,4817.8742,N,442.5706,W,10.00,240.03,241215,,*36
$GPRMC,095948,A,4817.8631,N,442.5994,W,10.00,240.03,241215,,*36
$GPRMC,095948,A,4817.8520,N,442.6281,W,10.00,240.03,241215,,*39
$GPRMC,095948,A,4817.8409,N,442.6568,W,10.00,240.03,241215,,*33
$GPRMC,095948,A,4817.8368,N,442.6676,W,10.00,249.50,241215,,*30
$GPRMC,095948,A,4817.8296,N,442.6963,W,10.00,249.50,241215,,*3B
$GPRMC,095948,A,4817.8224,N,442.7251,W,10.00,249.50,241215,,*39
$GPRMC,095948,A,4817.8153,N,442.7539,W,10.00,249.50,241215,,*33
$GPRMC,095948,A,4817.8081,N,442.7827,W,10.00,249.50,241215,,*3F
$GPRMC,095948,A,4817.8009,N,442.8114,W,10.00,249.50,241215,,*39
$GPRMC,095948,A,4817.7937,N,442.8402,W,10.00,249.50,241215,,*30
$GPRMC,095948,A,4817.7865,N,442.8690,W,10.00,249.50,241215,,*3F
$GPRMC,095948,A,4817.7794,N,442.8977,W,10.00,249.50,241215,,*38
$GPRMC,095948,A,4817.7722,N,442.9265,W,10.00,249.50,241215,,*3C
$GPRMC,095948,A,4817.7650,N,442.9553,W,10.00,249.50,241215,,*3A
$GPRMC,095948,A,4817.7578,N,442.9841,W,10.00,249.50,241215,,*3D
$GPRMC,095948,A,4817.7506,N,443.0128,W,10.00,249.50,241215,,*3A
$GPRMC,095948,A,4817.7435,N,443.0416,W,10.00,249.50,241215,,*33
$GPRMC,095948,A,4817.7363,N,443.0704,W,10.00,249.50,241215,,*37
$GPRMC,095948,A,4817.7291,N,443.0991,W,10.00,249.50,241215,,*39
$GPRMC,095948,A,4817.7219,N,443.1279,W,10.00,249.50,241215,,*35
$GPRMC,095948,A,4817.7147,N,443.1567,W,10.00,249.50,241215,,*35
$GPRMC,095948,A,4817.7075,N,443.1855,W,10.00,249.50,241215,,*39
$GPRMC,095948,A,4817.7004,N,443.2142,W,10.00,249.50,241215,,*33
$GPRMC,095948,A,4817.6932,N,443.2430,W,10.00,249.50,241215,,*3E
$GPRMC,095948,A,4817.6860,N,443.2718,W,10.00,249.50,241215,,*31
$GPRMC,095948,A,4817.6788,N,443.3005,W,10.00,249.50,241215,,*32
$GPRMC,095948,A,4817.6716,N,443.3293,W,10.00,249.50,241215,,*38
$GPRMC,095948,A,4817.6645,N,443.3581,W,10.00,249.50,241215,,*3B
$GPRMC,095948,A,4817.6573,N,443.3868,W,10.00,249.50,241215,,*37
$GPRMC,095948,A,4817.6501,N,443.4156,W,10.00,249.50,241215,,*31
$GPRMC,095948,A,4817.6429,N,443.4444,W,10.00,249.50,241215,,*3C
$GPRMC,095948,A,4817.6357,N,443.4731,W,10.00,249.50,241215,,*33
$GPRMC,095948,A,4817.6285,N,443.5019,W,10.00,249.50,241215,,*31
$GPRMC,095948,A,4817.6214,N,443.5307,W,10.00,249.50,241215,,*35
$GPRMC,095948,A,4817.6142,N,443.5594,W,10.00,249.50,241215,,*39
$GPRMC,095948,A,4817.6070,N,443.5882,W,10.00,249.50,241215,,*33
$GPRMC,095948,A,4817.5998,N,443.6170,W,10.00,249.50,241215,,*38
$GPRMC,095948,A,4817.5926,N,443.6458,W,10.00,249.50,241215,,*32
$GPRMC,095948,A,4817.5854,N,443.6745,W,10.00,249.50,241215,,*39
$GPRMC,095948,A,4817.5783,N,443.7033,W,10.00,249.50,241215,,*3B
$GPRMC,095948,A,4817.5711,N,443.7321,W,10.00,249.50,241215,,*30
$GPRMC,095948,A,4817.5639,N,443.7608,W,10.00,249.50,241215,,*35
$GPRMC,095948,A,4817.5567,N,443.7896,W,10.00,249.50,241215,,*34
$GPRMC,095948,A,4817.5495,N,443.8184,W,10.00,249.50,241215,,*3D
$GPRMC,095948,A,4817.5423,N,443.8471,W,10.00,249.50,241215,,*3F
$GPRMC,095948,A,4817.5352,N,443.8759,W,10.00,249.50,241215,,*37
$GPRMC,095948,A,4817.5280,N,443.9047,W,10.00,249.50,241215,,*30
$GPRMC,095948,A,4817.5208,N,443.9334,W,10.00,249.50,241215,,*37
$GPRMC,095948,A,4817.5136,N,443.9622,W,10.00,249.50,241215,,*3B
$GPRMC,095948,A,4817.5064,N,443.9910,W,10.00,249.50,241215,,*33
$GPRMC,095948,A,4817.4992,N,444.0197,W,10.00,249.50,241215,,*3B
$GPRMC,095948,A,4817.4920,N,444.0485,W,10.00,249.50,241215,,*34
$GPRMC,095948,A,4817.4849,N,444.0773,W,10.00,249.50,241215,,*30
$GPRMC,095948,A,4817.4777,N,444.1060,W,10.00,249.50,241215,,*36
$GPRMC,095948,A,4817.4705,N,444.1348,W,10.00,249.50,241215,,*3A
$GPRMC,095948,A,4817.4633,N,444.1635,W,10.00,249.50,241215,,*31
$GPRMC,095948,A,4817.4561,N,444.1923,W,10.00,249.50,241215,,*3D
$GPRMC,095948,A,4817.4489,N,444.2211,W,10.00,249.50,241215,,*33
$GPRMC,095948,A,4817.4417,N,444.2498,W,10.00,249.50,241215,,*33
$GPRMC,095948,A,4817.4346,N,444.2786,W,10.00,249.50,241215,,*3C
$GPRMC,095948,A,4817.4274,N,444.3074,W,10.00,249.50,241215,,*37
$GPRMC,095948,A,4817.4202,N,444.3361,W,10.00,249.50,241215,,*31
$GPRMC,095948,A,4817.4130,N,444.3649,W,10.00,249.50,241215,,*3C
$GPRMC,095948,A,4817.4058,N,444.3937,W,10.00,249.50,241215,,*35
$GPRMC,095948,A,4817.3986,N,444.4224,W,10.00,249.50,241215,,*36
$GPRMC,095948,A,4817.3914,N,444.4512,W,10.00,249.50,241215,,*3F
$GPRMC,095948,A,4817.3842,N,444.4800,W,10.00,249.50,241215,,*33
$GPRMC,095948,A,4817.3771,N,444.5087,W,10.00,249.50,241215,,*3A
$GPRMC,095948,A,4817.3699,N,444.5375,W,10.00,249.50,241215,,*33
$GPRMC,095948,A,4817.3627,N,444.5662,W,10.00,249.50,241215,,*35
$GPRMC,095948,A,4817.3555,N,444.5950,W,10.00,249.50,241215,,*3D
$GPRMC,095948,A,4817.3483,N,444.6238,W,10.00,249.50,241215,,*31
$GPRMC,095948,A,4817.3411,N,444.6525,W,10.00,249.50,241215,,*31
$GPRMC,095948,A,4817.3339,N,444.6813,W,10.00,249.50,241215,,*34
$GPRMC,095948,A,4817.3267,N,444.7101,W,10.00,249.50,241215,,*35
$GPRMC,095948,A,4817.3196,N,444.7388,W,10.00,249.50,241215,,*3B
$GPRMC,095948,A,4817.3124,N,444.7676,W,10.00,249.50,241215,,*36
$GPRMC,095948,A,4817.3052,N,444.7963,W,10.00,249.50,241215,,*3D
$GPRMC,095948,A,4817.2980,N,444.8251,W,10.00,249.50,241215,,*3F
$GPRMC,095948,A,4817.2908,N,444.8539,W,10.00,249.50,241215,,*36
$GPRMC,095948,A,4817.2836,N,444.8826,W,10.00,249.50,241215,,*39
$GPRMC,095948,A,4817.2764,N,444.9114,W,10.00,249.50,241215,,*38
$GPRMC,095948,A,4817.2692,N,444.9402,W,10.00,249.50,241215,,*32
$GPRMC,095948,A,4817.2621,N,444.9689,W,10.00,249.50,241215,,*3B
$GPRMC,095948,A,4817.2549,N,444.9977,W,10.00,249.50,241215,,*38
$GPRMC,095948,A,4817.2477,N,445.0264,W,10.00,249.50,241215,,*35
$GPRMC,095948,A,4817.2405,N,445.0552,W,10.00,249.50,241215,,*32
$GPRMC,095948,A,4817.2333,N,445.0840,W,10.00,249.50,241215,,*3E
$GPRMC,095948,A,4817.2261,N,445.1127,W,10.00,249.50,241215,,*31
$GPRMC,095948,A,4817.2189,N,445.1415,W,10.00,249.50,241215,,*30
$GPRMC,095948,A,4817.2117,N,445.1702,W,10.00,249.50,241215,,*32
$GPRMC,095948,A,4817.2045,N,445.1990,W,10.00,249.50,241215,,*31
$GPRMC,095948,A,4817.1973,N,445.2278,W,10.00,249.50,241215,,*30
$GPRMC,095948,A,4817.1902,N,445.2565,W,10.00,249.50,241215,,*3D
$GPRMC,095948,A,4817.1830,N,445.2853,W,10.00,249.50,241215,,*35
$GPRMC,095948,A,4817.1758,N,445.3140,W,10.00,249.50,241215,,*3E
$GPRMC,095948,A,4817.1686,N,445.3428,W,10.00,249.50,241215,,*37
$GPRMC,095948,A,4817.1614,N,445.3716,W,10.00,249.50,241215,,*32
$GPRMC,095948,A,4817.1542,N,445.4003,W,10.00,249.50,241215,,*36
$GPRMC,095948,A,4817.1470,N,445.4291,W,10.00,249.50,241215,,*3F
$GPRMC,095948,A,4817.1398,N,445.4578,W,10.00,249.50,241215,,*3E
$GPRMC,095948,A,4817.1326,N,445.4866,W,10.00,249.50,241215,,*39
$GPRMC,095948,A,4817.1254,N,445.5154,W,10.00,249.50,241215,,*34
$GPRMC,095948,A,4817.1182,N,445.5441,W,10.00,249.50,241215,,*3D
$GPRMC,095948,A,4817.1111,N,445.5729,W,10.00,249.50,241215,,*3A
$GPRMC,095948,A,4817.1039,N,445.6016,W,10.00,249.50,241215,,*39
$GPRMC,095948,A,4817.0967,N,445.6304,W,10.00,249.50,241215,,*3A
$GPRMC,095948,A,4817.0895,N,445.6592,W,10.00,249.50,241215,,*3F
$GPRMC,095948,A,4817.0823,N,445.6879,W,10.00,249.50,241215,,*3A
$GPRMC,095948,A,4817.0751,N,445.7167,W,10.00,249.50,241215,,*37
$GPRMC,095948,A,4817.0679,N,445.7454,W,10.00,249.50,241215,,*39
$GPRMC,095948,A,4817.0607,N,445.7742,W,10.00,249.50,241215,,*34
$GPRMC,095948,A,4817.0535,N,445.8029,W,10.00,249.50,241215,,*33
$GPRMC,095948,A,4817.0463,N,445.8317,W,10.00,249.50,241215,,*3F
$GPRMC,095948,A,4817.0391,N,445.8605,W,10.00,249.50,241215,,*33
$GPRMC,095948,A,4817.0319,N,445.8892,W,10.00,249.50,241215,,*33
$GPRMC,095948,A,4817.0247,N,445.9180,W,10.00,249.50,241215,,*32
$GPRMC,095948,A,4817.0175,N,445.9467,W,10.00,249.50,241215,,*3C
$GPRMC,095948,A,4817.0104,N,445.9755,W,10.00,249.50,241215,,*38
$GPRMC,095948,A,4817.0032,N,446.0042,W,10.00,249.50,241215,,*37
$GPRMC,095948,A,4816.9960,N,446.0330,W,10.00,249.50,241215,,*37
$GPRMC,095948,A,4816.9888,N,446.0618,W,10.00,249.50,241215,,*3F
$GPRMC,095948,A,4816.9816,N,446.0905,W,10.00,249.50,241215,,*3B
$GPRMC,095948,A,4816.9744,N,446.1193,W,10.00,249.50,241215,,*35
$GPRMC,095948,A,4816.9672,N,446.1480,W,10.00,249.50,241215,,*36
$GPRMC,095948,A,4816.9600,N,446.1768,W,10.00,249.50,241215,,*36
$GPRMC,095948,A,4816.9528,N,446.2055,W,10.00,249.50,241215,,*35
$GPRMC,095948,A,4816.9456,N,446.2343,W,10.00,249.50,241215,,*39
$GPRMC,095948,A,4816.9384,N,446.2631,W,10.00,249.50,241215,,*31
$GPRMC,095948,A,4816.9312,N,446.2918,W,10.00,249.50,241215,,*3A
$GPRMC,095948,A,4816.9240,N,446.3206,W,10.00,249.50,241215,,*39
$GPRMC,095948,A,4816.9168,N,446.3493,W,10.00,249.50,241215,,*3A
$GPRMC,095948,A,4816.9096,N,446.3781,W,10.00,249.50,241215,,*3A
$GPRMC,095948,A,4816.9024,N,446.4068,W,10.00,249.50,241215,,*34
$GPRMC,095948,A,4816.8952,N,446.4356,W,10.00,249.50,241215,,*33
$GPRMC,095948,A,4816.8881,N,446.4643,W,10.00,249.50,241215,,*3D
$GPRMC,095948,A,4816.8809,N,446.4931,W,10.00,249.50,241215,,*37
$GPRMC,095948,A,4816.8737,N,446.5218,W,10.00,249.50,241215,,*34
$GPRMC,095948,A,4816.8665,N,446.5506,W,10.00,249.50,241215,,*3A
$GPRMC,095948,A,4816.8593,N,446.5794,W,10.00,249.50,241215,,*39
$GPRMC,095948,A,4816.8521,N,446.6081,W,10.00,249.50,241215,,*30
$GPRMC,095948,A,4816.8449,N,446.6369,W,10.00,249.50,241215,,*3A
$GPRMC,095948,A,4816.8377,N,446.6656,W,10.00,249.50,241215,,*39
$GPRMC,095948,A,4816.8305,N,446.6944,W,10.00,249.50,241215,,*30
$GPRMC,095948,A,4816.8233,N,446.7231,W,10.00,249.50,241215,,*3C
$GPRMC,095948,A,4816.8161,N,446.7519,W,10.00,249.50,241215,,*35
$GPRMC,095948,A,4816.8089,N,446.7806,W,10.00,249.50,241215,,*31
$GPRMC,095948,A,4816.8017,N,446.8094,W,10.00,249.50,241215,,*3A
$GPRMC,095948,A,4816.7945,N,446.8381,W,10.00,249.50,241215,,*3C
$GPRMC,095948,A,4816.7873,N,446.8669,W,10.00,249.50,241215,,*3B
$GPRMC,095948,A,4816.7801,N,446.8956,W,10.00,249.50,241215,,*3D
$GPRMC,095948,A,4816.7729,N,446.9244,W,10.00,249.50,241215,,*31
$GPRMC,095948,A,4816.7657,N,446.9531,W,10.00,249.50,241215,,*3C
$GPRMC,095948,A,4816.7585,N,446.9819,W,10.00,249.50,241215,,*37
$GPRMC,095948,A,4816.7513,N,447.0106,W,10.00,249.50,241215,,*37
$GPRMC,095948,A,4816.7441,N,447.0394,W,10.00,249.50,241215,,*38
$GPRMC,095948,A,4816.7369,N,447.0681,W,10.00,249.50,241215,,*34
$GPRMC,095948,A,4816.7297,N,447.0969,W,10.00,249.50,241215,,*3D
$GPRMC,095948,A,4816.7225,N,447.1257,W,10.00,249.50,241215,,*33
$GPRMC,095948,A,4816.7153,N,447.1544,W,10.00,249.50,241215,,*34
$GPRMC,095948,A,4816.7081,N,447.1832,W,10.00,249.50,241215,,*36
$GPRMC,095948,A,4816.7009,N,447.2119,W,10.00,249.50,241215,,*35
$GPRMC,095948,A,4816.6937,N,447.2407,W,10.00,249.50,241215,,*3A
$GPRMC,095948,A,4816.6865,N,447.2694,W,10.00,249.50,241215,,*34
$GPRMC,095948,A,4816.6793,N,447.2982,W,10.00,249.50,241215,,*3A
$GPRMC,095948,A,4816.6721,N,447.3269,W,10.00,249.50,241215,,*3C
$GPRMC,095948,A,4816.6649,N,447.3557,W,10.00,249.50,241215,,*39
$GPRMC,095948,A,4816.6577,N,447.3844,W,10.00,249.50,241215,,*38
$GPRMC,095948,A,4816.6505,N,447.4132,W,10.00,249.50,241215,,*32
$GPRMC,095948,A,4816.6433,N,447.4419,W,10.00,249.50,241215,,*3A
$GPRMC,095948,A,4816.6361,N,447.4707,W,10.00,249.50,241215,,*36
$GPRMC,095948,A,4816.6289,N,447.4994,W,10.00,249.50,241215,,*35
$GPRMC,095948,A,4816.6217,N,447.5282,W,10.00,249.50,241215,,*3F
$GPRMC,095948,A,4816.6145,N,447.5569,W,10.00,249.50,241215,,*39
$GPRMC,095948,A,4816.6073,N,447.5857,W,10.00,249.50,241215,,*3D
$GPRMC,095948,A,4816.6001,N,447.6144,W,10.00,249.50,241215,,*30
$GPRMC,095948,A,4816.5929,N,447.6432,W,10.00,249.50,241215,,*34
$GPRMC,095948,A,4816.5911,N,447.6505,W,10.00,251.00,241215,,*36
$GPRMC,095948,A,4816.5858,N,447.6737,W,10.00,251.00,241215,,*39
$GPRMC,095948,A,4816.5804,N,447.6969,W,10.00,251.00,241215,,*35
$GPRMC,095948,A,4816.5751,N,447.7201,W,10.00,251.00,241215,,*3E
$GPRMC,095948,A,4816.5698,N,447.7432,W,10.00,251.00,241215,,*3C
$GPRMC,095948,A,4816.5645,N,447.7664,W,10.00,251.00,241215,,*3D
$GPRMC,095948,A,4816.5591,N,447.7896,W,10.00,251.00,241215,,*34
$GPRMC,095948,A,4816.5538,N,447.8127,W,10.00,251.00,241215,,*3B
$GPRMC,095948,A,4816.5485,N,447.8359,W,10.00,251.00,241215,,*37
$GPRMC,095948,A,4816.5431,N,447.8591,W,10.00,251.00,241215,,*3A
$GPRMC,095948,A,4816.5378,N,447.8823,W,10.00,251.00,241215,,*34
$GPRMC,095948,A,4816.5325,N,447.9054,W,10.00,251.00,241215,,*35
$GPRMC,095948,A,4816.5272,N,447.9286,W,10.00,251.00,241215,,*3B
$GPRMC,095948,A,4816.5218,N,447.9518,W,10.00,251.00,241215,,*37
$GPRMC,095948,A,4816.5165,N,447.9749,W,10.00,251.00,241215,,*38
$GPRMC,095948,A,4816.5112,N,447.9981,W,10.00,251.00,241215,,*32
$GPRMC,095948,A,4816.5058,N,448.0213,W,10.00,251.00,241215,,*3B
$GPRMC,095948,A,4816.5005,N,448.0445,W,10.00,251.00,241215,,*36
$GPRMC,095948,A,4816.4952,N,448.0676,W,10.00,251.00,241215,,*3E
$GPRMC,095948,A,4816.4899,N,448.0908,W,10.00,251.00,241215,,*3E
$GPRMC,095948,A,4816.4845,N,448.1140,W,10.00,251.00,241215,,*3A
$GPRMC,095948,A,4816.4792,N,448.1371,W,10.00,251.00,241215,,*3F
$GPRMC,095948,A,4816.4739,N,448.1603,W,10.00,251.00,241215,,*3E
$GPRMC,095948,A,4816.4686,N,448.1835,W,10.00,251.00,241215,,*30
$GPRMC,095948,A,4816.4632,N,448.2067,W,10.00,251.00,241215,,*33
$GPRMC,095948,A,4816.4579,N,448.2298,W,10.00,251.00,241215,,*3D
$GPRMC,095948,A,4816.4526,N,448.2530,W,10.00,251.00,241215,,*32
$GPRMC,095948,A,4816.4472,N,448.2762,W,10.00,251.00,241215,,*37
$GPRMC,095948,A,4816.4419,N,448.2993,W,10.00,251.00,241215,,*3A
$GPRMC,095948,A,4816.4366,N,448.3225,W,10.00,251.00,241215,,*32
$GPRMC,095948,A,4816.4312,N,448.3457,W,10.00,251.00,241215,,*32
$GPRMC,095948,A,4816.4259,N,448.3688,W,10.00,251.00,241215,,*3C
$GPRMC,095948,A,4816.4206,N,448.3920,W,10.00,251.00,241215,,*3B
$GPRMC,095948,A,4816.4153,N,448.4152,W,10.00,251.00,241215,,*32
$GPRMC,095948,A,4816.4099,N,448.4384,W,10.00,251.00,241215,,*3C
$GPRMC,095948,A,4816.4046,N,448.4615,W,10.00,251.00,241215,,*33
$GPRMC,095948,A,4816.3993,N,448.4847,W,10.00,251.00,241215,,*3C
$GPRMC,095948,A,4816.3939,N,448.5079,W,10.00,251.00,241215,,*38
$GPRMC,095948,A,4816.3886,N,448.5310,W,10.00,251.00,241215,,*31
$GPRMC,095948,A,4816.3833,N,448.5542,W,10.00,251.00,241215,,*3E
$GPRMC,095948,A,4816.3780,N,448.5774,W,10.00,251.00,241215,,*3E
$GPRMC,095948,A,4816.3726,N,448.6005,W,10.00,251.00,241215,,*30
$GPRMC,095948,A,4816.3673,N,448.6237,W,10.00,251.00,241215,,*32
$GPRMC,095948,A,4816.3620,N,448.6469,W,10.00,251.00,241215,,*39
$GPRMC,095948,A,4816.3566,N,448.6700,W,10.00,251.00,241215,,*34
$GPRMC,095948,A,4816.3513,N,448.6932,W,10.00,251.00,241215,,*39
$GPRMC,095948,A,4816.3460,N,448.7164,W,10.00,251.00,241215,,*36
$GPRMC,095948,A,4816.3406,N,448.7396,W,10.00,251.00,241215,,*39
$GPRMC,095948,A,4816.3353,N,448.7627,W,10.00,251.00,241215,,*31
$GPRMC,095948,A,4816.3300,N,448.7859,W,10.00,251.00,241215,,*30
$GPRMC,095948,A,4816.3246,N,448.8091,W,10.00,251.00,241215,,*30
$GPRMC,095948,A,4816.3193,N,448.8322,W,10.00,251.00,241215,,*30
$GPRMC,095948,A,4816.3140,N,448.8554,W,10.00,251.00,241215,,*39
$GPRMC,095948,A,4816.3087,N,448.8786,W,10.00,251.00,241215,,*3E
$GPRMC,095948,A,4816.3033,N,448.9017,W,10.00,251.00,241215,,*3F
$GPRMC,095948,A,4816.2980,N,448.9249,W,10.00,251.00,241215,,*36
$GPRMC,095948,A,4816.2927,N,448.9481,W,10.00,251.00,241215,,*39
$GPRMC,095948,A,4816.2873,N,448.9712,W,10.00,251.00,241215,,*30
$GPRMC,095948,A,4816.2820,N,448.9944,W,10.00,251.00,241215,,*3B
$GPRMC,095948,A,4816.2767,N,449.0176,W,10.00,251.00,241215,,*36
$GPRMC,095948,A,4816.2713,N,449.0407,W,10.00,251.00,241215,,*36
$GPRMC,095948,A,4816.2660,N,449.0639,W,10.00,251.00,241215,,*3C
$GPRMC,095948,A,4816.2607,N,449.0871,W,10.00,251.00,241215,,*3F
$GPRMC,095948,A,4816.2553,N,449.1102,W,10.00,251.00,241215,,*31
$GPRMC,095948,A,4816.2500,N,449.1334,W,10.00,251.00,241215,,*30
$GPRMC,095948,A,4816.2447,N,449.1566,W,10.00,251.00,241215,,*33
$GPRMC,095948,A,4816.2393,N,449.1797,W,10.00,251.00,241215,,*31
$GPRMC,095948,A,4816.2340,N,449.2029,W,10.00,251.00,241215,,*3E
$GPRMC,095948,A,4816.2287,N,449.2261,W,10.00,251.00,241215,,*3A
$GPRMC,095948,A,4816.2233,N,449.2492,W,10.00,251.00,241215,,*3F
$GPRMC,095948,A,4816.2180,N,449.2724,W,10.00,251.00,241215,,*3A
$GPRMC,095948,A,4816.2127,N,449.2956,W,10.00,251.00,241215,,*3C
$GPRMC,095948,A,4816.2074,N,449.3187,W,10.00,251.00,241215,,*3E
$GPRMC,095948,A,4816.2020,N,449.3419,W,10.00,251.00,241215,,*3D
$GPRMC,095948,A,4816.1967,N,449.3651,W,10.00,251.00,241215,,*3A
$GPRMC,095948,A,4816.1914,N,449.3882,W,10.00,251.00,241215,,*3E
$GPRMC,095948,A,4816.1860,N,449.4114,W,10.00,251.00,241215,,*3D
$GPRMC,095948,A,4816.1807,N,449.4346,W,10.00,251.00,241215,,*39
$GPRMC,095948,A,4816.1754,N,449.4577,W,10.00,251.00,241215,,*34
$GPRMC,095948,A,4816.1700,N,449.4809,W,10.00,251.00,241215,,*31
$GPRMC,095948,A,4816.1647,N,449.5041,W,10.00,251.00,241215,,*36
$GPRMC,095948,A,4816.1594,N,449.5272,W,10.00,251.00,241215,,*39
$GPRMC,095948,A,4816.1540,N,449.5504,W,10.00,251.00,241215,,*36
$GPRMC,095948,A,4816.1487,N,449.5736,W,10.00,251.00,241215,,*3F
$GPRMC,095948,A,4816.1434,N,449.5967,W,10.00,251.00,241215,,*3D
$GPRMC,095948,A,4816.1380,N,449.6199,W,10.00,251.00,241215,,*3F
$GPRMC,095948,A,4816.1327,N,449.6431,W,10.00,251.00,241215,,*35
$GPRMC,095948,A,4816.1274,N,449.6662,W,10.00,251.00,241215,,*36
$GPRMC,095948,A,4816.1220,N,449.6894,W,10.00,251.00,241215,,*30
$GPRMC,095948,A,4816.1167,N,449.7126,W,10.00,251.00,241215,,*31
$GPRMC,095948,A,4816.1114,N,449.7357,W,10.00,251.00,241215,,*31
$GPRMC,095948,A,4816.1060,N,449.7589,W,10.00,251.00,241215,,*36
$GPRMC,095948,A,4816.1007,N,449.7821,W,10.00,251.00,241215,,*38
$GPRMC,095948,A,4816.0954,N,449.8052,W,10.00,251.00,241215,,*35
$GPRMC,095948,A,4816.0900,N,449.8284,W,10.00,251.00,241215,,*3D
$GPRMC,095948,A,4816.0847,N,449.8516,W,10.00,251.00,241215,,*33
$GPRMC,095948,A,4816.0793,N,449.8747,W,10.00,251.00,241215,,*33
$GPRMC,095948,A,4816.0740,N,449.8979,W,10.00,251.00,241215,,*3E
$GPRMC,095948,A,4816.0687,N,449.9211,W,10.00,251.00,241215,,*30
$GPRMC,095948,A,4816.0633,N,449.9442,W,10.00,251.00,241215,,*3F
$GPRMC,095948,A,4816.0580,N,449.9674,W,10.00,251.00,241215,,*33
$GPRMC,095948,A,4816.0527,N,449.9905,W,10.00,251.00,241215,,*37
$GPRMC,095948,A,4816.0473,N,450.0137,W,10.00,251.00,241215,,*3F
$GPRMC,095948,A,4816.0420,N,450.0369,W,10.00,251.00,241215,,*30
$GPRMC,095948,A,4816.0367,N,450.0600,W,10.00,251.00,241215,,*3E
$GPRMC,095948,A,4816.0313,N,450.0832,W,10.00,251.00,241215,,*32
$GPRMC,095948,A,4816.0260,N,450.1064,W,10.00,251.00,241215,,*3D
$GPRMC,095948,A,4816.0207,N,450.1295,W,10.00,251.00,241215,,*30
$GPRMC,095948,A,4816.0153,N,450.1527,W,10.00,251.00,241215,,*3C
$GPRMC,095948,A,4816.0100,N,450.1759,W,10.00,251.00,241215,,*31
$GPRMC,095948,A,4816.0047,N,450.1990,W,10.00,251.00,241215,,*38
$GPRMC,095948,A,4815.9993,N,450.2222,W,10.00,251.00,241215,,*33
$GPRMC,095948,A,4815.9940,N,450.2453,W,10.00,251.00,241215,,*3D
$GPRMC,095948,A,4815.9887,N,450.2685,W,10.00,251.00,241215,,*3E
$GPRMC,095948,A,4815.9833,N,450.2917,W,10.00,251.00,241215,,*35
$GPRMC,095948,A,4815.9780,N,450.3148,W,10.00,251.00,241215,,*31
$GPRMC,095948,A,4815.9726,N,450.3380,W,10.00,251.00,241215,,*3B
$GPRMC,095948,A,4815.9673,N,450.3612,W,10.00,251.00,241215,,*34
$GPRMC,095948,A,4815.9620,N,450.3843,W,10.00,251.00,241215,,*38
$GPRMC,095948,A,4815.9566,N,450.4075,W,10.00,251.00,241215,,*33
$GPRMC,095948,A,4815.9513,N,450.4307,W,10.00,251.00,241215,,*37
$GPRMC,095948,A,4815.9460,N,450.4538,W,10.00,251.00,241215,,*38
$GPRMC,095948,A,4815.9406,N,450.4770,W,10.00,251.00,241215,,*36
$GPRMC,095948,A,4815.9353,N,450.5001,W,10.00,251.00,241215,,*31
$GPRMC,095948,A,4815.9300,N,450.5233,W,10.00,251.00,241215,,*34
$GPRMC,095948,A,4815.9246,N,450.5465,W,10.00,251.00,241215,,*32
$GPRMC,095948,A,4815.9193,N,450.5696,W,10.00,251.00,241215,,*37
$GPRMC,095948,A,4815.9139,N,450.5928,W,10.00,251.00,241215,,*3D
$GPRMC,095948,A,4815.9086,N,450.6160,W,10.00,251.00,241215,,*3F
$GPRMC,095948,A,4815.9033,N,450.6391,W,10.00,251.00,241215,,*3D
$GPRMC,095948,A,4815.8979,N,450.6623,W,10.00,251.00,241215,,*37
$GPRMC,095948,A,4815.8926,N,450.6854,W,10.00,251.00,241215,,*33
$GPRMC,095948,A,4815.8873,N,450.7086,W,10.00,251.00,241215,,*34
$GPRMC,095948,A,4815.8819,N,450.7318,W,10.00,251.00,241215,,*3C
$GPRMC,095948,A,4815.8766,N,450.7549,W,10.00,251.00,241215,,*39
$GPRMC,095948,A,4815.8712,N,450.7781,W,10.00,251.00,241215,,*3C
$GPRMC,095948,A,4815.8659,N,450.8012,W,10.00,251.00,241215,,*30
$GPRMC,095948,A,4815.8606,N,450.8244,W,10.00,251.00,241215,,*3B
$GPRMC,095948,A,4815.8552,N,450.8476,W,10.00,251.00,241215,,*3E
$GPRMC,095948,A,4815.8499,N,450.8707,W,10.00,251.00,241215,,*3D
$GPRMC,095948,A,4815.8446,N,450.8939,W,10.00,251.00,241215,,*3C
$GPRMC,095948,A,4815.8392,N,450.9171,W,10.00,251.00,241215,,*37
$GPRMC,095948,A,4815.8339,N,450.9402,W,10.00,251.00,241215,,*37
$GPRMC,095948,A,4815.8285,N,450.9634,W,10.00,251.00,241215,,*36
$GPRMC,095948,A,4815.8232,N,450.9865,W,10.00,251.00,241215,,*30
$GPRMC,095948,A,4815.8179,N,451.0097,W,10.00,251.00,241215,,*31
$GPRMC,095948,A,4815.8125,N,451.0329,W,10.00,251.00,241215,,*3E
$GPRMC,095948,A,4815.8072,N,451.0560,W,10.00,251.00,241215,,*36
$GPRMC,095948,A,4815.8019,N,451.0792,W,10.00,251.00,241215,,*34
$GPRMC,095948,A,4815.7965,N,451.1023,W,10.00,251.00,241215,,*35
$GPRMC,095948,A,4815.7912,N,451.1255,W,10.00,251.00,241215,,*36
$GPRMC,095948,A,4815.7858,N,451.1487,W,10.00,251.00,241215,,*30
$GPRMC,095948,A,4815.7805,N,451.1718,W,10.00,251.00,241215,,*3D
$GPRMC,095948,A,4815.7752,N,451.1950,W,10.00,251.00,241215,,*32
$GPRMC,095948,A,4815.7698,N,451.2181,W,10.00,251.00,241215,,*32
$GPRMC,095948,A,4815.7645,N,451.2413,W,10.00,251.00,241215,,*3C
$GPRMC,095948,A,4815.7591,N,451.2645,W,10.00,251.00,241215,,*37
$GPRMC,095948,A,4815.7538,N,451.2876,W,10.00,251.00,241215,,*3A
$GPRMC,095948,A,4815.7485,N,451.3108,W,10.00,251.00,241215,,*3C
$GPRMC,095948,A,4815.7431,N,451.3339,W,10.00,251.00,241215,,*33
$GPRMC,095948,A,4815.7378,N,451.3571,W,10.00,251.00,241215,,*33
$GPRMC,095948,A,4815.7324,N,451.3803,W,10.00,251.00,241215,,*32
$GPRMC,095948,A,4815.7271,N,451.4034,W,10.00,251.00,241215,,*38
$GPRMC,095948,A,4815.7218,N,451.4266,W,10.00,251.00,241215,,*32
$GPRMC,095948,A,4815.7164,N,451.4497,W,10.00,251.00,241215,,*32
$GPRMC,095948,A,4815.7111,N,451.4729,W,10.00,251.00,241215,,*36
$GPRMC,095948,A,4815.7058,N,451.4961,W,10.00,251.00,241215,,*38
$GPRMC,095948,A,4815.7004,N,451.5192,W,10.00,251.00,241215,,*34
$GPRMC,095948,A,4815.6951,N,451.5424,W,10.00,251.00,241215,,*34
$GPRMC,095948,A,4815.6897,N,451.5655,W,10.00,251.00,241215,,*3B
$GPRMC,095948,A,4815.6844,N,451.5887,W,10.00,251.00,241215,,*34
$GPRMC,095948,A,4815.6791,N,451.6119,W,10.00,251.00,241215,,*3E
$GPRMC,095948,A,4815.6737,N,451.6350,W,10.00,251.00,241215,,*3D
$GPRMC,095948,A,4815.6684,N,451.6582,W,10.00,251.00,241215,,*3D
$GPRMC,095948,A,4815.6630,N,451.6813,W,10.00,251.00,241215,,*37
$GPRMC,095948,A,4815.6577,N,451.7045,W,10.00,251.00,241215,,*3D
$GPRMC,095948,A,4815.6523,N,451.7276,W,10.00,251.00,241215,,*3E
$GPRMC,095948,A,4815.6470,N,451.7508,W,10.00,251.00,241215,,*37
$GPRMC,095948,A,4815.6417,N,451.7740,W,10.00,251.00,241215,,*38
$GPRMC,095948,A,4815.6363,N,451.7971,W,10.00,251.00,241215,,*30
$GPRMC,095948,A,4815.6310,N,451.8203,W,10.00,251.00,241215,,*35
$GPRMC,095948,A,4815.6256,N,451.8434,W,10.00,251.00,241215,,*34
$GPRMC,095948,A,4815.6203,N,451.8666,W,10.00,251.00,241215,,*31
$GPRMC,095948,A,4815.6150,N,451.8898,W,10.00,251.00,241215,,*3B
$GPRMC,095948,A,4815.6096,N,451.9129,W,10.00,251.00,241215,,*32
$GPRMC,095948,A,4815.6043,N,451.9361,W,10.00,251.00,241215,,*34
$GPRMC,095948,A,4815.5989,N,451.9592,W,10.00,251.00,241215,,*32
$GPRMC,095948,A,4815.5936,N,451.9824,W,10.00,251.00,241215,,*36
$GPRMC,095948,A,4815.5883,N,452.0055,W,10.00,251.00,241215,,*3D
$GPRMC,095948,A,4815.5829,N,452.0287,W,10.00,251.00,241215,,*30
$GPRMC,095948,A,4815.5776,N,452.0519,W,10.00,251.00,241215,,*35
$GPRMC,095948,A,4815.5722,N,452.0750,W,10.00,251.00,241215,,*3B
$GPRMC,095948,A,4815.5669,N,452.0982,W,10.00,251.00,241215,,*34
$GPRMC,095948,A,4815.5615,N,452.1213,W,10.00,251.00,241215,,*3D
$GPRMC,095948,A,4815.5562,N,452.1445,W,10.00,251.00,241215,,*3B
$GPRMC,095948,A,4815.5509,N,452.1676,W,10.00,251.00,241215,,*34
$GPRMC,095948,A,4815.5455,N,452.1908,W,10.00,251.00,241215,,*3A
$GPRMC,095948,A,4815.5402,N,452.2140,W,10.00,251.00,241215,,*3F
$GPRMC,095948,A,4815.5348,N,452.2371,W,10.00,251.00,241215,,*36
$GPRMC,095948,A,4815.5295,N,452.2603,W,10.00,251.00,241215,,*37
$GPRMC,095948,A,4815.5242,N,452.2834,W,10.00,251.00,241215,,*37
$GPRMC,095948,A,4815.5188,N,452.3066,W,10.00,251.00,241215,,*3C
$GPRMC,095948,A,4815.5135,N,452.3297,W,10.00,251.00,241215,,*36
$GPRMC,095948,A,4815.5081,N,452.3529,W,10.00,251.00,241215,,*3A
$GPRMC,095948,A,4815.5028,N,452.3760,W,10.00,251.00,241215,,*36
$GPRMC,095948,A,4815.4974,N,452.3992,W,10.00,251.00,241215,,*34
$GPRMC,095948,A,4815.4921,N,452.4224,W,10.00,251.00,241215,,*35
$GPRMC,095948,A,4815.4868,N,452.4455,W,10.00,251.00,241215,,*39
$GPRMC,095948,A,4815.4814,N,452.4687,W,10.00,251.00,241215,,*3F
$GPRMC,095948,A,4815.4761,N,452.4918,W,10.00,251.00,241215,,*3B
$GPRMC,095948,A,4815.4707,N,452.5150,W,10.00,251.00,241215,,*3E
$GPRMC,095948,A,4815.4654,N,452.5381,W,10.00,251.00,241215,,*37
$GPRMC,095948,A,4815.4600,N,452.5613,W,10.00,251.00,241215,,*38
$GPRMC,095948,A,4815.4547,N,452.5844,W,10.00,251.00,241215,,*34
$GPRMC,095948,A,4815.4493,N,452.6076,W,10.00,251.00,241215,,*36
$GPRMC,095948,A,4815.4440,N,452.6308,W,10.00,251.00,241215,,*32
$GPRMC,095948,A,4815.4387,N,452.6539,W,10.00,251.00,241215,,*3A
$GPRMC,095948,A,4815.4333,N,452.6771,W,10.00,251.00,241215,,*3B
$GPRMC,095948,A,4815.4280,N,452.7002,W,10.00,251.00,241215,,*30
$GPRMC,095948,A,4815.4226,N,452.7234,W,10.00,251.00,241215,,*3B
$GPRMC,095948,A,4815.4173,N,452.7465,W,10.00,251.00,241215,,*3A
$GPRMC,095948,A,4815.4119,N,452.7697,W,10.00,251.00,241215,,*39
$GPRMC,095948,A,4815.4066,N,452.7928,W,10.00,251.00,241215,,*3B
$GPRMC,095948,A,4815.4013,N,452.8160,W,10.00,251.00,241215,,*32
$GPRMC,095948,A,4815.3959,N,452.8392,W,10.00,251.00,241215,,*3D
$GPRMC,095948,A,4815.3906,N,452.8623,W,10.00,251.00,241215,,*38
$GPRMC,095948,A,4815.3852,N,452.8855,W,10.00,251.00,241215,,*37
$GPRMC,095948,A,4815.3799,N,452.9086,W,10.00,251.00,241215,,*38
$GPRMC,095948,A,4815.3745,N,452.9318,W,10.00,251.00,241215,,*3D
$GPRMC,095948,A,4815.3692,N,452.9549,W,10.00,251.00,241215,,*34
$GPRMC,095948,A,4815.3638,N,452.9781,W,10.00,251.00,241215,,*32
$GPRMC,095948,A,4815.3585,N,453.0012,W,10.00,251.00,241215,,*32
$GPRMC,095948,A,4815.3532,N,453.0244,W,10.00,251.00,241215,,*3F
$GPRMC,095948,A,4815.3478,N,453.0475,W,10.00,251.00,241215,,*34
$GPRMC,095948,A,4815.3425,N,453.0707,W,10.00,251.00,241215,,*3A
$GPRMC,095948,A,4815.3371,N,453.0938,W,10.00,251.00,241215,,*3E
$GPRMC,095948,A,4815.3318,N,453.1170,W,10.00,251.00,241215,,*34
$GPRMC,095948,A,4815.3264,N,453.1402,W,10.00,251.00,241215,,*3E
$GPRMC,095948,A,4815.3211,N,453.1633,W,10.00,251.00,241215,,*3C
$GPRMC,095948,A,4815.3157,N,453.1865,W,10.00,251.00,241215,,*30
$GPRMC,095948,A,4815.3104,N,453.2096,W,10.00,251.00,241215,,*31
$GPRMC,095948,A,4815.3050,N,453.2328,W,10.00,251.00,241215,,*37
$GPRMC,095948,A,4815.2997,N,453.2559,W,10.00,251.00,241215,,*34
$GPRMC,095948,A,4815.2944,N,453.2791,W,10.00,251.00,241215,,*3C
$GPRMC,095948,A,4815.2890,N,453.3022,W,10.00,251.00,241215,,*3A
$GPRMC,095948,A,4815.2837,N,453.3254,W,10.00,251.00,241215,,*34
$GPRMC,095948,A,4815.2783,N,453.3485,W,10.00,251.00,241215,,*3E
$GPRMC,095948,A,4815.2730,N,453.3717,W,10.00,251.00,241215,,*3E
$GPRMC,095948,A,4815.2676,N,453.3948,W,10.00,251.00,241215,,*39
$GPRMC,095948,A,4815.2623,N,453.4180,W,10.00,251.00,241215,,*32
$GPRMC,095948,A,4815.2569,N,453.4411,W,10.00,251.00,241215,,*32
$GPRMC,095948,A,4815.2516,N,453.4643,W,10.00,251.00,241215,,*3F
$GPRMC,095948,A,4815.2462,N,453.4874,W,10.00,251.00,241215,,*37
$GPRMC,095948,A,4815.2409,N,453.5106,W,10.00,251.00,241215,,*37
$GPRMC,095948,A,4815.2355,N,453.5337,W,10.00,251.00,241215,,*39
$GPRMC,095948,A,4815.2302,N,453.5569,W,10.00,251.00,241215,,*36
$GPRMC,095948,A,4815.2249,N,453.5801,W,10.00,251.00,241215,,*3B
$GPRMC,095948,A,4815.2195,N,453.6032,W,10.00,251.00,241215,,*32
$GPRMC,095948,A,4815.2142,N,453.6264,W,10.00,251.00,241215,,*39
$GPRMC,095948,A,4815.2088,N,453.6495,W,10.00,251.00,241215,,*36
$GPRMC,095948,A,4815.2035,N,453.6727,W,10.00,251.00,241215,,*3A
$GPRMC,095948,A,4815.1981,N,453.6958,W,10.00,251.00,241215,,*39
$GPRMC,095948,A,4815.1928,N,453.7190,W,10.00,251.00,241215,,*37
$GPRMC,095948,A,4815.1874,N,453.7421,W,10.00,251.00,241215,,*30
$GPRMC,095948,A,4815.1821,N,453.7653,W,10.00,251.00,241215,,*37
$GPRMC,095948,A,4815.1767,N,453.7884,W,10.00,251.00,241215,,*3E
$GPRMC,095948,A,4815.1714,N,453.8116,W,10.00,251.00,241215,,*37
$GPRMC,095948,A,4815.1660,N,453.8347,W,10.00,251.00,241215,,*33
$GPRMC,095948,A,4815.1607,N,453.8579,W,10.00,251.00,241215,,*39
$GPRMC,095948,A,4815.1553,N,453.8810,W,10.00,251.00,241215,,*39
$GPRMC,095948,A,4815.1500,N,453.9042,W,10.00,251.00,241215,,*31
$GPRMC,095948,A,4815.1446,N,453.9273,W,10.00,251.00,241215,,*32
$GPRMC,095948,A,4815.1395,N,453.9497,W,10.00,277.53,241215,,*35
$GPRMC,095948,A,4815.1421,N,453.9797,W,10.00,277.53,241215,,*3E
$GPRMC,095948,A,4815.1448,N,454.0097,W,10.00,277.53,241215,,*38
$GPRMC,095948,A,4815.1474,N,454.0397,W,10.00,277.53,241215,,*34
$GPRMC,095948,A,4815.1501,N,454.0697,W,10.00,277.53,241215,,*32
$GPRMC,095948,A,4815.1527,N,454.0997,W,10.00,277.53,241215,,*39
$GPRMC,095948,A,4815.1553,N,454.1297,W,10.00,277.53,241215,,*30
$GPRMC,095948,A,4815.1580,N,454.1597,W,10.00,277.53,241215,,*39
$GPRMC,095948,A,4815.1606,N,454.1897,W,10.00,277.53,241215,,*39
$GPRMC,095948,A,4815.1633,N,454.2197,W,10.00,277.53,241215,,*35
$GPRMC,095948,A,4815.1659,N,454.2497,W,10.00,277.53,241215,,*3C
$GPRMC,095948,A,4815.1686,N,454.2797,W,10.00,277.53,241215,,*3D
$GPRMC,095948,A,4815.1712,N,454.3097,W,10.00,277.53,241215,,*37
$GPRMC,095948,A,4815.1739,N,454.3396,W,10.00,277.53,241215,,*3C
$GPRMC,095948,A,4815.1765,N,454.3696,W,10.00,277.53,241215,,*30
$GPRMC,095948,A,4815.1792,N,454.3996,W,10.00,277.53,241215,,*37
$GPRMC,095948,A,4815.1818,N,454.4296,W,10.00,277.53,241215,,*36
$GPRMC,095948,A,4815.1844,N,454.4596,W,10.00,277.53,241215,,*38
$GPRMC,095948,A,4815.1871,N,454.4896,W,10.00,277.53,241215,,*33
$GPRMC,095948,A,4815.1897,N,454.5196,W,10.00,277.53,241215,,*33
$GPRMC,095948,A,4815.1924,N,454.5496,W,10.00,277.53,241215,,*3F
$GPRMC,095948,A,4815.1950,N,454.5796,W,10.00,277.53,241215,,*3F
$GPRMC,095948,A,4815.1977,N,454.6096,W,10.00,277.53,241215,,*3E
$GPRMC,095948,A,4815.2003,N,454.6396,W,10.00,277.53,241215,,*34
$GPRMC,095948,A,4815.2030,N,454.6696,W,10.00,277.53,241215,,*31
$GPRMC,095948,A,4815.2056,N,454.6996,W,10.00,277.53,241215,,*3E
$GPRMC,095948,A,4815.2082,N,454.7296,W,10.00,277.53,241215,,*3D
$GPRMC,095948,A,4815.2109,N,454.7596,W,10.00,277.53,241215,,*38
$GPRMC,095948,A,4815.2135,N,454.7896,W,10.00,277.53,241215,,*3A
$GPRMC,095948,A,4815.2162,N,454.8196,W,10.00,277.53,241215,,*3E
$GPRMC,095948,A,4815.2188,N,454.8496,W,10.00,277.53,241215,,*3F
$GPRMC,095948,A,4815.2215,N,454.8796,W,10.00,277.53,241215,,*3B
$GPRMC,095948,A,4815.2241,N,454.9096,W,10.00,277.53,241215,,*3C
$GPRMC,095948,A,4815.2267,N,454.9396,W,10.00,277.53,241215,,*3B
$GPRMC,095948,A,4815.2294,N,454.9696,W,10.00,277.53,241215,,*32
$GPRMC,095948,A,4815.2320,N,454.9996,W,10.00,277.53,241215,,*33
$GPRMC,095948,A,4815.2347,N,455.0296,W,10.00,277.53,241215,,*31
$GPRMC,095948,A,4815.2373,N,455.0596,W,10.00,277.53,241215,,*31
$GPRMC,095948,A,4815.2400,N,455.0896,W,10.00,277.53,241215,,*3F
$GPRMC,095948,A,4815.2426,N,455.1196,W,10.00,277.53,241215,,*33
$GPRMC,095948,A,4815.2452,N,455.1495,W,10.00,277.53,241215,,*36
$GPRMC,095948,A,4815.2479,N,455.1795,W,10.00,277.53,241215,,*3C
$GPRMC,095948,A,4815.2505,N,455.2095,W,10.00,277.53,241215,,*32
$GPRMC,095948,A,4815.2532,N,455.2395,W,10.00,277.53,241215,,*35
$GPRMC,095948,A,4815.2558,N,455.2695,W,10.00,277.53,241215,,*3C
$GPRMC,095948,A,4815.2584,N,455.2995,W,10.00,277.53,241215,,*32
$GPRMC,095948,A,4815.2611,N,455.3295,W,10.00,277.53,241215,,*37
$GPRMC,095948,A,4815.2637,N,455.3595,W,10.00,277.53,241215,,*34
$GPRMC,095948,A,4815.2664,N,455.3895,W,10.00,277.53,241215,,*3F
$GPRMC,095948,A,4815.2690,N,455.4195,W,10.00,277.53,241215,,*3A
$GPRMC,095948,A,4815.2717,N,455.4495,W,10.00,277.53,241215,,*31
$GPRMC,095948,A,4815.2743,N,455.4795,W,10.00,277.53,241215,,*33
$GPRMC,095948,A,4815.2769,N,455.5095,W,10.00,277.53,241215,,*3D
$GPRMC,095948,A,4815.2796,N,455.5395,W,10.00,277.53,241215,,*3E
$GPRMC,095948,A,4815.2822,N,455.5695,W,10.00,277.53,241215,,*3B
$GPRMC,095948,A,4815.2849,N,455.5995,W,10.00,277.53,241215,,*39
$GPRMC,095948,A,4815.2875,N,455.6295,W,10.00,277.53,241215,,*3E
$GPRMC,095948,A,4815.2901,N,455.6595,W,10.00,277.53,241215,,*3B
$GPRMC,095948,A,4815.2928,N,455.6895,W,10.00,277.53,241215,,*3D
$GPRMC,095948,A,4815.2954,N,455.7195,W,10.00,277.53,241215,,*3E
$GPRMC,095948,A,4815.2981,N,455.7495,W,10.00,277.53,241215,,*33
$GPRMC,095948,A,4815.3007,N,455.7795,W,10.00,277.53,241215,,*36
$GPRMC,095948,A,4815.3033,N,455.8095,W,10.00,277.53,241215,,*39
$GPRMC,095948,A,4815.3060,N,455.8395,W,10.00,277.53,241215,,*3C
$GPRMC,095948,A,4815.3086,N,455.8695,W,10.00,277.53,241215,,*31
$GPRMC,095948,A,4815.3112,N,455.8995,W,10.00,277.53,241215,,*32
$GPRMC,095948,A,4815.3139,N,455.9295,W,10.00,277.53,241215,,*31
$GPRMC,095948,A,4815.3165,N,455.9595,W,10.00,277.53,241215,,*3F
$GPRMC,095948,A,4815.3192,N,455.9895,W,10.00,277.53,241215,,*3A
$GPRMC,095948,A,4815.3218,N,456.0195,W,10.00,277.53,241215,,*38
$GPRMC,095948,A,4815.3244,N,456.0495,W,10.00,277.53,241215,,*34
$GPRMC,095948,A,4815.3271,N,456.0795,W,10.00,277.53,241215,,*31
$GPRMC,095948,A,4815.3297,N,456.1095,W,10.00,277.53,241215,,*3F
$GPRMC,095948,A,4815.3323,N,456.1395,W,10.00,277.53,241215,,*32
$GPRMC,095948,A,4815.3350,N,456.1695,W,10.00,277.53,241215,,*33
$GPRMC,095948,A,4815.3376,N,456.1995,W,10.00,277.53,241215,,*38
$GPRMC,095948,A,4815.3403,N,456.2295,W,10.00,277.53,241215,,*35
$GPRMC,095948,A,4815.3429,N,456.2595,W,10.00,277.53,241215,,*3A
$GPRMC,095948,A,4815.3455,N,456.2895,W,10.00,277.53,241215,,*3C
$GPRMC,095948,A,4815.3482,N,456.3195,W,10.00,277.53,241215,,*3E
$GPRMC,095948,A,4815.3508,N,456.3495,W,10.00,277.53,241215,,*38
$GPRMC,095948,A,4815.3534,N,456.3795,W,10.00,277.53,241215,,*34
$GPRMC,095948,A,4815.3561,N,456.4095,W,10.00,277.53,241215,,*34
$GPRMC,095948,A,4815.3587,N,456.4395,W,10.00,277.53,241215,,*3F
$GPRMC,095948,A,4815.3614,N,456.4695,W,10.00,277.53,241215,,*33
$GPRMC,095948,A,4815.3640,N,456.4995,W,10.00,277.53,241215,,*3D
$GPRMC,095948,A,4815.3666,N,456.5295,W,10.00,277.53,241215,,*33
$GPRMC,095948,A,4815.3693,N,456.5595,W,10.00,277.53,241215,,*3E
$GPRMC,095948,A,4815.3719,N,456.5895,W,10.00,277.53,241215,,*30
$GPRMC,095948,A,4815.3745,N,456.6195,W,10.00,277.53,241215,,*33
$GPRMC,095948,A,4815.3772,N,456.6495,W,10.00,277.53,241215,,*32
$GPRMC,095948,A,4815.3798,N,456.6795,W,10.00,277.53,241215,,*35
$GPRMC,095948,A,4815.3824,N,456.7095,W,10.00,277.53,241215,,*3B
$GPRMC,095948,A,4815.3851,N,456.7395,W,10.00,277.53,241215,,*3A
$GPRMC,095948,A,4815.3877,N,456.7695,W,10.00,277.53,241215,,*3B
$GPRMC,095948,A,4815.3903,N,456.7995,W,10.00,277.53,241215,,*36
$GPRMC,095948,A,4815.3930,N,456.8295,W,10.00,277.53,241215,,*32
$GPRMC,095948,A,4815.3956,N,456.8595,W,10.00,277.53,241215,,*35
$GPRMC,095948,A,4815.3982,N,456.8895,W,10.00,277.53,241215,,*31
$GPRMC,095948,A,4815.4009,N,456.9195,W,10.00,277.53,241215,,*34
$GPRMC,095948,A,4815.4035,N,456.9495,W,10.00,277.53,241215,,*3E
$GPRMC,095948,A,4815.4061,N,456.9795,W,10.00,277.53,241215,,*3C
$GPRMC,095948,A,4815.4088,N,457.0095,W,10.00,277.53,241215,,*34
$GPRMC,095948,A,4815.4114,N,457.0395,W,10.00,277.53,241215,,*33
$GPRMC,095948,A,4815.4140,N,457.0695,W,10.00,277.53,241215,,*37
$GPRMC,095948,A,4815.4167,N,457.0995,W,10.00,277.53,241215,,*3D
$GPRMC,095948,A,4815.4193,N,457.1295,W,10.00,277.53,241215,,*3C
$GPRMC,095948,A,4815.4219,N,457.1595,W,10.00,277.53,241215,,*3A
$GPRMC,095948,A,4815.4246,N,457.1895,W,10.00,277.53,241215,,*3D
$GPRMC,095948,A,4815.4272,N,457.2195,W,10.00,277.53,241215,,*30
$GPRMC,095948,A,4815.4298,N,457.2495,W,10.00,277.53,241215,,*31
$GPRMC,095948,A,4815.4325,N,457.2795,W,10.00,277.53,241215,,*35
$GPRMC,095948,A,4815.4351,N,457.3095,W,10.00,277.53,241215,,*30
$GPRMC,095948,A,4815.4377,N,457.3395,W,10.00,277.53,241215,,*37
$GPRMC,095948,A,4815.4404,N,457.3695,W,10.00,277.53,241215,,*31
$GPRMC,095948,A,4815.4430,N,457.3995,W,10.00,277.53,241215,,*39
$GPRMC,095948,A,4815.4456,N,457.4295,W,10.00,277.53,241215,,*35
$GPRMC,095948,A,4815.4483,N,457.4595,W,10.00,277.53,241215,,*3A
$GPRMC,095948,A,4815.4509,N,457.4895,W,10.00,277.53,241215,,*34
$GPRMC,095948,A,4815.4535,N,457.5195,W,10.00,277.53,241215,,*33
$GPRMC,095948,A,4815.4562,N,457.5495,W,10.00,277.53,241215,,*34
$GPRMC,095948,A,4815.4588,N,457.5795,W,10.00,277.53,241215,,*33
$GPRMC,095948,A,4815.4614,N,457.6095,W,10.00,277.53,241215,,*31
$GPRMC,095948,A,4815.4641,N,457.6395,W,10.00,277.53,241215,,*32
$GPRMC,095948,A,4815.4667,N,457.6695,W,10.00,277.53,241215,,*33
$GPRMC,095948,A,4815.4693,N,457.6995,W,10.00,277.53,241215,,*37
$GPRMC,095948,A,4815.4719,N,457.7295,W,10.00,277.53,241215,,*3E
$GPRMC,095948,A,4815.4746,N,457.7595,W,10.00,277.53,241215,,*33
$GPRMC,095948,A,4815.4772,N,457.7895,W,10.00,277.53,241215,,*39
$GPRMC,095948,A,4815.4798,N,457.8195,W,10.00,277.53,241215,,*3B
$GPRMC,095948,A,4815.4825,N,457.8495,W,10.00,277.53,241215,,*37
$GPRMC,095948,A,4815.4851,N,457.8795,W,10.00,277.53,241215,,*37
$GPRMC,095948,A,4815.4877,N,457.9095,W,10.00,277.53,241215,,*35
$GPRMC,095948,A,4815.4904,N,457.9395,W,10.00,277.53,241215,,*33
$GPRMC,095948,A,4815.4930,N,457.9695,W,10.00,277.53,241215,,*31
$GPRMC,095948,A,4815.4956,N,457.9995,W,10.00,277.53,241215,,*3E
$GPRMC,095948,A,4815.4982,N,458.0295,W,10.00,277.53,241215,,*3A
$GPRMC,095948,A,4815.5009,N,458.0595,W,10.00,277.53,241215,,*36
$GPRMC,095948,A,4815.5035,N,458.0895,W,10.00,277.53,241215,,*34
$GPRMC,095948,A,4815.5061,N,458.1195,W,10.00,277.53,241215,,*3D
$GPRMC,095948,A,4815.5088,N,458.1495,W,10.00,277.53,241215,,*3F
$GPRMC,095948,A,4815.5114,N,458.1795,W,10.00,277.53,241215,,*38
$GPRMC,095948,A,4815.5140,N,458.2095,W,10.00,277.53,241215,,*3D
$GPRMC,095948,A,4815.5166,N,458.2395,W,10.00,277.53,241215,,*3A
$GPRMC,095948,A,4815.5193,N,458.2695,W,10.00,277.53,241215,,*35
$GPRMC,095948,A,4815.5219,N,458.2995,W,10.00,277.53,241215,,*3B
$GPRMC,095948,A,4815.5245,N,458.3295,W,10.00,277.53,241215,,*38
$GPRMC,095948,A,4815.5272,N,458.3595,W,10.00,277.53,241215,,*3B
$GPRMC,095948,A,4815.5298,N,458.3895,W,10.00,277.53,241215,,*32
$GPRMC,095948,A,4815.5324,N,458.4195,W,10.00,277.53,241215,,*3A
$GPRMC,095948,A,4815.5350,N,458.4495,W,10.00,277.53,241215,,*3C
$GPRMC,095948,A,4815.5377,N,458.4795,W,10.00,277.53,241215,,*3A
$GPRMC,095948,A,4815.5403,N,458.5095,W,10.00,277.53,241215,,*38
$GPRMC,095948,A,4815.5429,N,458.5395,W,10.00,277.53,241215,,*33
$GPRMC,095948,A,4815.5456,N,458.5696,W,10.00,277.53,241215,,*3D
$GPRMC,095948,A,4815.5482,N,458.5996,W,10.00,277.53,241215,,*3B
$GPRMC,095948,A,4815.5508,N,458.6296,W,10.00,277.53,241215,,*30
$GPRMC,095948,A,4815.5534,N,458.6596,W,10.00,277.53,241215,,*38
$GPRMC,095948,A,4815.5561,N,458.6896,W,10.00,277.53,241215,,*35
$GPRMC,095948,A,4815.5587,N,458.7196,W,10.00,277.53,241215,,*35
$GPRMC,095948,A,4815.5613,N,458.7496,W,10.00,277.53,241215,,*3E
$GPRMC,095948,A,4815.5639,N,458.7796,W,10.00,277.53,241215,,*35
$GPRMC,095948,A,4815.5666,N,458.8096,W,10.00,277.53,241215,,*37
$GPRMC,095948,A,4815.5692,N,458.8396,W,10.00,277.53,241215,,*3F
$GPRMC,095948,A,4815.5718,N,458.8696,W,10.00,277.53,241215,,*39
$GPRMC,095948,A,4815.5744,N,458.8996,W,10.00,277.53,241215,,*3F
$GPRMC,095948,A,4815.5771,N,458.9296,W,10.00,277.53,241215,,*33
$GPRMC,095948,A,4815.5797,N,458.9596,W,10.00,277.53,241215,,*3C
$GPRMC,095948,A,4815.5823,N,458.9896,W,10.00,277.53,241215,,*31
$GPRMC,095948,A,4815.5849,N,459.0196,W,10.00,277.53,241215,,*3C
$GPRMC,095948,A,4815.5876,N,459.0496,W,10.00,277.53,241215,,*35
$GPRMC,095948,A,4815.5902,N,459.0796,W,10.00,277.53,241215,,*34
$GPRMC,095948,A,4815.5928,N,459.1096,W,10.00,277.53,241215,,*3A
$GPRMC,095948,A,4815.5954,N,459.1396,W,10.00,277.53,241215,,*32
$GPRMC,095948,A,4815.5981,N,459.1696,W,10.00,277.53,241215,,*3F
$GPRMC,095948,A,4815.6007,N,459.1996,W,10.00,277.53,241215,,*34
$GPRMC,095948,A,4815.6033,N,459.2296,W,10.00,277.53,241215,,*3B
$GPRMC,095948,A,4815.6059,N,459.2596,W,10.00,277.53,241215,,*30
$GPRMC,095948,A,4815.6086,N,459.2896,W,10.00,277.53,241215,,*3F
$GPRMC,095948,A,4815.6093,N,459.2981,W,10.00,322.60,241215,,*3D
$GPRMC,095948,A,4815.6257,N,459.3169,W,10.00,322.60,241215,,*38
$GPRMC,095948,A,4815.6421,N,459.3357,W,10.00,322.60,241215,,*30
$GPRMC,095948,A,4815.6585,N,459.3545,W,10.00,322.60,241215,,*3A
$GPRMC,095948,A,4815.6749,N,459.3732,W,10.00,322.60,241215,,*3A
$GPRMC,095948,A,4815.6913,N,459.3920,W,10.00,322.60,241215,,*36
$GPRMC,095948,A,4815.7077,N,459.4108,W,10.00,322.60,241215,,*39
$GPRMC,095948,A,4815.7241,N,459.4296,W,10.00,322.60,241215,,*3A
$GPRMC,095948,A,4815.7405,N,459.4484,W,10.00,322.60,241215,,*39
$GPRMC,095948,A,4815.7569,N,459.4672,W,10.00,322.60,241215,,*39
$GPRMC,095948,A,4815.7734,N,459.4859,W,10.00,322.60,241215,,*34
$GPRMC,095948,A,4815.7898,N,459.5047,W,10.00,322.60,241215,,*3B
$GPRMC,095948,A,4815.8062,N,459.5235,W,10.00,322.60,241215,,*3E
$GPRMC,095948,A,4815.8226,N,459.5423,W,10.00,322.60,241215,,*3D
$GPRMC,095948,A,4815.8390,N,459.5611,W,10.00,322.60,241215,,*32
$GPRMC,095948,A,4815.8554,N,459.5799,W,10.00,322.60,241215,,*3D
$GPRMC,095948,A,4815.8718,N,459.5987,W,10.00,322.60,241215,,*36
$GPRMC,095948,A,4815.8882,N,459.6174,W,10.00,322.60,241215,,*3D
$GPRMC,095948,A,4815.9046,N,459.6362,W,10.00,322.60,241215,,*39
$GPRMC,095948,A,4815.9210,N,459.6550,W,10.00,322.60,241215,,*3F
$GPRMC,095948,A,4815.9374,N,459.6738,W,10.00,322.60,241215,,*30
$GPRMC,095948,A,4815.9538,N,459.6926,W,10.00,322.60,241215,,*3F
$GPRMC,095948,A,4815.9702,N,459.7114,W,10.00,322.60,241215,,*3C
$GPRMC,095948,A,4815.9866,N,459.7302,W,10.00,322.60,241215,,*34
$GPRMC,095948,A,4816.0030,N,459.7489,W,10.00,322.60,241215,,*31
$GPRMC,095948,A,4816.0194,N,459.7677,W,10.00,322.60,241215,,*3D
$GPRMC,095948,A,4816.0358,N,459.7865,W,10.00,322.60,241215,,*32
$GPRMC,095948,A,4816.0522,N,459.8053,W,10.00,322.60,241215,,*3B
$GPRMC,095948,A,4816.0686,N,459.8241,W,10.00,322.60,241215,,*37
$GPRMC,095948,A,4816.0850,N,459.8429,W,10.00,322.60,241215,,*3A
$GPRMC,095948,A,4816.1014,N,459.8617,W,10.00,322.60,241215,,*3C
$GPRMC,095948,A,4816.1179,N,459.8805,W,10.00,322.60,241215,,*3B
$GPRMC,095948,A,4816.1343,N,459.8993,W,10.00,322.60,241215,,*3E
$GPRMC,095948,A,4816.1507,N,459.9180,W,10.00,322.60,241215,,*33
$GPRMC,095948,A,4816.1671,N,459.9368,W,10.00,322.60,241215,,*35
$GPRMC,095948,A,4816.1835,N,459.9556,W,10.00,322.60,241215,,*30
$GPRMC,095948,A,4816.1999,N,459.9744,W,10.00,322.60,241215,,*36
$GPRMC,095948,A,4816.2163,N,459.9932,W,10.00,322.60,241215,,*37
$GPRMC,095948,A,4816.2327,N,50.0120,W,10.00,322.60,241215,,*0A
$GPRMC,095948,A,4816.2491,N,50.0308,W,10.00,322.60,241215,,*08
$GPRMC,095948,A,4816.2655,N,50.0496,W,10.00,322.60,241215,,*02
$GPRMC,095948,A,4816.2819,N,50.0684,W,10.00,322.60,241215,,*05
$GPRMC,095948,A,4816.2983,N,50.0872,W,10.00,322.60,241215,,*00
$GPRMC,095948,A,4816.3147,N,50.1059,W,10.00,322.60,241215,,*01
$GPRMC,095948,A,4816.3311,N,50.1247,W,10.00,322.60,241215,,*0D
$GPRMC,095948,A,4816.3475,N,50.1435,W,10.00,322.60,241215,,*0B
$GPRMC,095948,A,4816.3639,N,50.1623,W,10.00,322.60,241215,,*04
$GPRMC,095948,A,4816.3803,N,50.1811,W,10.00,322.60,241215,,*0C
$GPRMC,095948,A,4816.3967,N,50.1999,W,10.00,322.60,241215,,*0E
$GPRMC,095948,A,4816.4131,N,50.2187,W,10.00,322.60,241215,,*06
$GPRMC,095948,A,4816.4295,N,50.2375,W,10.00,322.60,241215,,*04
$GPRMC,095948,A,4816.4459,N,50.2563,W,10.00,322.60,241215,,*03
