$GPRMC,103153,A,4821.7674,N,429.2251,W,10.00,189.13,161016,,*3E
$GPRMC,103153,A,4821.7609,N,429.2267,W,10.00,189.13,161016,,*31
$GPRMC,103153,A,4821.7544,N,429.2282,W,10.00,189.13,161016,,*30
$GPRMC,103153,A,4821.7479,N,429.2298,W,10.00,189.13,161016,,*34
$GPRMC,103153,A,4821.7414,N,429.2314,W,10.00,189.13,161016,,*3A
$GPRMC,103153,A,4821.7350,N,429.2329,W,10.00,189.13,161016,,*33
$GPRMC,103153,A,4821.7285,N,429.2345,W,10.00,189.13,161016,,*30
$GPRMC,103153,A,4821.7220,N,429.2361,W,10.00,189.13,161016,,*39
$GPRMC,103153,A,4821.7155,N,429.2376,W,10.00,189.13,161016,,*3E
$GPRMC,103153,A,4821.7090,N,429.2392,W,10.00,189.13,161016,,*3C
$GPRMC,103153,A,4821.7025,N,429.2407,W,10.00,189.13,161016,,*39
$GPRMC,103153,A,4821.6960,N,429.2423,W,10.00,189.13,161016,,*36
$GPRMC,103153,A,4821.6896,N,429.2439,W,10.00,189.13,161016,,*35
$GPRMC,103153,A,4821.6831,N,429.2454,W,10.00,189.13,161016,,*33
$GPRMC,103153,A,4821.6766,N,429.2470,W,10.00,189.13,161016,,*38
$GPRMC,103153,A,4821.6701,N,429.2486,W,10.00,189.13,161016,,*30
$GPRMC,103153,A,4821.6636,N,429.2501,W,10.00,189.13,161016,,*3B
$GPRMC,103153,A,4821.6571,N,429.2517,W,10.00,189.13,161016,,*3C
$GPRMC,103153,A,4821.6506,N,429.2533,W,10.00,189.13,161016,,*3A
$GPRMC,103153,A,4821.6442,N,429.2548,W,10.00,189.13,161016,,*37
$GPRMC,103153,A,4821.6377,N,429.2564,W,10.00,189.13,161016,,*38
$GPRMC,103153,A,4821.6312,N,429.2580,W,10.00,189.13,161016,,*31
$GPRMC,103153,A,4821.6247,N,429.2595,W,10.00,189.13,161016,,*34
$GPRMC,103153,A,4821.6182,N,429.2611,W,10.00,189.13,161016,,*31
$GPRMC,103153,A,4821.6117,N,429.2626,W,10.00,189.13,161016,,*39
$GPRMC,103153,A,4821.6052,N,429.2642,W,10.00,189.13,161016,,*3B
$GPRMC,103153,A,4821.5988,N,429.2658,W,10.00,189.13,161016,,*3D
$GPRMC,103153,A,4821.5923,N,429.2673,W,10.00,189.13,161016,,*35
$GPRMC,103153,A,4821.5858,N,429.2689,W,10.00,189.13,161016,,*3D
$GPRMC,103153,A,4821.5793,N,429.2705,W,10.00,189.13,161016,,*30
$GPRMC,103153,A,4821.5728,N,429.2720,W,10.00,189.13,161016,,*37
$GPRMC,103153,A,4821.5663,N,429.2736,W,10.00,189.13,161016,,*3E
$GPRMC,103153,A,4821.5598,N,429.2752,W,10.00,189.13,161016,,*3B
$GPRMC,103153,A,4821.5534,N,429.2767,W,10.00,189.13,161016,,*3B
$GPRMC,103153,A,4821.5469,N,429.2783,W,10.00,189.13,161016,,*38
$GPRMC,103153,A,4821.5404,N,429.2798,W,10.00,189.13,161016,,*39
$GPRMC,103153,A,4821.5339,N,429.2814,W,10.00,189.13,161016,,*3B
$GPRMC,103153,A,4821.5274,N,429.2830,W,10.00,189.13,161016,,*35
$GPRMC,103153,A,4821.5209,N,429.2845,W,10.00,189.13,161016,,*3D
$GPRMC,103153,A,4821.5144,N,429.2861,W,10.00,189.13,161016,,*31
$GPRMC,103153,A,4821.5080,N,429.2877,W,10.00,189.13,161016,,*3F
$GPRMC,103153,A,4821.5015,N,429.2892,W,10.00,189.13,161016,,*38
$GPRMC,103153,A,4821.4950,N,429.2908,W,10.00,189.13,161016,,*33
$GPRMC,103153,A,4821.4885,N,429.2924,W,10.00,189.13,161016,,*34
$GPRMC,103153,A,4821.4820,N,429.2939,W,10.00,189.13,161016,,*37
$GPRMC,103153,A,4821.4755,N,429.2955,W,10.00,189.13,161016,,*30
$GPRMC,103153,A,4821.4690,N,429.2970,W,10.00,189.13,161016,,*3F
$GPRMC,103153,A,4821.4626,N,429.2986,W,10.00,189.13,161016,,*3B
$GPRMC,103153,A,4821.4561,N,429.3002,W,10.00,189.13,161016,,*3F
$GPRMC,103153,A,4821.4496,N,429.3017,W,10.00,189.13,161016,,*32
$GPRMC,103153,A,4821.4431,N,429.3033,W,10.00,189.13,161016,,*39
$GPRMC,103153,A,4821.4366,N,429.3049,W,10.00,189.13,161016,,*31
$GPRMC,103153,A,4821.4301,N,429.3064,W,10.00,189.13,161016,,*3F
$GPRMC,103153,A,4821.4236,N,429.3080,W,10.00,189.13,161016,,*30
$GPRMC,103153,A,4821.4172,N,429.3096,W,10.00,189.13,161016,,*34
$GPRMC,103153,A,4821.4107,N,429.3111,W,10.00,189.13,161016,,*38
$GPRMC,103153,A,4821.4042,N,429.3127,W,10.00,189.13,161016,,*3D
$GPRMC,103153,A,4821.3977,N,429.3142,W,10.00,189.13,161016,,*36
$GPRMC,103153,A,4821.3912,N,429.3158,W,10.00,189.13,161016,,*3E
$GPRMC,103153,A,4821.3847,N,429.3174,W,10.00,189.13,161016,,*31
$GPRMC,103153,A,4821.3782,N,429.3189,W,10.00,189.13,161016,,*35
$GPRMC,103153,A,4821.3718,N,429.3205,W,10.00,189.13,161016,,*31
$GPRMC,103153,A,4821.3653,N,429.3221,W,10.00,189.13,161016,,*39
$GPRMC,103153,A,4821.3588,N,429.3236,W,10.00,189.13,161016,,*3A
$GPRMC,103153,A,4821.3523,N,429.3252,W,10.00,189.13,161016,,*39
$GPRMC,103153,A,4821.3458,N,429.3268,W,10.00,189.13,161016,,*3D
$GPRMC,103153,A,4821.3393,N,429.3283,W,10.00,189.13,161016,,*38
$GPRMC,103153,A,4821.3328,N,429.3299,W,10.00,189.13,161016,,*33
$GPRMC,103153,A,4821.3264,N,429.3314,W,10.00,189.13,161016,,*3E
$GPRMC,103153,A,4821.3199,N,429.3330,W,10.00,189.13,161016,,*39
$GPRMC,103153,A,4821.3134,N,429.3346,W,10.00,189.13,161016,,*3F
$GPRMC,103153,A,4821.3069,N,429.3361,W,10.00,189.13,161016,,*33
$GPRMC,103153,A,4821.3004,N,429.3377,W,10.00,189.13,161016,,*3F
$GPRMC,103153,A,4821.2939,N,429.3393,W,10.00,189.13,161016,,*33
$GPRMC,103153,A,4821.2874,N,429.3408,W,10.00,189.13,161016,,*3E
$GPRMC,103153,A,4821.2810,N,429.3424,W,10.00,189.13,161016,,*32
$GPRMC,103153,A,4821.2745,N,429.3440,W,10.00,189.13,161016,,*3F
$GPRMC,103153,A,4821.2680,N,429.3455,W,10.00,189.13,161016,,*33
$GPRMC,103153,A,4821.2615,N,429.3471,W,10.00,189.13,161016,,*39
$GPRMC,103153,A,4821.2550,N,429.3486,W,10.00,189.13,161016,,*33
$GPRMC,103153,A,4821.2485,N,429.3502,W,10.00,189.13,161016,,*37
$GPRMC,103153,A,4821.2420,N,429.3518,W,10.00,189.13,161016,,*33
$GPRMC,103153,A,4821.2356,N,429.3533,W,10.00,189.13,161016,,*3C
$GPRMC,103153,A,4821.2291,N,429.3549,W,10.00,189.13,161016,,*3B
$GPRMC,103153,A,4821.2226,N,429.3565,W,10.00,189.13,161016,,*39
$GPRMC,103153,A,4821.2161,N,429.3580,W,10.00,189.13,161016,,*32
$GPRMC,103153,A,4821.2096,N,429.3596,W,10.00,189.13,161016,,*3C
$GPRMC,103153,A,4821.2031,N,429.3612,W,10.00,189.13,161016,,*3E
$GPRMC,103153,A,4821.1966,N,429.3627,W,10.00,189.13,161016,,*30
$GPRMC,103153,A,4821.1902,N,429.3643,W,10.00,189.13,161016,,*30
$GPRMC,103153,A,4821.1837,N,429.3658,W,10.00,189.13,161016,,*3D
$GPRMC,103153,A,4821.1772,N,429.3674,W,10.00,189.13,161016,,*3D
$GPRMC,103153,A,4821.1707,N,429.3690,W,10.00,189.13,161016,,*35
$GPRMC,103153,A,4821.1642,N,429.3705,W,10.00,189.13,161016,,*38
$GPRMC,103153,A,4821.1577,N,429.3721,W,10.00,189.13,161016,,*3B
$GPRMC,103153,A,4821.1512,N,429.3737,W,10.00,189.13,161016,,*3F
$GPRMC,103153,A,4821.1448,N,429.3752,W,10.00,189.13,161016,,*32
$GPRMC,103153,A,4821.1383,N,429.3768,W,10.00,189.13,161016,,*3B
$GPRMC,103153,A,4821.1318,N,429.3784,W,10.00,189.13,161016,,*3B
$GPRMC,103153,A,4821.1253,N,429.3799,W,10.00,189.13,161016,,*39
$GPRMC,103153,A,4821.1188,N,429.3815,W,10.00,189.13,161016,,*37
$GPRMC,103153,A,4821.1123,N,429.3830,W,10.00,189.13,161016,,*31
$GPRMC,103153,A,4821.1058,N,429.3846,W,10.00,189.13,161016,,*3D
$GPRMC,103153,A,4821.0994,N,429.3862,W,10.00,189.13,161016,,*33
$GPRMC,103153,A,4821.0929,N,429.3877,W,10.00,189.13,161016,,*31
$GPRMC,103153,A,4821.0864,N,429.3893,W,10.00,189.13,161016,,*33
$GPRMC,103153,A,4821.0799,N,429.3909,W,10.00,189.13,161016,,*3C
$GPRMC,103153,A,4821.0734,N,429.3924,W,10.00,189.13,161016,,*34
$GPRMC,103153,A,4821.0669,N,429.3940,W,10.00,189.13,161016,,*3F
$GPRMC,103153,A,4821.0604,N,429.3955,W,10.00,189.13,161016,,*30
$GPRMC,103153,A,4821.0540,N,429.3971,W,10.00,189.13,161016,,*35
$GPRMC,103153,A,4821.0475,N,429.3987,W,10.00,189.13,161016,,*3B
$GPRMC,103153,A,4821.0410,N,429.4002,W,10.00,189.13,161016,,*3B
$GPRMC,103153,A,4821.0345,N,429.4018,W,10.00,189.13,161016,,*37
$GPRMC,103153,A,4821.0280,N,429.4034,W,10.00,189.13,161016,,*31
$GPRMC,103153,A,4821.0215,N,429.4049,W,10.00,189.13,161016,,*37
$GPRMC,103153,A,4821.0150,N,429.4065,W,10.00,189.13,161016,,*3B
$GPRMC,103153,A,4821.0086,N,429.4081,W,10.00,189.13,161016,,*3B
$GPRMC,103153,A,4821.0021,N,429.4096,W,10.00,189.13,161016,,*30
$GPRMC,103153,A,4820.9956,N,429.4112,W,10.00,189.13,161016,,*3C
$GPRMC,103153,A,4820.9891,N,429.4127,W,10.00,189.13,161016,,*30
$GPRMC,103153,A,4820.9826,N,429.4143,W,10.00,189.13,161016,,*3E
$GPRMC,103153,A,4820.9761,N,429.4159,W,10.00,189.13,161016,,*39
$GPRMC,103153,A,4820.9696,N,429.4174,W,10.00,189.13,161016,,*3F
$GPRMC,103153,A,4820.9632,N,429.4190,W,10.00,189.13,161016,,*3B
$GPRMC,103153,A,4820.9567,N,429.4206,W,10.00,189.13,161016,,*34
$GPRMC,103153,A,4820.9502,N,429.4221,W,10.00,189.13,161016,,*32
$GPRMC,103153,A,4820.9437,N,429.4237,W,10.00,189.13,161016,,*32
$GPRMC,103153,A,4820.9372,N,429.4252,W,10.00,189.13,161016,,*37
$GPRMC,103153,A,4820.9307,N,429.4268,W,10.00,189.13,161016,,*3C
$GPRMC,103153,A,4820.9242,N,429.4284,W,10.00,189.13,161016,,*3E
$GPRMC,103153,A,4820.9178,N,429.4299,W,10.00,189.13,161016,,*38
$GPRMC,103153,A,4820.9113,N,429.4315,W,10.00,189.13,161016,,*30
$GPRMC,103153,A,4820.9048,N,429.4331,W,10.00,189.13,161016,,*39
$GPRMC,103153,A,4820.8983,N,429.4346,W,10.00,189.13,161016,,*36
$GPRMC,103153,A,4820.8918,N,429.4362,W,10.00,189.13,161016,,*32
$GPRMC,103153,A,4820.8853,N,429.4378,W,10.00,189.13,161016,,*37
$GPRMC,103153,A,4820.8788,N,429.4393,W,10.00,189.13,161016,,*3B
$GPRMC,103153,A,4820.8724,N,429.4409,W,10.00,189.13,161016,,*39
$GPRMC,103153,A,4820.8659,N,429.4424,W,10.00,189.13,161016,,*3D
$GPRMC,103153,A,4820.8594,N,429.4440,W,10.00,189.13,161016,,*3D
$GPRMC,103153,A,4820.8529,N,429.4456,W,10.00,189.13,161016,,*3C
$GPRMC,103153,A,4820.8464,N,429.4471,W,10.00,189.13,161016,,*31
$GPRMC,103153,A,4820.8399,N,429.4487,W,10.00,189.13,161016,,*3D
$GPRMC,103153,A,4820.8334,N,429.4503,W,10.00,189.13,161016,,*37
$GPRMC,103153,A,4820.8270,N,429.4518,W,10.00,189.13,161016,,*3C
$GPRMC,103153,A,4820.8205,N,429.4534,W,10.00,189.13,161016,,*30
$GPRMC,103153,A,4820.8140,N,429.4549,W,10.00,189.13,161016,,*38
$GPRMC,103153,A,4820.8075,N,429.4565,W,10.00,189.13,161016,,*31
$GPRMC,103153,A,4820.8010,N,429.4581,W,10.00,189.13,161016,,*38
$GPRMC,103153,A,4820.7945,N,429.4596,W,10.00,189.13,161016,,*38
$GPRMC,103153,A,4820.7880,N,429.4612,W,10.00,189.13,161016,,*3F
$GPRMC,103153,A,4820.7816,N,429.4628,W,10.00,189.13,161016,,*39
$GPRMC,103153,A,4820.7751,N,429.4643,W,10.00,189.13,161016,,*38
$GPRMC,103153,A,4820.7686,N,429.4659,W,10.00,189.13,161016,,*38
$GPRMC,103153,A,4820.7621,N,429.4675,W,10.00,189.13,161016,,*3B
$GPRMC,103153,A,4820.7556,N,429.4690,W,10.00,189.13,161016,,*33
$GPRMC,103153,A,4820.7491,N,429.4706,W,10.00,189.13,161016,,*37
$GPRMC,103153,A,4820.7426,N,429.4721,W,10.00,189.13,161016,,*3E
$GPRMC,103153,A,4820.7362,N,429.4737,W,10.00,189.13,161016,,*3E
$GPRMC,103153,A,4820.7297,N,429.4753,W,10.00,189.13,161016,,*37
$GPRMC,103153,A,4820.7232,N,429.4768,W,10.00,189.13,161016,,*30
$GPRMC,103153,A,4820.7167,N,429.4784,W,10.00,189.13,161016,,*31
$GPRMC,103153,A,4820.7102,N,429.4800,W,10.00,189.13,161016,,*31
$GPRMC,103153,A,4820.7037,N,429.4815,W,10.00,189.13,161016,,*32
$GPRMC,103153,A,4820.6972,N,429.4831,W,10.00,189.13,161016,,*3D
$GPRMC,103153,A,4820.6908,N,429.4846,W,10.00,189.13,161016,,*30
$GPRMC,103153,A,4820.6843,N,429.4862,W,10.00,189.13,161016,,*38
$GPRMC,103153,A,4820.6778,N,429.4878,W,10.00,189.13,161016,,*34
$GPRMC,103153,A,4820.6734,N,429.4888,W,10.00,229.09,161016,,*31
$GPRMC,103153,A,4820.6662,N,429.5013,W,10.00,229.09,161016,,*38
$GPRMC,103153,A,4820.6590,N,429.5137,W,10.00,229.09,161016,,*31
$GPRMC,103153,A,4820.6518,N,429.5262,W,10.00,229.09,161016,,*32
$GPRMC,103153,A,4820.6446,N,429.5387,W,10.00,229.09,161016,,*32
$GPRMC,103153,A,4820.6374,N,429.5511,W,10.00,229.09,161016,,*3D
$GPRMC,103153,A,4820.6302,N,429.5636,W,10.00,229.09,161016,,*3A
$GPRMC,103153,A,4820.6230,N,429.5760,W,10.00,229.09,161016,,*38
$GPRMC,103153,A,4820.6158,N,429.5885,W,10.00,229.09,161016,,*31
$GPRMC,103153,A,4820.6086,N,429.6009,W,10.00,229.09,161016,,*3C
$GPRMC,103153,A,4820.6014,N,429.6134,W,10.00,229.09,161016,,*38
$GPRMC,103153,A,4820.5942,N,429.6258,W,10.00,229.09,161016,,*38
$GPRMC,103153,A,4820.5870,N,429.6383,W,10.00,229.09,161016,,*3F
$GPRMC,103153,A,4820.5799,N,429.6507,W,10.00,229.09,161016,,*3D
$GPRMC,103153,A,4820.5727,N,429.6632,W,10.00,229.09,161016,,*3D
$GPRMC,103153,A,4820.5655,N,429.6756,W,10.00,229.09,161016,,*3A
$GPRMC,103153,A,4820.5583,N,429.6881,W,10.00,229.09,161016,,*37
$GPRMC,103153,A,4820.5511,N,429.7005,W,10.00,229.09,161016,,*39
$GPRMC,103153,A,4820.5439,N,429.7130,W,10.00,229.09,161016,,*35
$GPRMC,103153,A,4820.5367,N,429.7254,W,10.00,229.09,161016,,*38
$GPRMC,103153,A,4820.5295,N,429.7379,W,10.00,229.09,161016,,*3A
$GPRMC,103153,A,4820.5223,N,429.7503,W,10.00,229.09,161016,,*3C
$GPRMC,103153,A,4820.5151,N,429.7628,W,10.00,229.09,161016,,*30
$GPRMC,103153,A,4820.5079,N,429.7753,W,10.00,229.09,161016,,*36
$GPRMC,103153,A,4820.5007,N,429.7877,W,10.00,229.09,161016,,*36
$GPRMC,103153,A,4820.4935,N,429.8002,W,10.00,229.09,161016,,*3A
$GPRMC,103153,A,4820.4863,N,429.8126,W,10.00,229.09,161016,,*3F
$GPRMC,103153,A,4820.4791,N,429.8251,W,10.00,229.09,161016,,*3E
$GPRMC,103153,A,4820.4720,N,429.8375,W,10.00,229.09,161016,,*33
$GPRMC,103153,A,4820.4648,N,429.8500,W,10.00,229.09,161016,,*38
$GPRMC,103153,A,4820.4576,N,429.8624,W,10.00,229.09,161016,,*33
$GPRMC,103153,A,4820.4504,N,429.8749,W,10.00,229.09,161016,,*3C
$GPRMC,103153,A,4820.4432,N,429.8873,W,10.00,229.09,161016,,*3E
$GPRMC,103153,A,4820.4360,N,429.8998,W,10.00,229.09,161016,,*3A
$GPRMC,103153,A,4820.4288,N,429.9122,W,10.00,229.09,161016,,*35
$GPRMC,103153,A,4820.4216,N,429.9247,W,10.00,229.09,161016,,*32
$GPRMC,103153,A,4820.4144,N,429.9371,W,10.00,229.09,161016,,*32
$GPRMC,103153,A,4820.4072,N,429.9496,W,10.00,229.09,161016,,*38
$GPRMC,103153,A,4820.4000,N,429.9620,W,10.00,229.09,161016,,*32
$GPRMC,103153,A,4820.3928,N,429.9745,W,10.00,229.09,161016,,*34
$GPRMC,103153,A,4820.3856,N,429.9869,W,10.00,229.09,161016,,*3D
$GPRMC,103153,A,4820.3784,N,429.9994,W,10.00,229.09,161016,,*3E
$GPRMC,103153,A,4820.3712,N,430.0118,W,10.00,229.09,161016,,*3C
$GPRMC,103153,A,4820.3641,N,430.0243,W,10.00,229.09,161016,,*36
$GPRMC,103153,A,4820.3569,N,430.0367,W,10.00,229.09,161016,,*38
$GPRMC,103153,A,4820.3497,N,430.0492,W,10.00,229.09,161016,,*35
$GPRMC,103153,A,4820.3425,N,430.0616,W,10.00,229.09,161016,,*32
$GPRMC,103153,A,4820.3353,N,430.0741,W,10.00,229.09,161016,,*37
$GPRMC,103153,A,4820.3281,N,430.0865,W,10.00,229.09,161016,,*30
$GPRMC,103153,A,4820.3209,N,430.0990,W,10.00,229.09,161016,,*3B
$GPRMC,103153,A,4820.3137,N,430.1114,W,10.00,229.09,161016,,*30
$GPRMC,103153,A,4820.3065,N,430.1239,W,10.00,229.09,161016,,*3A
$GPRMC,103153,A,4820.2993,N,430.1363,W,10.00,229.09,161016,,*35
$GPRMC,103153,A,4820.2921,N,430.1488,W,10.00,229.09,161016,,*3E
$GPRMC,103153,A,4820.2849,N,430.1612,W,10.00,229.09,161016,,*30
$GPRMC,103153,A,4820.2777,N,430.1737,W,10.00,229.09,161016,,*34
$GPRMC,103153,A,4820.2705,N,430.1861,W,10.00,229.09,161016,,*3D
$GPRMC,103153,A,4820.2633,N,430.1986,W,10.00,229.09,161016,,*31
$GPRMC,103153,A,4820.2561,N,430.2110,W,10.00,229.09,161016,,*31
$GPRMC,103153,A,4820.2489,N,430.2235,W,10.00,229.09,161016,,*32
$GPRMC,103153,A,4820.2418,N,430.2359,W,10.00,229.09,161016,,*31
$GPRMC,103153,A,4820.2394,N,430.2400,W,10.00,324.08,161016,,*34
$GPRMC,103153,A,4820.2455,N,430.2466,W,10.00,324.08,161016,,*3E
$GPRMC,103153,A,4820.2516,N,430.2532,W,10.00,324.08,161016,,*38
$GPRMC,103153,A,4820.2577,N,430.2598,W,10.00,324.08,161016,,*3F
$GPRMC,103153,A,4820.2637,N,430.2664,W,10.00,324.08,161016,,*38
$GPRMC,103153,A,4820.2698,N,430.2731,W,10.00,324.08,161016,,*3C
$GPRMC,103153,A,4820.2759,N,430.2797,W,10.00,324.08,161016,,*3C
$GPRMC,103153,A,4820.2820,N,430.2863,W,10.00,324.08,161016,,*39
$GPRMC,103153,A,4820.2881,N,430.2929,W,10.00,324.08,161016,,*3D
$GPRMC,103153,A,4820.2941,N,430.2995,W,10.00,324.08,161016,,*37
$GPRMC,103153,A,4820.3002,N,430.3061,W,10.00,324.08,161016,,*3B
$GPRMC,103153,A,4820.3063,N,430.3127,W,10.00,324.08,161016,,*3F
$GPRMC,103153,A,4820.3124,N,430.3193,W,10.00,324.08,161016,,*32
$GPRMC,103153,A,4820.3185,N,430.3259,W,10.00,324.08,161016,,*3C
$GPRMC,103153,A,4820.3246,N,430.3325,W,10.00,324.08,161016,,*3A
$GPRMC,103153,A,4820.3306,N,430.3392,W,10.00,324.08,161016,,*33
$GPRMC,103153,A,4820.3367,N,430.3458,W,10.00,324.08,161016,,*35
$GPRMC,103153,A,4820.3428,N,430.3524,W,10.00,324.08,161016,,*33
$GPRMC,103153,A,4820.3489,N,430.3590,W,10.00,324.08,161016,,*37
$GPRMC,103153,A,4820.3550,N,430.3656,W,10.00,324.08,161016,,*3B
$GPRMC,103153,A,4820.3611,N,430.3722,W,10.00,324.08,161016,,*3F
$GPRMC,103153,A,4820.3671,N,430.3788,W,10.00,324.08,161016,,*39
$GPRMC,103153,A,4820.3732,N,430.3854,W,10.00,324.08,161016,,*31
$GPRMC,103153,A,4820.3793,N,430.3920,W,10.00,324.08,161016,,*38
$GPRMC,103153,A,4820.3854,N,430.3986,W,10.00,324.08,161016,,*30
$GPRMC,103153,A,4820.3915,N,430.4053,W,10.00,324.08,161016,,*32
$GPRMC,103153,A,4820.3975,N,430.4119,W,10.00,324.08,161016,,*3B
$GPRMC,103153,A,4820.4036,N,430.4185,W,10.00,324.08,161016,,*37
$GPRMC,103153,A,4820.4097,N,430.4251,W,10.00,324.08,161016,,*36
$GPRMC,103153,A,4820.4158,N,430.4317,W,10.00,324.08,161016,,*37
$GPRMC,103153,A,4820.4219,N,430.4383,W,10.00,324.08,161016,,*3C
$GPRMC,103153,A,4820.4280,N,430.4449,W,10.00,324.08,161016,,*3D
$GPRMC,103153,A,4820.4340,N,430.4515,W,10.00,324.08,161016,,*38
$GPRMC,103153,A,4820.4401,N,430.4581,W,10.00,324.08,161016,,*37
$GPRMC,103153,A,4820.4462,N,430.4647,W,10.00,324.08,161016,,*3B
$GPRMC,103153,A,4820.4523,N,430.4714,W,10.00,324.08,161016,,*38
$GPRMC,103153,A,4820.4584,N,430.4780,W,10.00,324.08,161016,,*38
$GPRMC,103153,A,4820.4645,N,430.4846,W,10.00,324.08,161016,,*33
$GPRMC,103153,A,4820.4705,N,430.4912,W,10.00,324.08,161016,,*36
$GPRMC,103153,A,4820.4766,N,430.4978,W,10.00,324.08,161016,,*3F
$GPRMC,103153,A,4820.4827,N,430.5044,W,10.00,324.08,161016,,*32
$GPRMC,103153,A,4820.4888,N,430.5110,W,10.00,324.08,161016,,*37
$GPRMC,103153,A,4820.4949,N,430.5176,W,10.00,324.08,161016,,*3B
$GPRMC,103153,A,4820.5009,N,430.5242,W,10.00,324.08,161016,,*33
$GPRMC,103153,A,4820.5070,N,430.5308,W,10.00,324.08,161016,,*32
$GPRMC,103153,A,4820.5131,N,430.5375,W,10.00,324.08,161016,,*3C
$GPRMC,103153,A,4820.5192,N,430.5441,W,10.00,324.08,161016,,*35
$GPRMC,103153,A,4820.5253,N,430.5507,W,10.00,324.08,161016,,*38
$GPRMC,103153,A,4820.5314,N,430.5573,W,10.00,324.08,161016,,*39
$GPRMC,103153,A,4820.5374,N,430.5639,W,10.00,324.08,161016,,*32
$GPRMC,103153,A,4820.5435,N,430.5705,W,10.00,324.08,161016,,*3E
$GPRMC,103153,A,4820.5496,N,430.5771,W,10.00,324.08,161016,,*34
$GPRMC,103153,A,4820.5557,N,430.5837,W,10.00,324.08,161016,,*35
$GPRMC,103153,A,4820.5618,N,430.5903,W,10.00,324.08,161016,,*3B
$GPRMC,103153,A,4820.5679,N,430.5970,W,10.00,324.08,161016,,*38
$GPRMC,103153,A,4820.5739,N,430.6036,W,10.00,324.08,161016,,*35
$GPRMC,103153,A,4820.5800,N,430.6102,W,10.00,324.08,161016,,*36
$GPRMC,103153,A,4820.5861,N,430.6168,W,10.00,324.08,161016,,*3D
$GPRMC,103153,A,4820.5922,N,430.6234,W,10.00,324.08,161016,,*31
$GPRMC,103153,A,4820.5983,N,430.6300,W,10.00,324.08,161016,,*3C
$GPRMC,103153,A,4820.6043,N,430.6366,W,10.00,324.08,161016,,*3A
$GPRMC,103153,A,4820.6104,N,430.6432,W,10.00,324.08,161016,,*3E
$GPRMC,103153,A,4820.6165,N,430.6498,W,10.00,324.08,161016,,*39
$GPRMC,103153,A,4820.6226,N,430.6565,W,10.00,324.08,161016,,*3E
$GPRMC,103153,A,4820.6287,N,430.6631,W,10.00,324.08,161016,,*37
$GPRMC,103153,A,4820.6348,N,430.6697,W,10.00,324.08,161016,,*39
$GPRMC,103153,A,4820.6408,N,430.6763,W,10.00,324.08,161016,,*30
$GPRMC,103153,A,4820.6469,N,430.6829,W,10.00,324.08,161016,,*36
$GPRMC,103153,A,4820.6530,N,430.6895,W,10.00,324.08,161016,,*3C
$GPRMC,103153,A,4820.6591,N,430.6961,W,10.00,324.08,161016,,*3D
$GPRMC,103153,A,4820.6652,N,430.7027,W,10.00,324.08,161016,,*3B
$GPRMC,103153,A,4820.6712,N,430.7093,W,10.00,324.08,161016,,*31
$GPRMC,103153,A,4820.6773,N,430.7160,W,10.00,324.08,161016,,*3B
$GPRMC,103153,A,4820.6834,N,430.7226,W,10.00,324.08,161016,,*36
$GPRMC,103153,A,4820.6895,N,430.7292,W,10.00,324.08,161016,,*32
$GPRMC,103153,A,4820.6956,N,430.7358,W,10.00,324.08,161016,,*3B
$GPRMC,103153,A,4820.7017,N,430.7424,W,10.00,324.08,161016,,*3A
$GPRMC,103153,A,4820.7077,N,430.7490,W,10.00,324.08,161016,,*33
$GPRMC,103153,A,4820.7138,N,430.7556,W,10.00,324.08,161016,,*32
$GPRMC,103153,A,4820.7199,N,430.7622,W,10.00,324.08,161016,,*39
$GPRMC,103153,A,4820.7260,N,430.7688,W,10.00,324.08,161016,,*3C
$GPRMC,103153,A,4820.7321,N,430.7755,W,10.00,324.08,161016,,*39
$GPRMC,103153,A,4820.7382,N,430.7821,W,10.00,324.08,161016,,*3C
$GPRMC,103153,A,4820.7442,N,430.7887,W,10.00,324.08,161016,,*3B
$GPRMC,103153,A,4820.7503,N,430.7953,W,10.00,324.08,161016,,*37
$GPRMC,103153,A,4820.7564,N,430.8019,W,10.00,324.08,161016,,*3E
$GPRMC,103153,A,4820.7625,N,430.8085,W,10.00,324.08,161016,,*3D
$GPRMC,103153,A,4820.7686,N,430.8151,W,10.00,324.08,161016,,*3C
$GPRMC,103153,A,4820.7746,N,430.8217,W,10.00,324.08,161016,,*30
$GPRMC,103153,A,4820.7807,N,430.8283,W,10.00,324.08,161016,,*37
$GPRMC,103153,A,4820.7868,N,430.8350,W,10.00,324.08,161016,,*31
$GPRMC,103153,A,4820.7929,N,430.8416,W,10.00,324.08,161016,,*30
$GPRMC,103153,A,4820.7990,N,430.8482,W,10.00,324.08,161016,,*3F
$GPRMC,103153,A,4820.8051,N,430.8548,W,10.00,324.08,161016,,*33
$GPRMC,103153,A,4820.8111,N,430.8614,W,10.00,324.08,161016,,*3C
$GPRMC,103153,A,4820.8172,N,430.8680,W,10.00,324.08,161016,,*34
$GPRMC,103153,A,4820.8233,N,430.8746,W,10.00,324.08,161016,,*39
$GPRMC,103153,A,4820.8294,N,430.8812,W,10.00,324.08,161016,,*3A
$GPRMC,103153,A,4820.8355,N,430.8879,W,10.00,324.08,161016,,*3B
$GPRMC,103153,A,4820.8415,N,430.8945,W,10.00,324.08,161016,,*36
$GPRMC,103153,A,4820.8476,N,430.9011,W,10.00,324.08,161016,,*3A
$GPRMC,103153,A,4820.8537,N,430.9077,W,10.00,324.08,161016,,*3E
$GPRMC,103153,A,4820.8598,N,430.9143,W,10.00,324.08,161016,,*3D
$GPRMC,103153,A,4820.8659,N,430.9209,W,10.00,324.08,161016,,*3E
$GPRMC,103153,A,4820.8720,N,430.9275,W,10.00,324.08,161016,,*3A
$GPRMC,103153,A,4820.8780,N,430.9341,W,10.00,324.08,161016,,*36
$GPRMC,103153,A,4820.8841,N,430.9407,W,10.00,324.08,161016,,*31
$GPRMC,103153,A,4820.8902,N,430.9474,W,10.00,324.08,161016,,*33
$GPRMC,103153,A,4820.8963,N,430.9540,W,10.00,324.08,161016,,*32
$GPRMC,103153,A,4820.9024,N,430.9606,W,10.00,324.08,161016,,*38
$GPRMC,103153,A,4820.9084,N,430.9672,W,10.00,324.08,161016,,*31
$GPRMC,103153,A,4820.9145,N,430.9738,W,10.00,324.08,161016,,*32
$GPRMC,103153,A,4820.9206,N,430.9804,W,10.00,324.08,161016,,*36
$GPRMC,103153,A,4820.9267,N,430.9870,W,10.00,324.08,161016,,*32
$GPRMC,103153,A,4820.9328,N,430.9936,W,10.00,324.08,161016,,*3B
$GPRMC,103153,A,4820.9389,N,431.0003,W,10.00,324.08,161016,,*37
$GPRMC,103153,A,4820.9449,N,431.0069,W,10.00,324.08,161016,,*30
$GPRMC,103153,A,4820.9510,N,431.0135,W,10.00,324.08,161016,,*35
$GPRMC,103153,A,4820.9571,N,431.0201,W,10.00,324.08,161016,,*36
$GPRMC,103153,A,4820.9632,N,431.0267,W,10.00,324.08,161016,,*32
$GPRMC,103153,A,4820.9693,N,431.0333,W,10.00,324.08,161016,,*39
$GPRMC,103153,A,4820.9753,N,431.0399,W,10.00,324.08,161016,,*34
$GPRMC,103153,A,4820.9814,N,431.0465,W,10.00,324.08,161016,,*3C
$GPRMC,103153,A,4820.9875,N,431.0532,W,10.00,324.08,161016,,*38
$GPRMC,103153,A,4820.9936,N,431.0598,W,10.00,324.08,161016,,*3E
$GPRMC,103153,A,4820.9997,N,431.0664,W,10.00,324.08,161016,,*35
$GPRMC,103153,A,4821.0058,N,431.0730,W,10.00,324.08,161016,,*37
$GPRMC,103153,A,4821.0118,N,431.0796,W,10.00,324.08,161016,,*3E
$GPRMC,103153,A,4821.0179,N,431.0862,W,10.00,324.08,161016,,*3D
$GPRMC,103153,A,4821.0240,N,431.0928,W,10.00,324.08,161016,,*3B
$GPRMC,103153,A,4821.0241,N,431.0930,W,10.00,263.32,161016,,*38
$GPRMC,103153,A,4821.0232,N,431.1051,W,10.00,263.32,161016,,*33
$GPRMC,103153,A,4821.0222,N,431.1172,W,10.00,263.32,161016,,*32
$GPRMC,103153,A,4821.0213,N,431.1293,W,10.00,263.32,161016,,*3C
$GPRMC,103153,A,4821.0204,N,431.1413,W,10.00,263.32,161016,,*34
$GPRMC,103153,A,4821.0194,N,431.1534,W,10.00,263.32,161016,,*3A
$GPRMC,103153,A,4821.0185,N,431.1655,W,10.00,263.32,161016,,*3E
$GPRMC,103153,A,4821.0175,N,431.1776,W,10.00,263.32,161016,,*31
$GPRMC,103153,A,4821.0166,N,431.1897,W,10.00,263.32,161016,,*33
$GPRMC,103153,A,4821.0156,N,431.2018,W,10.00,263.32,161016,,*3C
$GPRMC,103153,A,4821.0147,N,431.2139,W,10.00,263.32,161016,,*3E
$GPRMC,103153,A,4821.0137,N,431.2260,W,10.00,263.32,161016,,*36
$GPRMC,103153,A,4821.0128,N,431.2381,W,10.00,263.32,161016,,*36
$GPRMC,103153,A,4821.0119,N,431.2502,W,10.00,263.32,161016,,*39
$GPRMC,103153,A,4821.0109,N,431.2623,W,10.00,263.32,161016,,*38
$GPRMC,103153,A,4821.0100,N,431.2744,W,10.00,263.32,161016,,*31
$GPRMC,103153,A,4821.0090,N,431.2865,W,10.00,263.32,161016,,*35
$GPRMC,103153,A,4821.0081,N,431.2986,W,10.00,263.32,161016,,*39
$GPRMC,103153,A,4821.0071,N,431.3107,W,10.00,263.32,161016,,*36
$GPRMC,103153,A,4821.0062,N,431.3228,W,10.00,263.32,161016,,*3A
$GPRMC,103153,A,4821.0052,N,431.3348,W,10.00,263.32,161016,,*3E
$GPRMC,103153,A,4821.0043,N,431.3469,W,10.00,263.32,161016,,*3A
$GPRMC,103153,A,4821.0034,N,431.3590,W,10.00,263.32,161016,,*3D
$GPRMC,103153,A,4821.0024,N,431.3711,W,10.00,263.32,161016,,*37
$GPRMC,103153,A,4821.0015,N,431.3832,W,10.00,263.32,161016,,*3B
$GPRMC,103153,A,4821.0005,N,431.3953,W,10.00,263.32,161016,,*3C
$GPRMC,103153,A,4820.9996,N,431.4074,W,10.00,263.32,161016,,*3C
$GPRMC,103153,A,4820.9986,N,431.4195,W,10.00,263.32,161016,,*33
$GPRMC,103153,A,4820.9977,N,431.4316,W,10.00,263.32,161016,,*34
$GPRMC,103153,A,4820.9968,N,431.4437,W,10.00,263.32,161016,,*3E
$GPRMC,103153,A,4820.9958,N,431.4558,W,10.00,263.32,161016,,*35
$GPRMC,103153,A,4820.9949,N,431.4679,W,10.00,263.32,161016,,*35
$GPRMC,103153,A,4820.9939,N,431.4800,W,10.00,263.32,161016,,*32
$GPRMC,103153,A,4820.9930,N,431.4921,W,10.00,263.32,161016,,*39
$GPRMC,103153,A,4820.9920,N,431.5042,W,10.00,263.32,161016,,*35
$GPRMC,103153,A,4820.9911,N,431.5163,W,10.00,263.32,161016,,*35
$GPRMC,103153,A,4820.9901,N,431.5283,W,10.00,263.32,161016,,*39
$GPRMC,103153,A,4820.9892,N,431.5404,W,10.00,263.32,161016,,*3B
$GPRMC,103153,A,4820.9883,N,431.5525,W,10.00,263.32,161016,,*39
$GPRMC,103153,A,4820.9873,N,431.5646,W,10.00,263.32,161016,,*30
$GPRMC,103153,A,4820.9864,N,431.5767,W,10.00,263.32,161016,,*34
$GPRMC,103153,A,4820.9854,N,431.5888,W,10.00,263.32,161016,,*39
$GPRMC,103153,A,4820.9845,N,431.6009,W,10.00,263.32,161016,,*3B
$GPRMC,103153,A,4820.9835,N,431.6130,W,10.00,263.32,161016,,*37
$GPRMC,103153,A,4820.9826,N,431.6251,W,10.00,263.32,161016,,*31
$GPRMC,103153,A,4820.9816,N,431.6372,W,10.00,263.32,161016,,*32
$GPRMC,103153,A,4820.9807,N,431.6493,W,10.00,263.32,161016,,*3A
$GPRMC,103153,A,4820.9798,N,431.6614,W,10.00,263.32,161016,,*3E
$GPRMC,103153,A,4820.9788,N,431.6735,W,10.00,263.32,161016,,*3D
$GPRMC,103153,A,4820.9779,N,431.6856,W,10.00,263.32,161016,,*39
$GPRMC,103153,A,4820.9769,N,431.6977,W,10.00,263.32,161016,,*3A
$GPRMC,103153,A,4820.9760,N,431.7097,W,10.00,263.32,161016,,*35
$GPRMC,103153,A,4820.9750,N,431.7218,W,10.00,263.32,161016,,*33
$GPRMC,103153,A,4820.9741,N,431.7339,W,10.00,263.32,161016,,*31
$GPRMC,103153,A,4820.9731,N,431.7460,W,10.00,263.32,161016,,*3D
$GPRMC,103153,A,4820.9722,N,431.7581,W,10.00,263.32,161016,,*31
$GPRMC,103153,A,4820.9712,N,431.7702,W,10.00,263.32,161016,,*3B
$GPRMC,103153,A,4820.9703,N,431.7823,W,10.00,263.32,161016,,*37
$GPRMC,103153,A,4820.9694,N,431.7944,W,10.00,263.32,161016,,*38
$GPRMC,103153,A,4820.9684,N,431.8065,W,10.00,263.32,161016,,*3C
$GPRMC,103153,A,4820.9675,N,431.8186,W,10.00,263.32,161016,,*3E
$GPRMC,103153,A,4820.9665,N,431.8307,W,10.00,263.32,161016,,*34
$GPRMC,103153,A,4820.9656,N,431.8428,W,10.00,263.32,161016,,*3E
$GPRMC,103153,A,4820.9646,N,431.8549,W,10.00,263.32,161016,,*39
$GPRMC,103153,A,4820.9637,N,431.8670,W,10.00,263.32,161016,,*36
$GPRMC,103153,A,4820.9627,N,431.8791,W,10.00,263.32,161016,,*39
$GPRMC,103153,A,4820.9618,N,431.8911,W,10.00,263.32,161016,,*33
$GPRMC,103153,A,4820.9609,N,431.9032,W,10.00,263.32,161016,,*3A
$GPRMC,103153,A,4820.9599,N,431.9153,W,10.00,263.32,161016,,*36
$GPRMC,103153,A,4820.9590,N,431.9274,W,10.00,263.32,161016,,*39
$GPRMC,103153,A,4820.9580,N,431.9395,W,10.00,263.32,161016,,*36
$GPRMC,103153,A,4820.9571,N,431.9516,W,10.00,263.32,161016,,*35
$GPRMC,103153,A,4820.9561,N,431.9637,W,10.00,263.32,161016,,*34
$GPRMC,103153,A,4820.9552,N,431.9758,W,10.00,263.32,161016,,*3C
$GPRMC,103153,A,4820.9542,N,431.9879,W,10.00,263.32,161016,,*31
$GPRMC,103153,A,4820.9533,N,432.0000,W,10.00,263.32,161016,,*3B
$GPRMC,103153,A,4820.9523,N,432.0121,W,10.00,263.32,161016,,*38
$GPRMC,103153,A,4820.9514,N,432.0242,W,10.00,263.32,161016,,*3A
$GPRMC,103153,A,4820.9505,N,432.0363,W,10.00,263.32,161016,,*38
$GPRMC,103153,A,4820.9495,N,432.0484,W,10.00,263.32,161016,,*3E
$GPRMC,103153,A,4820.9486,N,432.0605,W,10.00,263.32,161016,,*37
$GPRMC,103153,A,4820.9476,N,432.0725,W,10.00,263.32,161016,,*3B
$GPRMC,103153,A,4820.9467,N,432.0846,W,10.00,263.32,161016,,*31
$GPRMC,103153,A,4820.9457,N,432.0967,W,10.00,263.32,161016,,*30
$GPRMC,103153,A,4820.9448,N,432.1088,W,10.00,263.32,161016,,*37
$GPRMC,103153,A,4820.9438,N,432.1209,W,10.00,263.32,161016,,*3B
$GPRMC,103153,A,4820.9429,N,432.1330,W,10.00,263.32,161016,,*30
$GPRMC,103153,A,4820.9420,N,432.1451,W,10.00,263.32,161016,,*39
$GPRMC,103153,A,4820.9410,N,432.1572,W,10.00,263.32,161016,,*3A
$GPRMC,103153,A,4820.9401,N,432.1693,W,10.00,263.32,161016,,*36
$GPRMC,103153,A,4820.9391,N,432.1814,W,10.00,263.32,161016,,*39
$GPRMC,103153,A,4820.9382,N,432.1935,W,10.00,263.32,161016,,*39
$GPRMC,103153,A,4820.9372,N,432.2056,W,10.00,263.32,161016,,*39
$GPRMC,103153,A,4820.9363,N,432.2177,W,10.00,263.32,161016,,*3B
$GPRMC,103153,A,4820.9353,N,432.2298,W,10.00,263.32,161016,,*3A
$GPRMC,103153,A,4820.9344,N,432.2419,W,10.00,263.32,161016,,*33
$GPRMC,103153,A,4820.9334,N,432.2539,W,10.00,263.32,161016,,*37
$GPRMC,103153,A,4820.9325,N,432.2660,W,10.00,263.32,161016,,*38
$GPRMC,103153,A,4820.9315,N,432.2781,W,10.00,263.32,161016,,*35
$GPRMC,103153,A,4820.9306,N,432.2902,W,10.00,263.32,161016,,*32
$GPRMC,103153,A,4820.9297,N,432.3023,W,10.00,263.32,161016,,*30
$GPRMC,103153,A,4820.9287,N,432.3144,W,10.00,263.32,161016,,*31
$GPRMC,103153,A,4820.9278,N,432.3265,W,10.00,263.32,161016,,*31
$GPRMC,103153,A,4820.9268,N,432.3386,W,10.00,263.32,161016,,*3C
$GPRMC,103153,A,4820.9259,N,432.3507,W,10.00,263.32,161016,,*31
$GPRMC,103153,A,4820.9249,N,432.3628,W,10.00,263.32,161016,,*3E
$GPRMC,103153,A,4820.9240,N,432.3749,W,10.00,263.32,161016,,*31
$GPRMC,103153,A,4820.9230,N,432.3870,W,10.00,263.32,161016,,*33
$GPRMC,103153,A,4820.9221,N,432.3991,W,10.00,263.32,161016,,*3D
$GPRMC,103153,A,4820.9211,N,432.4112,W,10.00,263.32,161016,,*3A
$GPRMC,103153,A,4820.9202,N,432.4233,W,10.00,263.32,161016,,*38
$GPRMC,103153,A,4820.9197,N,432.4292,W,10.00,248.35,161016,,*32
$GPRMC,103153,A,4820.9168,N,432.4402,W,10.00,248.35,161016,,*3D
$GPRMC,103153,A,4820.9140,N,432.4511,W,10.00,248.35,161016,,*34
$GPRMC,103153,A,4820.9111,N,432.4620,W,10.00,248.35,161016,,*31
$GPRMC,103153,A,4820.9082,N,432.4729,W,10.00,248.35,161016,,*32
$GPRMC,103153,A,4820.9053,N,432.4838,W,10.00,248.35,161016,,*31
$GPRMC,103153,A,4820.9024,N,432.4947,W,10.00,248.35,161016,,*38
$GPRMC,103153,A,4820.8995,N,432.5056,W,10.00,248.35,161016,,*32
$GPRMC,103153,A,4820.8966,N,432.5166,W,10.00,248.35,161016,,*3C
$GPRMC,103153,A,4820.8937,N,432.5275,W,10.00,248.35,161016,,*39
$GPRMC,103153,A,4820.8908,N,432.5384,W,10.00,248.35,161016,,*3A
$GPRMC,103153,A,4820.8880,N,432.5493,W,10.00,248.35,161016,,*3A
$GPRMC,103153,A,4820.8851,N,432.5602,W,10.00,248.35,161016,,*3C
$GPRMC,103153,A,4820.8822,N,432.5711,W,10.00,248.35,161016,,*3B
$GPRMC,103153,A,4820.8793,N,432.5820,W,10.00,248.35,161016,,*33
$GPRMC,103153,A,4820.8764,N,432.5930,W,10.00,248.35,161016,,*3B
$GPRMC,103153,A,4820.8735,N,432.6039,W,10.00,248.35,161016,,*3C
$GPRMC,103153,A,4820.8706,N,432.6148,W,10.00,248.35,161016,,*3B
$GPRMC,103153,A,4820.8677,N,432.6257,W,10.00,248.35,161016,,*31
$GPRMC,103153,A,4820.8648,N,432.6366,W,10.00,248.35,161016,,*3E
$GPRMC,103153,A,4820.8620,N,432.6475,W,10.00,248.35,161016,,*35
$GPRMC,103153,A,4820.8591,N,432.6584,W,10.00,248.35,161016,,*33
$GPRMC,103153,A,4820.8562,N,432.6694,W,10.00,248.35,161016,,*3D
$GPRMC,103153,A,4820.8533,N,432.6803,W,10.00,248.35,161016,,*39
$GPRMC,103153,A,4820.8504,N,432.6912,W,10.00,248.35,161016,,*3C
$GPRMC,103153,A,4820.8475,N,432.7021,W,10.00,248.35,161016,,*33
$GPRMC,103153,A,4820.8446,N,432.7130,W,10.00,248.35,161016,,*32
$GPRMC,103153,A,4820.8417,N,432.7239,W,10.00,248.35,161016,,*3C
$GPRMC,103153,A,4820.8388,N,432.7348,W,10.00,248.35,161016,,*3A
$GPRMC,103153,A,4820.8360,N,432.7457,W,10.00,248.35,161016,,*35
$GPRMC,103153,A,4820.8331,N,432.7567,W,10.00,248.35,161016,,*33
$GPRMC,103153,A,4820.8302,N,432.7676,W,10.00,248.35,161016,,*30
$GPRMC,103153,A,4820.8273,N,432.7785,W,10.00,248.35,161016,,*3A
$GPRMC,103153,A,4820.8244,N,432.7894,W,10.00,248.35,161016,,*31
$GPRMC,103153,A,4820.8215,N,432.8003,W,10.00,248.35,161016,,*3C
$GPRMC,103153,A,4820.8186,N,432.8112,W,10.00,248.35,161016,,*34
$GPRMC,103153,A,4820.8157,N,432.8221,W,10.00,248.35,161016,,*3B
$GPRMC,103153,A,4820.8128,N,432.8331,W,10.00,248.35,161016,,*33
$GPRMC,103153,A,4820.8100,N,432.8440,W,10.00,248.35,161016,,*38
$GPRMC,103153,A,4820.8071,N,432.8549,W,10.00,248.35,161016,,*37
$GPRMC,103153,A,4820.8042,N,432.8658,W,10.00,248.35,161016,,*34
$GPRMC,103153,A,4820.8013,N,432.8767,W,10.00,248.35,161016,,*3D
$GPRMC,103153,A,4820.7984,N,432.8876,W,10.00,248.35,161016,,*3A
$GPRMC,103153,A,4820.7955,N,432.8985,W,10.00,248.35,161016,,*3B
$GPRMC,103153,A,4820.7926,N,432.9094,W,10.00,248.35,161016,,*37
$GPRMC,103153,A,4820.7897,N,432.9204,W,10.00,248.35,161016,,*37
$GPRMC,103153,A,4820.7868,N,432.9313,W,10.00,248.35,161016,,*30
$GPRMC,103153,A,4820.7840,N,432.9422,W,10.00,248.35,161016,,*3F
$GPRMC,103153,A,4820.7811,N,432.9531,W,10.00,248.35,161016,,*38
$GPRMC,103153,A,4820.7782,N,432.9640,W,10.00,248.35,161016,,*38
$GPRMC,103153,A,4820.7753,N,432.9749,W,10.00,248.35,161016,,*3C
$GPRMC,103153,A,4820.7724,N,432.9858,W,10.00,248.35,161016,,*33
$GPRMC,103153,A,4820.7695,N,432.9967,W,10.00,248.35,161016,,*35
$GPRMC,103153,A,4820.7666,N,433.0077,W,10.00,248.35,161016,,*39
$GPRMC,103153,A,4820.7637,N,433.0186,W,10.00,248.35,161016,,*32
$GPRMC,103153,A,4820.7608,N,433.0295,W,10.00,248.35,161016,,*3F
$GPRMC,103153,A,4820.7580,N,433.0404,W,10.00,248.35,161016,,*32
$GPRMC,103153,A,4820.7551,N,433.0513,W,10.00,248.35,161016,,*39
$GPRMC,103153,A,4820.7522,N,433.0622,W,10.00,248.35,161016,,*3C
$GPRMC,103153,A,4820.7493,N,433.0731,W,10.00,248.35,161016,,*34
$GPRMC,103153,A,4820.7464,N,433.0840,W,10.00,248.35,161016,,*35
$GPRMC,103153,A,4820.7435,N,433.0950,W,10.00,248.35,161016,,*31
$GPRMC,103153,A,4820.7406,N,433.1059,W,10.00,248.35,161016,,*30
$GPRMC,103153,A,4820.7377,N,433.1168,W,10.00,248.35,161016,,*32
$GPRMC,103153,A,4820.7348,N,433.1277,W,10.00,248.35,161016,,*33
$GPRMC,103153,A,4820.7319,N,433.1386,W,10.00,248.35,161016,,*38
$GPRMC,103153,A,4820.7291,N,433.1495,W,10.00,248.35,161016,,*3C
$GPRMC,103153,A,4820.7262,N,433.1604,W,10.00,248.35,161016,,*3A
$GPRMC,103153,A,4820.7233,N,433.1714,W,10.00,248.35,161016,,*3E
$GPRMC,103153,A,4820.7204,N,433.1823,W,10.00,248.35,161016,,*31
$GPRMC,103153,A,4820.7175,N,433.1932,W,10.00,248.35,161016,,*35
$GPRMC,103153,A,4820.7146,N,433.2041,W,10.00,248.35,161016,,*3B
$GPRMC,103153,A,4820.7117,N,433.2150,W,10.00,248.35,161016,,*3E
$GPRMC,103153,A,4820.7088,N,433.2259,W,10.00,248.35,161016,,*33
$GPRMC,103153,A,4820.7059,N,433.2368,W,10.00,248.35,161016,,*3C
$GPRMC,103153,A,4820.7031,N,433.2477,W,10.00,248.35,161016,,*3B
$GPRMC,103153,A,4820.7002,N,433.2586,W,10.00,248.35,161016,,*34
$GPRMC,103153,A,4820.6973,N,433.2696,W,10.00,248.35,161016,,*38
$GPRMC,103153,A,4820.6944,N,433.2805,W,10.00,248.35,161016,,*38
$GPRMC,103153,A,4820.6915,N,433.2914,W,10.00,248.35,161016,,*3D
$GPRMC,103153,A,4820.6886,N,433.3023,W,10.00,248.35,161016,,*3A
$GPRMC,103153,A,4820.6857,N,433.3132,W,10.00,248.35,161016,,*37
$GPRMC,103153,A,4820.6828,N,433.3241,W,10.00,248.35,161016,,*38
$GPRMC,103153,A,4820.6799,N,433.3350,W,10.00,248.35,161016,,*3C
$GPRMC,103153,A,4820.6770,N,433.3459,W,10.00,248.35,161016,,*35
$GPRMC,103153,A,4820.6742,N,433.3569,W,10.00,248.35,161016,,*36
$GPRMC,103153,A,4820.6713,N,433.3678,W,10.00,248.35,161016,,*31
$GPRMC,103153,A,4820.6684,N,433.3787,W,10.00,248.35,161016,,*3F
$GPRMC,103153,A,4820.6655,N,433.3896,W,10.00,248.35,161016,,*3C
$GPRMC,103153,A,4820.6626,N,433.4005,W,10.00,248.35,161016,,*3D
$GPRMC,103153,A,4820.6597,N,433.4114,W,10.00,248.35,161016,,*35
$GPRMC,103153,A,4820.6568,N,433.4223,W,10.00,248.35,161016,,*32
$GPRMC,103153,A,4820.6539,N,433.4332,W,10.00,248.35,161016,,*37
$GPRMC,103153,A,4820.6510,N,433.4442,W,10.00,248.35,161016,,*3C
$GPRMC,103153,A,4820.6481,N,433.4551,W,10.00,248.35,161016,,*36
$GPRMC,103153,A,4820.6453,N,433.4660,W,10.00,248.35,161016,,*38
$GPRMC,103153,A,4820.6424,N,433.4769,W,10.00,248.35,161016,,*30
$GPRMC,103153,A,4820.6395,N,433.4878,W,10.00,248.35,161016,,*32
$GPRMC,103153,A,4820.6366,N,433.4987,W,10.00,248.35,161016,,*3F
$GPRMC,103153,A,4820.6337,N,433.5096,W,10.00,248.35,161016,,*33
$GPRMC,103153,A,4820.6308,N,433.5205,W,10.00,248.35,161016,,*37
$GPRMC,103153,A,4820.6279,N,433.5315,W,10.00,248.35,161016,,*30
$GPRMC,103153,A,4820.6250,N,433.5424,W,10.00,248.35,161016,,*3E
$GPRMC,103153,A,4820.6221,N,433.5533,W,10.00,248.35,161016,,*3F
$GPRMC,103153,A,4820.6192,N,433.5642,W,10.00,248.35,161016,,*31
$GPRMC,103153,A,4820.6164,N,433.5751,W,10.00,248.35,161016,,*3B
$GPRMC,103153,A,4820.6135,N,433.5860,W,10.00,248.35,161016,,*32
$GPRMC,103153,A,4820.6106,N,433.5969,W,10.00,248.35,161016,,*3A
$GPRMC,103153,A,4820.6077,N,433.6078,W,10.00,248.35,161016,,*37
$GPRMC,103153,A,4820.6048,N,433.6187,W,10.00,248.35,161016,,*3A
$GPRMC,103153,A,4820.6019,N,433.6297,W,10.00,248.35,161016,,*3C
$GPRMC,103153,A,4820.5990,N,433.6406,W,10.00,248.35,161016,,*39
$GPRMC,103153,A,4820.5961,N,433.6515,W,10.00,248.35,161016,,*34
$GPRMC,103153,A,4820.5932,N,433.6624,W,10.00,248.35,161016,,*33
$GPRMC,103153,A,4820.5903,N,433.6733,W,10.00,248.35,161016,,*36
$GPRMC,103153,A,4820.5875,N,433.6842,W,10.00,248.35,161016,,*3F
$GPRMC,103153,A,4820.5846,N,433.6951,W,10.00,248.35,161016,,*3C
$GPRMC,103153,A,4820.5817,N,433.7060,W,10.00,248.35,161016,,*32
$GPRMC,103153,A,4820.5788,N,433.7170,W,10.00,248.35,161016,,*3B
$GPRMC,103153,A,4820.5765,N,433.7257,W,10.00,266.96,161016,,*3B
$GPRMC,103153,A,4820.5760,N,433.7375,W,10.00,266.96,161016,,*3F
$GPRMC,103153,A,4820.5756,N,433.7493,W,10.00,266.96,161016,,*35
$GPRMC,103153,A,4820.5752,N,433.7611,W,10.00,266.96,161016,,*39
$GPRMC,103153,A,4820.5748,N,433.7729,W,10.00,266.96,161016,,*38
$GPRMC,103153,A,4820.5744,N,433.7847,W,10.00,266.96,161016,,*33
$GPRMC,103153,A,4820.5740,N,433.7966,W,10.00,266.96,161016,,*35
$GPRMC,103153,A,4820.5735,N,433.8084,W,10.00,266.96,161016,,*3D
$GPRMC,103153,A,4820.5731,N,433.8202,W,10.00,266.96,161016,,*35
$GPRMC,103153,A,4820.5727,N,433.8320,W,10.00,266.96,161016,,*33
$GPRMC,103153,A,4820.5723,N,433.8438,W,10.00,266.96,161016,,*39
$GPRMC,103153,A,4820.5719,N,433.8556,W,10.00,266.96,161016,,*39
$GPRMC,103153,A,4820.5714,N,433.8674,W,10.00,266.96,161016,,*37
$GPRMC,103153,A,4820.5710,N,433.8792,W,10.00,266.96,161016,,*3A
$GPRMC,103153,A,4820.5706,N,433.8910,W,10.00,266.96,161016,,*39
$GPRMC,103153,A,4820.5702,N,433.9028,W,10.00,266.96,161016,,*3E
$GPRMC,103153,A,4820.5698,N,433.9146,W,10.00,266.96,161016,,*35
$GPRMC,103153,A,4820.5694,N,433.9265,W,10.00,266.96,161016,,*3B
$GPRMC,103153,A,4820.5689,N,433.9383,W,10.00,266.96,161016,,*3E
$GPRMC,103153,A,4820.5685,N,433.9501,W,10.00,266.96,161016,,*3E
$GPRMC,103153,A,4820.5681,N,433.9619,W,10.00,266.96,161016,,*30
$GPRMC,103153,A,4820.5677,N,433.9737,W,10.00,266.96,161016,,*34
$GPRMC,103153,A,4820.5673,N,433.9855,W,10.00,266.96,161016,,*3B
$GPRMC,103153,A,4820.5668,N,433.9973,W,10.00,266.96,161016,,*34
$GPRMC,103153,A,4820.5664,N,434.0091,W,10.00,266.96,161016,,*33
$GPRMC,103153,A,4820.5660,N,434.0209,W,10.00,266.96,161016,,*34
$GPRMC,103153,A,4820.5656,N,434.0327,W,10.00,266.96,161016,,*3C
$GPRMC,103153,A,4820.5652,N,434.0446,W,10.00,266.96,161016,,*38
$GPRMC,103153,A,4820.5648,N,434.0564,W,10.00,266.96,161016,,*32
$GPRMC,103153,A,4820.5643,N,434.0682,W,10.00,266.96,161016,,*32
$GPRMC,103153,A,4820.5639,N,434.0800,W,10.00,266.96,161016,,*3B
$GPRMC,103153,A,4820.5635,N,434.0918,W,10.00,266.96,161016,,*3F
$GPRMC,103153,A,4820.5631,N,434.1036,W,10.00,266.96,161016,,*3F
$GPRMC,103153,A,4820.5627,N,434.1154,W,10.00,266.96,161016,,*3D
$GPRMC,103153,A,4820.5622,N,434.1272,W,10.00,266.96,161016,,*3F
$GPRMC,103153,A,4820.5618,N,434.1390,W,10.00,266.96,161016,,*3B
$GPRMC,103153,A,4820.5614,N,434.1508,W,10.00,266.96,161016,,*30
$GPRMC,103153,A,4820.5610,N,434.1626,W,10.00,266.96,161016,,*3B
$GPRMC,103153,A,4820.5606,N,434.1745,W,10.00,266.96,161016,,*38
$GPRMC,103153,A,4820.5602,N,434.1863,W,10.00,266.96,161016,,*37
$GPRMC,103153,A,4820.5597,N,434.1981,W,10.00,266.96,161016,,*35
$GPRMC,103153,A,4820.5593,N,434.2099,W,10.00,266.96,161016,,*32
$GPRMC,103153,A,4820.5589,N,434.2217,W,10.00,266.96,161016,,*3D
$GPRMC,103153,A,4820.5585,N,434.2335,W,10.00,266.96,161016,,*30
$GPRMC,103153,A,4820.5581,N,434.2453,W,10.00,266.96,161016,,*33
$GPRMC,103153,A,4820.5576,N,434.2571,W,10.00,266.96,161016,,*3A
$GPRMC,103153,A,4820.5572,N,434.2689,W,10.00,266.96,161016,,*3A
$GPRMC,103153,A,4820.5568,N,434.2807,W,10.00,266.96,161016,,*39
$GPRMC,103153,A,4820.5564,N,434.2925,W,10.00,266.96,161016,,*34
$GPRMC,103153,A,4820.5560,N,434.3044,W,10.00,266.96,161016,,*3F
$GPRMC,103153,A,4820.5555,N,434.3162,W,10.00,266.96,161016,,*3C
$GPRMC,103153,A,4820.5551,N,434.3280,W,10.00,266.96,161016,,*37
$GPRMC,103153,A,4820.5547,N,434.3398,W,10.00,266.96,161016,,*38
$GPRMC,103153,A,4820.5543,N,434.3516,W,10.00,266.96,161016,,*3C
$GPRMC,103153,A,4820.5539,N,434.3634,W,10.00,266.96,161016,,*32
$GPRMC,103153,A,4820.5534,N,434.3752,W,10.00,266.96,161016,,*3E
$GPRMC,103153,A,4820.5530,N,434.3870,W,10.00,266.96,161016,,*35
$GPRMC,103153,A,4820.5526,N,434.3988,W,10.00,266.96,161016,,*34
$GPRMC,103153,A,4820.5522,N,434.4106,W,10.00,266.96,161016,,*39
$GPRMC,103153,A,4820.5518,N,434.4224,W,10.00,266.96,161016,,*33
$GPRMC,103153,A,4820.5514,N,434.4343,W,10.00,266.96,161016,,*3F
$GPRMC,103153,A,4820.5509,N,434.4461,W,10.00,266.96,161016,,*34
$GPRMC,103153,A,4820.5505,N,434.4579,W,10.00,266.96,161016,,*30
$GPRMC,103153,A,4820.5501,N,434.4697,W,10.00,266.96,161016,,*37
$GPRMC,103153,A,4820.5497,N,434.4815,W,10.00,266.96,161016,,*3D
$GPRMC,103153,A,4820.5493,N,434.4933,W,10.00,266.96,161016,,*3C
$GPRMC,103153,A,4820.5488,N,434.5051,W,10.00,266.96,161016,,*3A
$GPRMC,103153,A,4820.5484,N,434.5169,W,10.00,266.96,161016,,*3C
$GPRMC,103153,A,4820.5480,N,434.5287,W,10.00,266.96,161016,,*3B
$GPRMC,103153,A,4820.5476,N,434.5405,W,10.00,266.96,161016,,*3E
$GPRMC,103153,A,4820.5472,N,434.5523,W,10.00,266.96,161016,,*3F
$GPRMC,103153,A,4820.5467,N,434.5642,W,10.00,266.96,161016,,*3F
$GPRMC,103153,A,4820.5463,N,434.5760,W,10.00,266.96,161016,,*3A
$GPRMC,103153,A,4820.5459,N,434.5878,W,10.00,266.96,161016,,*35
$GPRMC,103153,A,4820.5455,N,434.5996,W,10.00,266.96,161016,,*38
$GPRMC,103153,A,4820.5451,N,434.6114,W,10.00,266.96,161016,,*3D
$GPRMC,103153,A,4820.5446,N,434.6232,W,10.00,266.96,161016,,*3C
$GPRMC,103153,A,4820.5442,N,434.6350,W,10.00,266.96,161016,,*3D
$GPRMC,103153,A,4820.5438,N,434.6468,W,10.00,266.96,161016,,*3C
$GPRMC,103153,A,4820.5434,N,434.6586,W,10.00,266.96,161016,,*31
$GPRMC,103153,A,4820.5430,N,434.6704,W,10.00,266.96,161016,,*3D
$GPRMC,103153,A,4820.5425,N,434.6822,W,10.00,266.96,161016,,*32
$GPRMC,103153,A,4820.5421,N,434.6941,W,10.00,266.96,161016,,*32
$GPRMC,103153,A,4820.5417,N,434.7059,W,10.00,266.96,161016,,*36
$GPRMC,103153,A,4820.5413,N,434.7177,W,10.00,266.96,161016,,*3F
$GPRMC,103153,A,4820.5409,N,434.7295,W,10.00,266.96,161016,,*3B
$GPRMC,103153,A,4820.5405,N,434.7413,W,10.00,266.96,161016,,*3F
$GPRMC,103153,A,4820.5400,N,434.7531,W,10.00,266.96,161016,,*3B
$GPRMC,103153,A,4820.5396,N,434.7649,W,10.00,266.96,161016,,*3F
$GPRMC,103153,A,4820.5392,N,434.7767,W,10.00,266.96,161016,,*36
$GPRMC,103153,A,4820.5388,N,434.7885,W,10.00,266.96,161016,,*3E
$GPRMC,103153,A,4820.5384,N,434.8003,W,10.00,266.96,161016,,*3B
$GPRMC,103153,A,4820.5379,N,434.8121,W,10.00,266.96,161016,,*38
$GPRMC,103153,A,4820.5375,N,434.8240,W,10.00,266.96,161016,,*30
$GPRMC,103153,A,4820.5371,N,434.8358,W,10.00,266.96,161016,,*3C
$GPRMC,103153,A,4820.5367,N,434.8476,W,10.00,266.96,161016,,*30
$GPRMC,103153,A,4820.5363,N,434.8594,W,10.00,266.96,161016,,*39
$GPRMC,103153,A,4820.5358,N,434.8712,W,10.00,266.96,161016,,*3D
$GPRMC,103153,A,4820.5354,N,434.8830,W,10.00,266.96,161016,,*3E
$GPRMC,103153,A,4820.5350,N,434.8948,W,10.00,266.96,161016,,*34
$GPRMC,103153,A,4820.5346,N,434.9066,W,10.00,266.96,161016,,*37
$GPRMC,103153,A,4820.5342,N,434.9184,W,10.00,266.96,161016,,*3E
$GPRMC,103153,A,4820.5337,N,434.9302,W,10.00,266.96,161016,,*30
$GPRMC,103153,A,4820.5333,N,434.9420,W,10.00,266.96,161016,,*33
$GPRMC,103153,A,4820.5329,N,434.9539,W,10.00,266.96,161016,,*31
$GPRMC,103153,A,4820.5325,N,434.9657,W,10.00,266.96,161016,,*36
$GPRMC,103153,A,4820.5321,N,434.9775,W,10.00,266.96,161016,,*33
$GPRMC,103153,A,4820.5316,N,434.9893,W,10.00,266.96,161016,,*30
$GPRMC,103153,A,4820.5312,N,435.0011,W,10.00,266.96,161016,,*3E
$GPRMC,103153,A,4820.5308,N,435.0129,W,10.00,266.96,161016,,*3F
$GPRMC,103153,A,4820.5304,N,435.0247,W,10.00,266.96,161016,,*38
$GPRMC,103153,A,4820.5300,N,435.0365,W,10.00,266.96,161016,,*3D
$GPRMC,103153,A,4820.5295,N,435.0483,W,10.00,266.96,161016,,*3F
$GPRMC,103153,A,4820.5291,N,435.0601,W,10.00,266.96,161016,,*33
$GPRMC,103153,A,4820.5287,N,435.0719,W,10.00,266.96,161016,,*3C
$GPRMC,103153,A,4820.5283,N,435.0838,W,10.00,266.96,161016,,*34
$GPRMC,103153,A,4820.5279,N,435.0956,W,10.00,266.96,161016,,*38
$GPRMC,103153,A,4820.5274,N,435.1074,W,10.00,266.96,161016,,*3D
