$GPGSV,3,2,10,16,81,241,40,07,14,325,10,19,23,271,20,22,22,145,31*7E
$GPGSV,3,3,10,18,33,106,,30,17,092,*78
$GPRMC,093518.470,A,4826.2552,N,00429.8708,W,000.0,203.5,051113,,,A*7A
$GPGGA,093519.470,4826.2553,N,00429.8710,W,1,07,1.8,134.5,M,,,,0000*1C
$GPGSA,A,3,21,03,06,27,16,19,22,,,,,,2.7,1.8,2.1*31
$GPRMC,093519.470,A,4826.2553,N,00429.8710,W,000.0,203.5,051113,,,A*73
$GPGGA,093520.470,4826.2552,N,00429.8713,W,1,07,1.8,134.2,M,,,,0000*13
$GPGSA,A,3,21,03,06,27,16,19,22,,,,,,2.7,1.8,2.1*31
$GPRMC,093520.470,A,4826.2552,N,00429.8713,W,000.0,203.5,051113,,,A*7B
$GPGGA,093521.470,4826.2551,N,00429.8716,W,1,07,1.8,134.2,M,,,,0000*14
$GPGSA,A,3,21,03,06,27,16,19,22,,,,,,2.7,1.8,2.1*31
$GPGSV,3,1,10,21,49,062,22,03,45,285,32,06,70,295,42,27,58,286,41*74
$GPGSV,3,2,10,16,81,241,40,07,14,325,12,19,23,271,21,22,22,145,32*7E
$GPGSV,3,3,10,18,33,106,,30,17,092,*78
$GPRMC,093521.470,A,4826.2551,N,00429.8716,W,000.0,203.5,051113,,,A*7C
$GPGGA,093522.470,4826.2548,N,00429.8720,W,1,07,1.8,133.9,M,,,,0000*16
$GPGSA,A,3,21,03,06,27,16,19,22,,,,,,2.7,1.8,2.1*31
$GPRMC,093522.470,A,4826.2548,N,00429.8720,W,000.0,203.5,051113,,,A*72
$GPGGA,093523.470,4826.2547,N,00429.8721,W,1,07,1.8,133.9,M,,,,0000*19
$GPGSA,A,3,21,03,06,27,16,19,22,,,,,,2.7,1.8,2.1*31
$GPRMC,093523.470,A,4826.2547,N,00429.8721,W,000.0,203.5,051113,,,A*7D
$GPGGA,093524.470,4826.2546,N,00429.8722,W,1,07,1.8,133.8,M,,,,0000*1D
$GPGSA,A,3,21,03,06,27,16,19,22,,,,,,2.7,1.8,2.1*31
$GPGSV,3,1,10,21,49,062,24,03,45,285,30,06,70,295,42,27,58,286,41*70
$GPGSV,3,2,10,16,81,241,40,07,14,325,10,19,23,271,26,22,22,145,29*71
$GPGSV,3,3,10,18,33,106,,30,17,092,*78
$GPRMC,093524.470,A,4826.2546,N,00429.8722,W,000.0,203.5,051113,,,A*78
$GPGGA,093525.470,4826.2546,N,00429.8724,W,1,07,1.8,133.6,M,,,,0000*14
$GPGSA,A,3,21,03,06,27,16,19,22,,,,,,2.7,1.8,2.1*31
$GPRMC,093525.470,A,4826.2546,N,00429.8724,W,000.0,203.5,051113,,,A*7F
$GPGGA,093526.470,4826.2546,N,00429.8724,W,1,07,1.8,133.4,M,,,,0000*15
$GPGSA,A,3,21,03,06,27,16,19,22,,,,,,2.7,1.8,2.1*31
$GPRMC,093526.470,A,4826.2546,N,00429.8724,W,000.0,203.5,051113,,,A*7C
$GPGGA,093527.470,4826.2545,N,00429.8728,W,1,07,1.8,133.7,M,,,,0000*18
$GPGSA,A,3,21,03,06,27,16,19,22,,,,,,2.7,1.8,2.1*31
$GPGSV,3,1,10,21,49,062,24,03,45,285,31,06,70,295,42,27,58,286,41*71
$GPGSV,3,2,10,16,81,240,40,07,14,325,09,19,23,271,25,22,22,145,33*70
$GPGSV,3,3,10,18,33,106,,30,17,092,*78
$GPRMC,093527.470,A,4826.2545,N,00429.8728,W,000.0,203.5,051113,,,A*72
$GPGGA,093528.470,4826.2542,N,00429.8729,W,1,07,1.8,134.3,M,,,,0000*12
$GPGSA,A,3,21,03,06,27,16,19,22,,,,,,2.7,1.8,2.1*31
$GPRMC,093528.470,A,4826.2542,N,00429.8729,W,000.0,203.5,051113,,,A*7B
$GPGGA,093529.470,4826.2544,N,00429.8729,W,1,07,1.8,134.8,M,,,,0000*1E
$GPGSA,A,3,21,03,06,27,16,19,22,,,,,,2.7,1.8,2.1*31
$GPRMC,093529.470,A,4826.2544,N,00429.8729,W,000.0,203.5,051113,,,A*7C
$GPGGA,093530.470,4826.2544,N,00429.8730,W,1,07,1.8,134.9,M,,,,0000*1F
$GPGSA,A,3,21,03,06,27,16,19,22,,,,,,2.7,1.8,2.1*31
$GPGSV,3,1,10,21,49,062,24,03,45,285,31,06,70,295,41,27,58,286,41*72
$GPGSV,3,2,10,16,81,240,40,19,23,271,25,22,22,145,34,18,34,106,*71
$GPGSV,3,3,10,30,17,092,,07,14,325,*70
$GPRMC,093530.470,A,4826.2544,N,00429.8730,W,000.0,203.5,051113,,,A*7C
$GPGGA,093531.470,4826.2544,N,00429.8730,W,1,06,1.9,135.2,M,,,,0000*14
$GPGSA,A,3,21,03,06,27,16,22,,,,,,,3.6,1.9,3.1*39
$GPRMC,093531.470,A,4826.2544,N,00429.8730,W,000.0,203.5,051113,,,A*7D
$GPGGA,093532.470,4826.2545,N,00429.8728,W,1,06,1.9,135.4,M,,,,0000*19
$GPGSA,A,3,21,03,06,27,16,22,,,,,,,3.6,1.9,3.1*39
$GPRMC,093532.470,A,4826.2545,N,00429.8728,W,000.0,203.5,051113,,,A*76
$GPGGA,093533.470,4826.2547,N,00429.8726,W,1,07,1.8,135.8,M,,,,0000*18
==> nmea.txt <==
$GPRMC,234112,A,3926.5031,N,11946.1982,W,0.0,151.1,250905,15.2,E,D*32
$IIHDM,276.72,M*14
$IIHDG,276.72,,,4.00,E*20
$IIVHW,280.72,T,276.72,M,5.61,N,10.40,K*6B
$IIMTW,83.21,C*2B
$IIMWV,131.46,T,8.47,N,A*31
$IIMWV,83.04,R,6.25,N,A*03
$IIMWD,53.05,T,49.05,M,8.47,N,4.36,M*45
$SDDPT,6.30,0*7C
$IIRMB,A,7.62,L,,LIZEN,4840.600,N,00433.700,W,22.72,265,5.59,V*4A
$GPRMC,234112,A,3926.5031,N,11946.1982,W,0.0,151.1,250905,15.2,E,D*32
$IIHDM,276.72,M*14
$IIHDG,276.72,,,4.00,E*20
$IIVHW,280.72,T,276.72,M,5.61,N,10.40,K*6B
$IIMTW,83.21,C*2B
$IIMWV,131.46,T,8.47,N,A*31
$IIMWV,83.04,R,6.25,N,A*03
$IIMWD,53.05,T,49.05,M,8.47,N,4.36,M*45
$SDDPT,6.30,0*7C
$IIRMB,A,7.62,L,,LIZEN,4840.600,N,00433.700,W,22.72,265,5.59,V*4A
$IIRMC,134111.00,A,4844.154,N,00359.814,W,5.61,272.00,030606,4.00,E*66
$IIHDT,283.01,T*1A
$IIHDM,279.01,M*1F
$IIHDG,279.01,,,4.00,E*2B
$IIVHW,283.01,T,279.01,M,5.59,N,10.36,K*6D
$IIMTW,82.87,C*26
$IIMWV,129.69,T,8.12,N,A*35
$IIMWV,84.15,R,6.33,N,A*03
$IIMWD,51.73,T,47.73,M,8.12,N,4.18,M*45
$SDDPT,6.10,0*7E
$IIHDM,276.72,M*14
$IIHDG,276.72,,,4.00,E*20
$IIVHW,280.72,T,276.72,M,5.61,N,10.40,K*6B
$IIMTW,83.21,C*2B
$IIMWV,131.46,T,8.47,N,A*31
$IIMWV,83.04,R,6.25,N,A*03
$IIMWD,53.05,T,49.05,M,8.47,N,4.36,M*45
$SDDPT,6.30,0*7C
$IIRMB,A,7.62,L,,LIZEN,4840.600,N,00433.700,W,22.72,265,5.59,V*4A
$IIRMC,134111.00,A,4844.154,N,00359.814,W,5.61,272.00,030606,4.00,E*66
$IIHDT,283.01,T*1A
$IIHDM,279.01,M*1F
$IIHDG,279.01,,,4.00,E*2B
$IIVHW,283.01,T,279.01,M,5.59,N,10.36,K*6D
$IIMTW,82.87,C*26
$IIMWV,129.69,T,8.12,N,A*35
$IIMWV,84.15,R,6.33,N,A*03
$IIMWD,51.73,T,47.73,M,8.12,N,4.18,M*45
$SDDPT,6.10,0*7E
$IIVWR,066,R,,N,,M,,K*79
$IIHDM,252.52,M*10
$GPGSA,A,3,03,05,07,08,10,15,18,19,21,28,,,1.4,0.9,1.1*3A
$GPGSV,3,1,12,03,02,011,37,05,20,210,38,07,14,084,41,08,50,084,48*74
$GPGSV,3,2,12,10,01,189,38,15,55,282,37,18,18,325,40,19,19,032,00*79
$GPGSV,3,3,12,21,07,305,00,28,63,127,47,33,16,220,00,37,28,178,36*72
$GPGLL,6003.9421,N,01940.2829,E,131548,A,A*4B
$GPBOD,,T,,M,,*47
$PGRME,3.7,M,5.6,M,6.7,M*28
$PGRMZ,-6,f,3*30
$PGRMM,WGS 84*06
$GPRTE,1,1,c,*37
$GPRMC,131550,A,6003.9425,N,01940.2853,E,2.3,76.6,280510,4.8,E,A*23
$GPRMB,A,,,,,,,,,,,,A,A*0B
$GPGGA,131550,6003.9425,N,01940.2853,E,1,10,0.9,-1.6,M,21.7,M,,*68
$GPGSA,A,3,03,05,07,08,10,15,18,19,21,28,,,1.4,0.9,1.1*3A
$GPGSV,3,1,12,03,02,011,36,05,20,210,39,07,14,084,41,08,50,084,48*74
$GPGSV,3,2,12,10,01,189,37,15,55,282,38,18,18,325,41,19,19,032,31*7A
$GPGSV,3,3,12,21,07,305,00,28,63,127,47,33,16,220,00,37,28,178,36*72
$GPGLL,6003.9425,N,01940.2853,E,131550,A,A*4B
$GPBOD,,T,,M,,*47
$PGRME,3.3,M,4.9,M,5.9,M*2F
$PGRMZ,-5,f,3*33
$PGRMM,WGS 84*06
$GPRTE,1,1,c,*37
$GPRMC,131552,A,6003.9428,N,01940.2876,E,2.1,75.8,280510,4.8,E,A*24
$GPRMB,A,,,,,,,,,,,,A,A*0B
$GPGGA,131552,6003.9428,N,01940.2876,E,1,10,0.8,-1.4,M,21.7,M,,*63
$GPGSA,A,3,03,05,07,08,10,15,18,19,21,28,,,1.4,0.8,1.1*3B
$GPGSV,3,1,12,03,02,011,36,05,20,210,40,07,14,084,40,08,50,084,48*7B
$GPGSV,3,2,12,10,01,189,38,15,55,282,37,18,18,325,42,19,19,032,33*7B
$GPGSV,3,3,12,21,07,305,00,28,63,127,46,33,16,220,00,37,28,178,00*76
$GPGLL,6003.9428,N,01940.2876,E,131552,A,A*43
$GPBOD,,T,,M,,*47
$PGRME,3.4,M,5.0,M,6.0,M*2A
$PGRMZ,-4,f,3*32
$PGRMM,WGS 84*06
$GPRTE,1,1,c,*37
$GPRMC,131554,A,6003.9431,N,01940.2901,E,2.2,76.2,280510,4.8,E,A*21
$GPRMB,A,,,,,,,,,,,,A,A*0B
$GPGGA,131554,6003.9431,N,01940.2901,E,1,10,0.8,-1.2,M,21.7,M,,*6A
$GPGSA,A,3,03,05,07,08,10,15,18,19,21,28,,,1.3,0.8,1.0*3D
$GPGSV,3,1,12,03,02,011,38,05,20,210,41,07,14,084,39,08,50,084,48*7A
$GPGSV,3,2,12,10,01,189,38,15,55,282,37,18,18,325,42,19,19,032,32*7A
$GPGSV,3,3,12,21,07,305,35,28,63,127,46,33,16,220,00,37,28,178,00*70
$GPGLL,6003.9431,N,01940.2901,E,131554,A,A*4C
$GPBOD,,T,,M,,*47
$PGRME,3.4,M,5.0,M,6.0,M*2A
$PGRMZ,-4,f,3*32
$PGRMM,WGS 84*06
$GPRTE,1,1,c,*37
$GPRMC,131556,A,6003.9433,N,01940.2926,E,2.2,81.9,280510,4.8,E,A*27
$GPRMB,A,,,,,,,,,,,,A,A*0B
$GPGGA,131556,6003.9433,N,01940.2926,E,1,10,0.9,-1.3,M,21.7,M,,*6F
$GPGSA,A,3,03,05,07,08,10,15,18,19,21,28,,,1.4,0.9,1.1*3A
$GPGSV,3,1,12,03,02,011,37,05,20,210,42,07,14,084,39,08,50,084,48*76
$GPGSV,3,2,12,10,01,189,38,15,55,282,38,18,18,325,40,19,19,032,00*76
$GPGSV,3,3,12,21,07,305,38,28,63,127,46,33,16,220,00,37,28,178,00*7D
$GPGLL,6003.9433,N,01940.2926,E,131556,A,A*49
$GPBOD,,T,,M,,*47
$PGRME,3.4,M,5.0,M,6.0,M*2A
$PGRMZ,-4,f,3*32
$PGRMM,WGS 84*06
$GPRTE,1,1,c,*37
$GPRMC,131558,A,6003.9436,N,01940.2949,E,2.2,78.0,280510,4.8,E,A*2A
$GPRMB,A,,,,,,,,,,,,A,A*0B
$GPGGA,131558,6003.9436,N,01940.2949,E,1,10,0.8,-1.5,M,21.7,M,,*6A
$GPGSA,A,3,03,05,07,08,10,15,18,19,21,28,,,1.3,0.8,1.0*3D
$GPGSV,3,1,12,03,02,011,35,05,20,210,43,07,14,084,38,08,50,084,48*74
$GPGSV,3,2,12,10,01,189,39,15,55,282,37,18,18,325,39,19,19,032,00*76
$GPGSV,3,3,12,21,07,305,38,28,63,127,46,33,16,220,00,37,28,178,00*7D
$GPGLL,6003.9436,N,01940.2949,E,131558,A,A*4B
$GPBOD,,T,,M,,*47
$PGRME,3.3,M,4.7,M,5.8,M*20
$PGRMZ,-5,f,3*33
$PGRMM,WGS 84*06
$GPRTE,1,1,c,*37
$GPRMC,131600,A,6003.9438,N,01940.2973,E,2.1,79.9,280510,4.8,E,A*28
$GPRMB,A,,,,,,,,,,,,A,A*0B
$GPGGA,131600,6003.9438,N,01940.2973,E,1,10,0.8,-1.3,M,21.7,M,,*65
$GPGSA,A,3,03,05,07,08,10,15,18,19,21,28,,,1.4,0.8,1.1*3B
$GPGSV,3,1,12,03,02,011,35,05,20,210,43,07,14,084,37,08,50,084,48*7B
$GPGSV,3,2,12,10,01,189,39,15,55,282,38,18,18,325,38,19,19,032,39*72
$GPGSV,3,3,12,21,07,305,39,28,63,127,46,33,16,220,00,37,28,178,00*7C
$GPGLL,6003.9438,N,01940.2973,E,131600,A,A*42
$GPBOD,,T,,M,,*47
$PGRME,3.4,M,4.8,M,5.8,M*28
$PGRMZ,-4,f,3*32
$PGRMM,WGS 84*06
$GPRTE,1,1,c,*37
$GPRMC,131602,A,6003.9439,N,01940.2996,E,2.1,83.9,280510,4.8,E,A*25
$GPRMB,A,,,,,,,,,,,,A,A*0B
$GPGGA,131602,6003.9439,N,01940.2996,E,1,10,0.9,-1.4,M,21.7,M,,*6B
$GPGSA,A,3,03,05,07,08,10,15,18,19,21,28,,,1.4,0.9,1.1*3A
$GPGSV,3,1,12,03,02,011,34,05,20,210,43,07,14,084,36,08,50,084,47*74
$GPGSV,3,2,12,10,01,189,39,15,55,282,38,18,18,325,37,19,19,032,37*73
$GPGSV,3,3,12,21,07,305,39,28,63,127,47,33,16,220,00,37,28,178,00*7D
$GPGLL,6003.9439,N,01940.2996,E,131602,A,A*4A
$GPBOD,,T,,M,,*47
$PGRME,3.3,M,4.7,M,5.7,M*2F
$PGRMZ,-4,f,3*32
$PGRMM,WGS 84*06
$GPRTE,1,1,c,*37
$GPRMB,A,,,,,,,,,,,,A,D*0E
$GPGGA,234112,3926.5031,N,11946.1982,W,2,12,0.8,1380.2,M,-22.0,M,,*4A
$GPGSA,A,3,04,07,08,09,11,24,26,27,28,29,35,47,1.5,0.8,1.2*3C
$GPGSV,3,1,12,04,11,165,45,07,78,205,45,08,39,132,50,09,12,314,34*7D
$GPGSV,3,2,12,11,18,052,42,24,29,122,41,26,40,263,42,27,11,136,46*78
$GPGSV,3,3,12,28,56,052,42,29,38,248,48,35,10,105,43,47,13,252,42*76
$GPGLL,3926.5031,N,11946.1982,W,234112,A,D*57
$GPBOD,,T,,M,,*47
$PGRME,2.1,M,2.9,M,3.6,M*23
$PGRMZ,4528,f,3*20
$GPRTE,1,1,c,*37
$GPRMC,234114,A,3926.5031,N,11946.1982,W,0.0,151.1,250905,15.2,E,D*34
$GPRMB,A,,,,,,,,,,,,A,D*0E
$GPGGA,234114,3926.5031,N,11946.1982,W,2,12,0.9,1380.0,M,-22.0,M,,*4F
$GPGSA,A,3,04,07,08,09,11,24,26,27,28,29,35,47,1.5,0.9,1.2*3D
$GPGSV,3,1,12,04,11,165,44,07,78,205,45,08,39,132,50,09,12,314,35*7D
$GPGSV,3,2,12,11,18,052,42,24,29,122,41,26,40,263,42,27,11,136,46*78
$GPGSV,3,3,12,28,56,052,43,29,38,248,48,35,10,105,42,47,13,252,43*77
$GPGLL,3926.5031,N,11946.1982,W,234114,A,D*51
$GPBOD,,T,,M,,*47
$PGRME,2.1,M,2.9,M,3.6,M*23
$PGRMZ,4527,f,3*2F
$GPRTE,1,1,c,*37
$GPRMC,234116,A,3926.5031,N,11946.1982,W,0.0,151.1,250905,15.2,E,D*36
$GPRMB,A,,,,,,,,,,,,A,D*0E
$GPGGA,234116,3926.5031,N,11946.1982,W,2,12,0.9,1379.7,M,-22.0,M,,*4C
$GPGSA,A,3,04,07,08,09,11,24,26,27,28,29,35,47,1.5,0.9,1.2*3D
$GPGSV,3,1,12,04,11,165,45,07,78,205,45,08,39,132,50,09,12,314,34*7D
$GPGSV,3,2,12,11,18,052,42,24,29,122,42,26,40,263,43,27,11,136,45*79
$GPGSV,3,3,12,28,56,052,43,29,38,248,48,35,10,105,42,47,13,252,42*76
$GPGLL,3926.5031,N,11946.1982,W,234116,A,D*53
$GPBOD,,T,,M,,*47
$PGRME,2.1,M,2.9,M,3.5,M*20
$PGRMZ,4526,f,3*2E
$GPRTE,1,1,c,*37
$GPRMC,234118,A,3926.5031,N,11946.1982,W,0.0,151.1,250905,15.2,E,D*38
$GPRMB,A,,,,,,,,,,,,A,D*0E
$GPGGA,234118,3926.5031,N,11946.1982,W,2,12,0.9,1379.6,M,-22.0,M,,*43
$GPGSA,A,3,04,07,08,09,11,24,26,27,28,29,35,47,1.5,0.9,1.2*3D
$GPGSV,3,1,12,04,11,165,45,07,78,205,45,08,39,132,50,09,12,314,00*7A
$GPGSV,3,2,12,11,18,052,42,24,29,122,42,26,40,263,43,27,11,136,45*79
$GPGSV,3,3,12,28,56,052,43,29,38,248,48,35,10,105,42,47,13,252,42*76
$GPGLL,3926.5031,N,11946.1982,W,234118,A,D*5D
$GPBOD,,T,,M,,*47
$PGRME,2.1,M,2.9,M,3.6,M*23
$PGRMZ,4526,f,3*2E
$GPRTE,1,1,c,*37
$GPRMC,234120,A,3926.5031,N,11946.1982,W,0.0,151.1,250905,15.2,E,D*33
$GPRMB,A,,,,,,,,,,,,A,D*0E
$GPGGA,234120,3926.5031,N,11946.1982,W,2,12,0.9,1379.7,M,-22.0,M,,*49
$GPGSA,A,3,04,07,08,09,11,24,26,27,28,29,35,47,1.5,0.9,1.2*3D
$GPGSV,3,1,12,04,11,165,45,07,78,205,45,08,39,132,50,09,12,314,00*7A
$GPGSV,3,2,12,11,18,052,43,24,29,122,41,26,40,263,43,27,11,136,45*7B
$GPGSV,3,3,12,28,56,052,43,29,38,248,48,35,10,105,43,47,13,252,42*77
$GPGLL,3926.5031,N,11946.1982,W,234120,A,D*56
$GPBOD,,T,,M,,*47
$PGRME,2.1,M,2.9,M,3.6,M*23
$PGRMZ,4526,f,3*2E
$GPRTE,1,1,c,*37
$GPRMC,234122,A,3926.5031,N,11946.1982,W,0.0,151.1,250905,15.2,E,D*31
$GPRMB,A,,,,,,,,,,,,A,D*0E
$GPGGA,234122,3926.5031,N,11946.1982,W,2,12,0.9,1379.6,M,-22.0,M,,*4A
$GPGSA,A,3,04,07,08,09,11,24,26,27,28,29,35,47,1.5,0.9,1.2*3D
$GPGSV,3,1,12,04,11,165,45,07,78,205,45,08,39,132,49,09,12,314,34*75
$GPGSV,3,2,12,11,18,052,43,24,29,121,41,26,40,263,43,27,11,136,45*78
$GPGSV,3,3,12,28,56,052,43,29,38,248,48,35,10,105,43,47,13,252,42*77
$GPGLL,3926.5031,N,11946.1982,W,234122,A,D*54
$GPBOD,,T,,M,,*47
$PGRME,2.1,M,2.9,M,3.5,M*20
$PGRMZ,4526,f,3*2E
$GPRTE,1,1,c,*37
$GPRMC,234124,A,3926.5031,N,11946.1982,W,0.0,151.1,250905,15.2,E,D*37
$GPRMB,A,,,,,,,,,,,,A,D*0E
$GPGGA,234124,3926.5031,N,11946.1982,W,2,12,0.9,1379.5,M,-22.0,M,,*4F
$GPGSA,A,3,04,07,08,09,11,24,26,27,28,29,35,47,1.5,0.9,1.2*3D
$GPGSV,3,1,12,04,11,165,45,07,78,205,45,08,39,132,49,09,12,314,33*72
$GPGSV,3,2,12,11,18,052,43,24,29,121,39,26,40,263,43,27,11,136,45*77
$GPGSV,3,3,12,28,56,052,42,29,38,248,48,35,10,105,43,47,13,252,42*76
$GPGLL,3926.5031,N,11946.1982,W,234124,A,D*52
$GPBOD,,T,,M,,*47
$PGRME,2.1,M,2.9,M,3.6,M*23
$PGRMZ,4526,f,3*2E
$GPRTE,1,1,c,*37
$GPRMC,234126,A,3926.5031,N,11946.1983,W,0.0,151.1,250905,15.2,E,D*34
$GPRMB,A,,,,,,,,,,,,A,D*0E
$GPGGA,234126,3926.5031,N,11946.1983,W,2,12,0.9,1379.5,M,-22.0,M,,*4C
$GPGSA,A,3,04,07,08,09,11,24,26,27,28,29,35,47,1.5,0.9,1.3*3C
$GPGSV,3,1,12,04,11,165,45,07,78,205,45,08,39,132,49,09,12,314,35*74
$GPGSV,3,2,12,11,18,052,43,24,29,121,39,26,40,263,43,27,11,136,45*77
$GPGSV,3,3,12,28,56,052,42,29,38,248,48,35,10,105,42,47,13,252,42*77
$GPGLL,3926.5031,N,11946.1983,W,234126,A,D*51
$GPBOD,,T,,M,,*47
$PGRME,2.1,M,2.9,M,3.5,M*20
$PGRMZ,4526,f,3*2E
$GPRTE,1,1,c,*37
$GPRMC,234128,A,3926.5031,N,11946.1983,W,0.0,151.1,250905,15.2,E,D*3A
$GPRMB,A,,,,,,,,,,,,A,D*0E
$GPGGA,234128,3926.5031,N,11946.1983,W,2,12,0.9,1379.7,M,-22.0,M,,*40
$GPGSA,A,3,04,07,08,09,11,24,26,27,28,29,35,47,1.5,0.9,1.2*3D
$GPGSV,3,1,12,04,11,165,45,07,78,205,45,08,39,132,49,09,12,314,34*75
$GPGSV,3,2,12,11,18,052,43,24,29,121,38,26,40,263,43,27,11,136,45*76
$GPGSV,3,3,12,28,56,052,42,29,38,248,48,35,10,105,42,47,13,252,42*77
$GPGLL,3926.5031,N,11946.1983,W,234128,A,D*5F
$GPBOD,,T,,M,,*47
$PGRME,2.1,M,2.9,M,3.6,M*23
$PGRMZ,4526,f,3*2E
$GPRTE,1,1,c,*37
$GPRMC,234130,A,3926.5031,N,11946.1983,W,0.0,151.1,250905,15.2,E,D*33
$GPRMB,A,,,,,,,,,,,,A,D*0E
$GPGGA,234130,3926.5031,N,11946.1983,W,2,12,0.8,1380.0,M,-22.0,M,,*49
$GPGSA,A,3,04,07,08,09,11,24,26,27,28,29,35,47,1.3,0.8,1.1*39
$GPGSV,3,1,12,04,11,165,45,07,78,205,45,08,39,132,49,09,12,314,38*79
$GPGSV,3,2,12,11,18,052,42,24,29,121,38,26,40,262,43,27,11,136,46*75
$GPGSV,3,3,12,28,56,052,41,29,38,248,48,35,10,105,42,47,13,252,42*74
$GPGLL,3926.5031,N,11946.1983,W,234130,A,D*56
$GPBOD,,T,,M,,*47
$PGRME,2.1,M,2.9,M,3.5,M*20
$PGRMZ,4527,f,3*2F
$GPRTE,1,1,c,*37
$GPRMC,234132,A,3926.5031,N,11946.1983,W,0.0,151.1,250905,15.2,E,D*31
$GPRMB,A,,,,,,,,,,,,A,D*0E
$GPGGA,234132,3926.5031,N,11946.1983,W,2,12,0.8,1380.0,M,-22.0,M,,*4B
$GPGSA,A,3,04,07,08,09,11,24,26,27,28,29,35,47,1.4,0.8,1.1*3E
$GPGSV,3,1,12,04,11,165,45,07,78,205,45,08,39,132,49,09,12,314,39*78
$GPGSV,3,2,12,11,18,052,42,24,29,121,38,26,40,262,42,27,11,136,46*74
$GPGSV,3,3,12,28,56,052,41,29,38,248,48,35,10,105,43,47,13,252,42*75
$GPGLL,3926.5031,N,11946.1983,W,234132,A,D*54
$GPBOD,,T,,M,,*47
$PGRME,2.1,M,2.9,M,3.5,M*20
$PGRMZ,4528,f,3*20
$GPRTE,1,1,c,*37
$GPRMC,234134,A,3926.5031,N,11946.1983,W,0.0,151.1,250905,15.2,E,D*37
$GPRMB,A,,,,,,,,,,,,A,D*0E
$GPGGA,234134,3926.5031,N,11946.1983,W,2,12,0.8,1380.3,M,-22.0,M,,*4E
$GPGSA,A,3,04,07,08,09,11,24,26,27,28,29,35,47,1.4,0.8,1.2*3D
$GPGSV,3,1,12,04,11,165,45,07,78,205,45,08,39,132,49,09,12,314,38*79
$GPGSV,3,2,12,11,18,052,42,24,29,121,38,26,40,262,42,27,10,137,46*74
$GPGSV,3,3,12,28,56,052,41,29,38,248,48,35,10,105,42,47,13,252,42*74
$GPGLL,3926.5031,N,11946.1983,W,234134,A,D*52
$GPBOD,,T,,M,,*47
$PGRME,2.1,M,2.9,M,3.6,M*23
$PGRMZ,4528,f,3*20
$GPRTE,1,1,c,*37
$GPRMC,234136,A,3926.5031,N,11946.1983,W,0.0,151.1,250905,15.2,E,D*35
$GPRMB,A,,,,,,,,,,,,A,D*0E
$GPGGA,234136,3926.5031,N,11946.1983,W,2,12,0.8,1380.4,M,-22.0,M,,*4B
$GPGSA,A,3,04,07,08,09,11,24,26,27,28,29,35,47,1.4,0.8,1.2*3D
$GPGSV,3,1,12,04,11,165,45,07,78,205,45,08,39,132,49,09,12,314,37*76
$GPGSV,3,2,12,11,18,052,42,24,29,121,39,26,40,262,43,27,10,137,46*74
$GPGSV,3,3,12,28,56,052,41,29,38,248,48,35,10,105,43,47,13,252,42*75
$GPGLL,3926.5031,N,11946.1983,W,234136,A,D*50
$GPBOD,,T,,M,,*47
$PGRME,2.1,M,2.9,M,3.6,M*23
$PGRMZ,4529,f,3*21
$GPRTE,1,1,c,*37
$GPRMC,234138,A,3926.5031,N,11946.1983,W,0.0,151.1,250905,15.2,E,D*3B
$GPRMB,A,,,,,,,,,,,,A,D*0E
$GPGGA,234138,3926.5031,N,11946.1983,W,2,12,0.8,1380.5,M,-22.0,M,,*44
$GPGSA,A,3,04,07,08,09,11,24,26,27,28,29,35,47,1.4,0.8,1.2*3D
$GPGSV,3,1,12,04,11,165,46,07,78,205,44,08,39,132,49,09,12,314,00*70
$GPGSV,3,2,12,11,18,052,41,24,29,121,40,26,40,262,43,27,10,137,46*79
$GPGSV,3,3,12,28,55,054,41,29,38,248,48,35,10,105,42,47,13,252,42*71
$GPGLL,3926.5031,N,11946.1983,W,234138,A,D*5E
$GPBOD,,T,,M,,*47
$PGRME,2.1,M,2.9,M,3.6,M*23
$PGRMZ,4529,f,3*21
$GPRTE,1,1,c,*37
$GPRMC,234140,A,3926.5031,N,11946.1983,W,0.0,151.1,250905,15.2,E,D*34
$GPRMB,A,,,,,,,,,,,,A,D*0E
$GPGGA,234140,3926.5031,N,11946.1983,W,2,12,0.9,1380.4,M,-22.0,M,,*4B
$GPGSA,A,3,04,07,08,09,11,24,26,27,28,29,35,47,1.5,0.9,1.2*3D
$GPGSV,3,1,12,04,11,165,46,07,78,205,44,08,39,132,48,09,12,314,39*7B
$GPGSV,3,2,12,11,18,052,40,24,29,121,40,26,40,262,43,27,10,137,46*78
$GPGSV,3,3,12,28,55,054,40,29,38,248,49,35,10,105,42,47,13,252,42*71
$GPGLL,3926.5031,N,11946.1983,W,234140,A,D*51
$GPBOD,,T,,M,,*47
$PGRME,2.2,M,3.0,M,3.8,M*26
$PGRMZ,4529,f,3*21
$GPRTE,1,1,c,*37
$GPRMC,234142,A,3926.5031,N,11946.1984,W,0.0,151.1,250905,15.2,E,D*31
$GPRMB,A,,,,,,,,,,,,A,D*0E
$GPGGA,234142,3926.5031,N,11946.1984,W,2,12,0.9,1380.2,M,-22.0,M,,*48
$GPGSA,A,3,04,07,08,09,11,24,26,27,28,29,35,47,1.5,0.9,1.2*3D
$GPGSV,3,1,12,04,11,165,46,07,78,205,45,08,39,132,48,09,12,314,37*74
$GPGSV,3,2,12,11,18,052,00,24,29,121,42,26,40,262,44,27,10,137,46*79
$GPGSV,3,3,12,28,55,054,41,29,37,247,50,35,10,105,43,47,13,252,43*78
$GPGLL,3926.5031,N,11946.1984,W,234142,A,D*54
$GPBOD,,T,,M,,*47
$PGRME,2.3,M,3.1,M,3.9,M*27
$PGRMZ,4528,f,3*20
$GPRTE,1,1,c,*37
$GPRMC,234144,A,3926.5030,N,11946.1984,W,0.0,151.1,250905,15.2,E,D*36
$GPRMB,A,,,,,,,,,,,,A,D*0E
$GPGGA,234144,3926.5030,N,11946.1984,W,2,12,0.9,1379.8,M,-22.0,M,,*43
$GPGSA,A,3,04,07,08,09,11,24,26,27,28,29,35,47,1.5,0.9,1.1*3E
$GPGSV,3,1,12,04,11,165,46,07,78,205,46,08,39,132,47,09,12,314,37*78
$GPGSV,3,2,12,11,18,052,35,24,29,121,42,26,40,262,44,27,10,137,46*7F
$GPGSV,3,3,12,28,55,054,41,29,37,247,50,35,10,105,43,47,13,252,43*78
$GPGLL,3926.5030,N,11946.1984,W,234144,A,D*53
$GPBOD,,T,,M,,*47
$PGRME,2.1,M,2.9,M,3.6,M*23
$PGRMZ,4527,f,3*2F
$GPRTE,1,1,c,*37
$GPRMC,234146,A,3926.5030,N,11946.1984,W,0.0,151.1,250905,15.2,E,D*34
$GPRMB,A,,,,,,,,,,,,A,D*0E
$GPGGA,234146,3926.5030,N,11946.1984,W,2,12,0.9,1379.8,M,-22.0,M,,*41
$GPGSA,A,3,04,07,08,09,11,24,26,27,28,29,35,47,1.5,0.9,1.2*3D
$GPGSV,3,1,12,04,11,165,46,07,78,205,46,08,39,132,47,09,12,314,36*79
$GPGSV,3,2,12,11,18,052,34,24,29,121,43,26,40,262,44,27,10,137,46*7F
$GPGSV,3,3,12,28,55,054,41,29,37,247,51,35,10,105,43,47,13,252,43*79
$GPGLL,3926.5030,N,11946.1984,W,234146,A,D*51
$GPBOD,,T,,M,,*47
$PGRME,2.1,M,2.9,M,3.6,M*23
$PGRMZ,4527,f,3*2F
$GPRTE,1,1,c,*37
$GPRMC,234148,A,3926.5030,N,11946.1984,W,0.0,151.1,250905,15.2,E,D*3A
$GPRMB,A,,,,,,,,,,,,A,D*0E
$GPGGA,234148,3926.5030,N,11946.1984,W,2,12,0.9,1379.4,M,-22.0,M,,*43
$GPGSA,A,3,04,07,08,09,11,24,26,27,28,29,35,47,1.5,0.9,1.2*3D
$GPGSV,3,1,12,04,11,165,46,07,78,205,46,08,39,132,47,09,12,314,35*7A
$GPGSV,3,2,12,11,18,052,34,24,29,121,43,26,40,262,44,27,10,137,46*7F
$GPGSV,3,3,12,28,55,054,41,29,37,247,51,35,10,105,43,47,13,252,43*79
$GPGLL,3926.5030,N,11946.1984,W,234148,A,D*5F
$GPBOD,,T,,M,,*47
$PGRME,2.2,M,3.0,M,3.7,M*29
$PGRMZ,4526,f,3*2E
$GPRTE,1,1,c,*37
$GPRMC,234150,A,3926.5030,N,11946.1984,W,0.0,151.1,250905,15.2,E,D*33
$GPRMB,A,,,,,,,,,,,,A,D*0E
$GPGGA,234150,3926.5030,N,11946.1984,W,2,12,0.9,1379.8,M,-22.0,M,,*46
$GPGSA,A,3,04,07,08,09,11,24,26,27,28,29,35,47,1.5,0.9,1.1*3E
$GPGSV,3,1,12,04,11,165,46,07,78,205,46,08,39,132,47,09,12,314,36*79
$GPGSV,3,2,12,11,18,052,34,24,29,121,43,26,40,262,43,27,10,137,46*78
$GPGSV,3,3,12,28,55,054,41,29,37,247,51,35,10,105,43,47,13,252,43*79
$GPGLL,3926.5030,N,11946.1984,W,234150,A,D*56
$GPBOD,,T,,M,,*47
$PGRME,2.1,M,2.9,M,3.5,M*20
$PGRMZ,4527,f,3*2F
$GPRTE,1,1,c,*37
$GPRMC,234152,A,3926.5030,N,11946.1984,W,0.0,151.1,250905,15.2,E,D*31
$GPRMB,A,,,,,,,,,,,,A,D*0E
$GPGGA,234152,3926.5030,N,11946.1984,W,2,12,0.9,1380.5,M,-22.0,M,,*4F
$GPGSA,A,3,04,07,08,09,11,24,26,27,28,29,35,47,1.5,0.9,1.1*3E
$GPGSV,3,1,12,04,11,165,46,07,78,205,46,08,39,132,47,09,12,314,37*78
$GPGSV,3,2,12,11,18,052,34,24,29,121,43,26,40,262,43,27,10,137,45*7B
$GPGSV,3,3,12,28,55,054,41,29,37,247,51,35,10,105,43,47,13,252,42*78
$GPGLL,3926.5030,N,11946.1984,W,234152,A,D*54
$GPBOD,,T,,M,,*47
$PGRME,2.1,M,2.9,M,3.5,M*20
$PGRMZ,4529,f,3*21
$GPRTE,1,1,c,*37
$GPRMC,234154,A,3926.5030,N,11946.1984,W,0.0,151.1,250905,15.2,E,D*37
$GPRMB,A,,,,,,,,,,,,A,D*0E
$GPGGA,234154,3926.5030,N,11946.1984,W,2,12,0.8,1381.0,M,-22.0,M,,*4C
$GPGSA,A,3,04,07,08,09,11,24,26,27,28,29,35,47,1.3,0.8,1.1*39
$GPGSV,3,1,12,04,11,165,45,07,78,205,46,08,39,132,47,09,12,314,37*7B
$GPGSV,3,2,12,11,18,052,35,24,29,121,43,26,40,262,43,27,10,137,46*79
$GPGSV,3,3,12,28,55,054,41,29,37,247,51,35,10,105,43,47,13,252,42*78
$GPGLL,3926.5030,N,11946.1984,W,234154,A,D*52
$GPBOD,,T,,M,,*47
$PGRME,2.1,M,2.9,M,3.5,M*20
$PGRMZ,4531,f,3*28
$GPRTE,1,1,c,*37
$GPRMC,234156,A,3926.5030,N,11946.1984,W,0.0,151.1,250905,15.2,E,D*35
$GPRMB,A,,,,,,,,,,,,A,D*0E
$GPGGA,234156,3926.5030,N,11946.1984,W,2,12,0.9,1381.4,M,-22.0,M,,*4B
$GPGSA,A,3,04,07,08,09,11,24,26,27,28,29,35,47,1.5,0.9,1.2*3D
$GPGSV,3,1,12,04,11,165,45,07,78,205,46,08,39,132,47,09,12,314,37*7B
$GPGSV,3,2,12,11,18,052,35,24,29,121,43,26,40,262,42,27,10,137,45*7B
$GPGSV,3,3,12,28,55,054,41,29,37,247,51,35,10,105,43,47,13,252,42*78
$GPGLL,3926.5030,N,11946.1984,W,234156,A,D*50
$GPBOD,,T,,M,,*47
$PGRME,2.2,M,2.9,M,3.6,M*20
$PGRMZ,4532,f,3*2B
$GPRTE,1,1,c,*37
$GPRMC,234158,A,3926.5030,N,11946.1984,W,0.0,151.1,250905,15.2,E,D*3B
$GPRMB,A,,,,,,,,,,,,A,D*0E
$GPGGA,234158,3926.5030,N,11946.1984,W,2,12,0.9,1381.3,M,-22.0,M,,*42
$GPGSA,A,3,04,07,08,09,11,24,26,27,28,29,35,47,1.5,0.9,1.2*3D
$GPGSV,3,1,12,04,11,165,45,07,78,205,45,08,39,132,47,09,12,314,39*76
$GPGSV,3,2,12,11,18,052,00,24,29,121,43,26,40,262,41,27,10,137,46*7D
$GPGSV,3,3,12,28,55,054,40,29,37,247,51,35,10,105,42,47,13,252,42*78
$GPGLL,3926.5030,N,11946.1984,W,234158,A,D*5E
$GPBOD,,T,,M,,*47
$PGRME,2.2,M,2.9,M,3.7,M*21
$PGRMZ,4532,f,3*2B
$GPRTE,1,1,c,*37
$GPRMC,234200,A,3926.5030,N,11946.1984,W,0.0,151.1,250905,15.2,E,D*35
$GPRMB,A,,,,,,,,,,,,A,D*0E
$GPGGA,234200,3926.5030,N,11946.1984,W,2,12,0.9,1381.1,M,-22.0,M,,*4E
$GPGSA,A,3,04,07,08,09,11,24,26,27,28,29,35,47,1.5,0.9,1.1*3E
$GPGSV,3,1,12,04,11,165,45,07,78,205,45,08,39,132,47,09,12,314,40*78
$GPGSV,3,2,12,11,18,052,00,24,29,121,44,26,40,262,42,27,10,137,46*79
$GPGSV,3,3,12,28,55,054,40,29,37,247,51,35,10,105,42,47,13,252,42*78
$GPGLL,3926.5030,N,11946.1984,W,234200,A,D*50
$GPBOD,,T,,M,,*47
$PGRME,2.2,M,2.9,M,3.7,M*21
$PGRMZ,4531,f,3*28
$GPRTE,1,1,c,*37
$GPRMC,234202,A,3926.5030,N,11946.1984,W,0.0,151.1,250905,15.2,E,D*37
$GPRMB,A,,,,,,,,,,,,A,D*0E
$GPGGA,234202,3926.5030,N,11946.1984,W,2,12,0.9,1381.0,M,-22.0,M,,*4D
$GPGSA,A,3,04,07,08,09,11,24,26,27,28,29,35,47,1.5,0.9,1.1*3E
$GPGSV,3,1,12,04,11,165,45,07,78,205,45,08,39,132,47,09,12,314,40*78
$GPGSV,3,2,12,11,18,052,00,24,29,121,44,26,40,262,41,27,10,137,46*7A
$GPGSV,3,3,12,28,55,054,40,29,37,247,51,35,10,105,42,47,13,252,42*78
$GPGLL,3926.5030,N,11946.1984,W,234202,A,D*52
$GPBOD,,T,,M,,*47
$PGRME,2.2,M,3.0,M,3.7,M*29
$PGRMZ,4531,f,3*28
$GPRTE,1,1,c,*37
$GPRMC,234204,A,3926.5030,N,11946.1984,W,0.0,151.1,250905,15.2,E,D*31
$GPRMB,A,,,,,,,,,,,,A,D*0E
$GPGGA,234204,3926.5030,N,11946.1984,W,2,12,0.9,1380.8,M,-22.0,M,,*42
$GPGSA,A,3,04,07,08,09,11,24,26,27,28,29,35,47,1.5,0.9,1.1*3E
$GPGSV,3,1,12,04,11,165,45,07,78,205,45,08,39,132,47,09,12,314,40*78
$GPGSV,3,2,12,11,18,052,00,24,29,121,44,26,40,262,43,27,10,137,46*78
$GPGSV,3,3,12,28,55,054,40,29,37,247,51,35,10,105,42,47,13,252,42*78
$GPGLL,3926.5030,N,11946.1984,W,234204,A,D*54
$GPBOD,,T,,M,,*47
$PGRME,2.2,M,3.0,M,3.7,M*29
$PGRMZ,4530,f,3*29
$GPRTE,1,1,c,*37
$GPRMC,234206,A,3926.5029,N,11946.1985,W,0.0,151.1,250905,15.2,E,D*3A
$GPRMB,A,,,,,,,,,,,,A,D*0E
$GPGGA,234206,3926.5029,N,11946.1985,W,2,11,0.9,1380.5,M,-22.0,M,,*47
$GPGSA,A,3,04,07,08,09,,24,26,27,28,29,35,47,1.5,0.9,1.1*3E
$GPGSV,3,1,12,04,11,165,45,07,78,205,45,08,39,132,47,09,12,314,39*76
$GPGSV,3,2,12,11,18,052,00,24,29,121,43,26,40,262,43,27,10,137,46*7F
$GPGSV,3,3,12,28,55,054,40,29,37,247,50,35,10,105,42,47,13,252,43*78
$GPGLL,3926.5029,N,11946.1985,W,234206,A,D*5F
$GPBOD,,T,,M,,*47
$PGRME,2.2,M,3.0,M,3.7,M*29
$PGRMZ,4529,f,3*21
$GPRTE,1,1,c,*37
$GPRMC,234208,A,3926.5029,N,11946.1985,W,0.0,151.1,250905,15.2,E,D*34
$GPRMB,A,,,,,,,,,,,,A,D*0E
$GPGGA,234208,3926.5029,N,11946.1985,W,2,12,0.9,1380.1,M,-22.0,M,,*4E
$GPGSA,A,3,04,07,08,09,11,24,26,27,28,29,35,47,1.5,0.9,1.1*3E
$GPGSV,3,1,12,04,12,164,46,07,78,205,45,08,39,132,47,09,12,314,39*77
$GPGSV,3,2,12,11,18,052,35,24,29,121,42,26,40,262,44,27,10,137,46*7F
$GPGSV,3,3,12,28,55,054,40,29,37,247,50,35,10,105,43,47,13,252,42*78
$GPGLL,3926.5029,N,11946.1985,W,234208,A,D*51
$GPBOD,,T,,M,,*47
$PGRME,2.1,M,2.9,M,3.6,M*23
$PGRMZ,4528,f,3*20
$GPRTE,1,1,c,*37
$GPRMC,234210,A,3926.5029,N,11946.1985,W,0.0,151.1,250905,15.2,E,D*3D
$GPRMB,A,,,,,,,,,,,,A,D*0E
$GPGGA,234210,3926.5029,N,11946.1985,W,2,12,0.9,1379.6,M,-22.0,M,,*46
$GPGSA,A,3,04,07,08,09,11,24,26,27,28,29,35,47,1.5,0.9,1.1*3E
$GPGSV,3,1,12,04,12,164,46,07,78,205,45,08,39,132,47,09,12,314,39*77
$GPGSV,3,2,12,11,18,052,34,24,29,121,42,26,40,262,44,27,10,137,46*7E
$GPGSV,3,3,12,28,55,054,40,29,37,247,50,35,10,105,43,47,13,252,43*79
$GPGLL,3926.5029,N,11946.1985,W,234210,A,D*58
$GPBOD,,T,,M,,*47
$PGRME,2.1,M,2.9,M,3.6,M*23
$PGRMZ,4526,f,3*2E
$GPRTE,1,1,c,*37
$GPRMC,234212,A,3926.5029,N,11946.1985,W,0.0,151.1,250905,15.2,E,D*3F
$GPRMB,A,,,,,,,,,,,,A,D*0E
$GPGGA,234212,3926.5029,N,11946.1985,W,2,12,0.9,1379.3,M,-22.0,M,,*41
$GPGSA,A,3,04,07,08,09,11,24,26,27,28,29,35,47,1.5,0.9,1.1*3E
$GPGSV,3,1,12,04,12,164,46,07,78,205,46,08,39,132,47,09,12,314,39*74
$GPGSV,3,2,12,11,18,052,35,24,29,121,42,26,40,262,44,27,10,137,46*7F
$GPGSV,3,3,12,28,55,054,40,29,37,247,50,35,10,105,43,47,13,252,43*79
$GPGLL,3926.5029,N,11946.1985,W,234212,A,D*5A
$GPBOD,,T,,M,,*47
$PGRME,2.1,M,2.9,M,3.5,M*20
$PGRMZ,4525,f,3*2D
$GPRTE,1,1,c,*37
$GPRMC,234214,A,3926.5029,N,11946.1985,W,0.0,151.1,250905,15.2,E,D*39
$GPRMB,A,,,,,,,,,,,,A,D*0E
$GPGGA,234214,3926.5029,N,11946.1985,W,2,12,0.9,1379.0,M,-22.0,M,,*44
$GPGSA,A,3,04,07,08,09,11,24,26,27,28,29,35,47,1.5,0.9,1.1*3E
$GPGSV,3,1,12,04,12,164,46,07,78,205,45,08,39,132,47,09,12,314,40*79
$GPGSV,3,2,12,11,18,052,34,24,29,121,42,26,40,262,44,27,10,137,46*7E
$GPGSV,3,3,12,28,55,054,40,29,37,247,50,35,10,105,43,47,13,252,43*79
$GPGLL,3926.5029,N,11946.1985,W,234214,A,D*5C
$GPBOD,,T,,M,,*47
$PGRME,2.1,M,2.9,M,3.5,M*20
$PGRMZ,4524,f,3*2C
$GPRTE,1,1,c,*37
$GPRMC,234216,A,3926.5029,N,11946.1985,W,0.0,151.1,250905,15.2,E,D*3B
$GPRMB,A,,,,,,,,,,,,A,D*0E
$GPGGA,234216,3926.5029,N,11946.1985,W,2,12,0.9,1379.0,M,-22.0,M,,*46
$GPGSA,A,3,04,07,08,09,11,24,26,27,28,29,35,47,1.5,0.9,1.1*3E
$GPGSV,3,1,12,04,12,164,46,07,78,205,45,08,39,132,47,09,12,314,40*79
$GPGSV,3,2,12,11,18,052,34,24,29,121,42,26,40,262,44,27,10,137,46*7E
$GPGSV,3,3,12,28,55,054,40,29,37,247,50,35,10,105,43,47,13,252,43*79
$GPGLL,3926.5029,N,11946.1985,W,234216,A,D*5E
$GPBOD,,T,,M,,*47
$PGRME,2.1,M,2.9,M,3.5,M*20
$PGRMZ,4524,f,3*2C
$GPRTE,1,1,c,*37
$GPRMC,234218,A,3926.5029,N,11946.1985,W,0.0,151.1,250905,15.2,E,D*35
$GPRMB,A,,,,,,,,,,,,A,D*0E
$GPGGA,234218,3926.5029,N,11946.1985,W,2,12,0.9,1378.6,M,-22.0,M,,*4F
$GPGSA,A,3,04,07,08,09,11,24,26,27,28,29,35,47,1.5,0.9,1.1*3E
$GPGSV,3,1,12,04,12,164,46,07,78,205,45,08,39,132,47,09,12,314,39*77
$GPGSV,3,2,12,11,18,052,34,24,29,121,41,26,40,262,44,27,10,137,45*7E
$GPGSV,3,3,12,28,55,054,41,29,37,247,50,35,10,105,43,47,13,252,43*78
$GPGLL,3926.5029,N,11946.1985,W,234218,A,D*50
$GPBOD,,T,,M,,*47
$PGRME,2.1,M,2.9,M,3.5,M*20
$PGRMZ,4523,f,3*2B
$GPRTE,1,1,c,*37
$GPRMC,234220,A,3926.5029,N,11946.1985,W,0.0,151.1,250905,15.2,E,D*3E
$GPRMB,A,,,,,,,,,,,,A,D*0E
$GPGGA,234220,3926.5029,N,11946.1985,W,2,12,0.9,1378.4,M,-22.0,M,,*46
$GPGSA,A,3,04,07,08,09,11,24,26,27,28,29,35,47,1.5,0.9,1.1*3E
$GPGSV,3,1,12,04,12,164,46,07,79,206,45,08,39,132,48,09,12,314,39*7A
$GPGSV,3,2,12,11,18,052,34,24,29,121,41,26,40,262,44,27,10,137,45*7E
$GPGSV,3,3,12,28,55,054,42,29,37,247,50,35,10,105,43,47,13,252,43*7B
$GPGLL,3926.5029,N,11946.1985,W,234220,A,D*5B
$GPBOD,,T,,M,,*47
$PGRME,2.1,M,2.9,M,3.6,M*23
$PGRMZ,4522,f,3*2A
$GPRTE,1,1,c,*37
$GPRMC,234222,A,3926.5029,N,11946.1985,W,0.0,151.1,250905,15.2,E,D*3C
$GPRMB,A,,,,,,,,,,,,A,D*0E
$GPGGA,234222,3926.5029,N,11946.1985,W,2,12,1.0,1378.3,M,-22.0,M,,*4B
$GPGSA,A,3,04,07,08,09,11,24,26,27,28,29,35,47,1.5,1.0,1.2*35
$GPGSV,3,1,12,04,12,164,46,07,79,206,45,08,38,132,48,09,12,314,39*7B
$GPGSV,3,2,12,11,18,052,00,24,29,121,41,26,40,262,44,27,10,137,45*79
$GPGSV,3,3,12,28,55,054,40,29,37,247,50,35,10,105,43,47,13,252,42*78
$GPGLL,3926.5029,N,11946.1985,W,234222,A,D*59
$GPBOD,,T,,M,,*47
$PGRME,2.2,M,3.0,M,3.7,M*29
$PGRMZ,4522,f,3*2A
$GPRTE,1,1,c,*37
$GPRMC,234224,A,3926.5029,N,11946.1985,W,0.0,151.1,250905,15.2,E,D*3A
$GPRMB,A,,,,,,,,,,,,A,D*0E
$GPGGA,234224,3926.5029,N,11946.1985,W,2,12,0.9,1378.2,M,-22.0,M,,*44
$GPGSA,A,3,04,07,08,09,11,24,26,27,28,29,35,47,1.5,0.9,1.1*3E
$GPGSV,3,1,12,04,12,164,45,07,79,206,45,08,38,132,48,09,12,314,39*78
$GPGSV,3,2,12,11,18,052,35,24,29,121,42,26,40,262,45,27,10,137,45*7D
$GPGSV,3,3,12,28,55,054,41,29,37,247,50,35,10,105,43,47,13,252,42*79
$GPGLL,3926.5029,N,11946.1985,W,234224,A,D*5F
$GPBOD,,T,,M,,*47
$PGRME,2.1,M,2.9,M,3.6,M*23
$PGRMZ,4522,f,3*2A
$GPRTE,1,1,c,*37
$GPRMC,234226,A,3926.5029,N,11946.1985,W,0.0,151.1,250905,15.2,E,D*38
$GPRMB,A,,,,,,,,,,,,A,D*0E
$GPGGA,234226,3926.5029,N,11946.1985,W,2,12,0.9,1378.4,M,-22.0,M,,*40
$GPGSA,A,3,04,07,08,09,11,24,26,27,28,29,35,47,1.5,0.9,1.2*3D
$GPGSV,3,1,12,04,12,164,45,07,79,206,45,08,38,132,47,09,13,314,39*76
$GPGSV,3,2,12,11,18,052,35,24,29,121,42,26,40,262,45,27,10,137,45*7D
$GPGSV,3,3,12,28,55,054,40,29,37,247,50,35,10,105,43,47,13,252,43*79
$GPGLL,3926.5029,N,11946.1985,W,234226,A,D*5D
$GPBOD,,T,,M,,*47
$PGRME,2.1,M,2.9,M,3.5,M*20
$PGRMZ,4522,f,3*2A
$GPRTE,1,1,c,*37
$GPRMC,234228,A,3926.5029,N,11946.1985,W,0.0,151.1,250905,15.2,E,D*36
$GPRMB,A,,,,,,,,,,,,A,D*0E
$GPGGA,234228,3926.5029,N,11946.1985,W,2,12,0.9,1378.9,M,-22.0,M,,*43
$GPGSA,A,3,04,07,08,09,11,24,26,27,28,29,35,47,1.5,0.9,1.1*3E
$GPGSV,3,1,12,04,12,164,46,07,79,206,45,08,38,132,47,09,13,314,40*7B
$GPGSV,3,2,12,11,18,052,36,24,29,121,43,26,40,262,46,27,10,137,45*7C
$GPGSV,3,3,12,28,55,054,40,29,37,247,50,35,10,105,42,47,13,252,42*79
$GPGLL,3926.5029,N,11946.1985,W,234228,A,D*53
$GPBOD,,T,,M,,*47
$PGRME,2.1,M,2.9,M,3.5,M*20
$PGRMZ,4524,f,3*2C
$GPRTE,1,1,c,*37
$GPRMC,234230,A,3926.5029,N,11946.1985,W,0.0,151.1,250905,15.2,E,D*3F
$GPRMB,A,,,,,,,,,,,,A,D*0E
$GPGGA,234230,3926.5029,N,11946.1985,W,2,12,0.8,1379.3,M,-22.0,M,,*40
$GPGSA,A,3,04,07,08,09,11,24,26,27,28,29,35,47,1.3,0.8,1.1*39
$GPGSV,3,1,12,04,12,164,45,07,79,206,45,08,38,132,47,09,13,314,41*79
$GPGSV,3,2,12,11,18,052,36,24,29,121,43,26,40,262,46,27,10,137,45*7C
$GPGSV,3,3,12,28,55,054,40,29,37,247,50,35,10,105,43,47,13,252,42*78
$GPGLL,3926.5029,N,11946.1985,W,234230,A,D*5A
$GPBOD,,T,,M,,*47
$PGRME,2.1,M,2.9,M,3.5,M*20
$PGRMZ,4525,f,3*2D
$GPRTE,1,1,c,*37
$GPRMC,234232,A,3926.5029,N,11946.1985,W,0.0,151.1,250905,15.2,E,D*3D
$GPRMB,A,,,,,,,,,,,,A,D*0E
$GPGGA,234232,3926.5029,N,11946.1985,W,2,12,0.8,1379.6,M,-22.0,M,,*47
$GPGSA,A,3,04,07,08,09,11,24,26,27,28,29,35,47,1.3,0.8,1.1*39
$GPGSV,3,1,12,04,12,164,45,07,79,206,45,08,38,132,47,09,13,314,41*79
$GPGSV,3,2,12,11,18,052,35,24,29,121,43,26,40,262,46,27,10,137,45*7F
$GPGSV,3,3,12,28,55,054,40,29,37,247,50,35,10,105,43,47,13,252,42*78
$GPGLL,3926.5029,N,11946.1985,W,234232,A,D*58
$GPBOD,,T,,M,,*47
$PGRME,2.1,M,2.9,M,3.6,M*23
$PGRMZ,4526,f,3*2E
$GPRTE,1,1,c,*37
$GPRMC,234234,A,3926.5029,N,11946.1985,W,0.0,151.1,250905,15.2,E,D*3B
$GPRMB,A,,,,,,,,,,,,A,D*0E
$GPGGA,234234,3926.5029,N,11946.1985,W,2,12,0.8,1379.7,M,-22.0,M,,*40
$GPGSA,A,3,04,07,08,09,11,24,26,27,28,29,35,47,1.3,0.8,1.1*39
$GPGSV,3,1,12,04,12,164,45,07,79,206,44,08,38,132,47,09,13,314,41*78
$GPGSV,3,2,12,11,18,051,35,24,29,121,43,26,40,262,45,27,10,137,45*7F
$GPGSV,3,3,12,28,55,054,40,29,37,247,50,35,10,105,43,47,13,252,42*78
$GPGLL,3926.5029,N,11946.1985,W,234234,A,D*5E
$GPBOD,,T,,M,,*47
$PGRME,2.1,M,2.9,M,3.5,M*20
$PGRMZ,4527,f,3*2F
$GPRTE,1,1,c,*37
$GPRMC,234236,A,3926.5029,N,11946.1985,W,0.0,151.1,250905,15.2,E,D*39
$GPRMB,A,,,,,,,,,,,,A,D*0E
$GPGGA,234236,3926.5029,N,11946.1985,W,2,12,0.8,1379.9,M,-22.0,M,,*4C
$GPGSA,A,3,04,07,08,09,11,24,26,27,28,29,35,47,1.4,0.8,1.1*3E
$GPGSV,3,1,12,04,12,164,45,07,79,206,44,08,38,132,47,09,13,314,41*78
$GPGSV,3,2,12,11,18,051,35,24,29,121,43,26,40,262,45,27,10,137,45*7F
$GPGSV,3,3,12,28,55,054,40,29,37,247,50,35,10,105,44,47,13,252,43*7E
$GPGLL,3926.5029,N,11946.1985,W,234236,A,D*5C
$GPBOD,,T,,M,,*47
$PGRME,2.1,M,2.9,M,3.6,M*23
$PGRMZ,4527,f,3*2F
$GPRTE,1,1,c,*37
$GPRMC,234238,A,3926.5029,N,11946.1985,W,0.0,151.1,250905,15.2,E,D*37
$GPRMB,A,,,,,,,,,,,,A,D*0E
$GPGGA,234238,3926.5029,N,11946.1985,W,2,12,0.8,1380.0,M,-22.0,M,,*4D
$GPGSA,A,3,04,07,08,09,11,24,26,27,28,29,35,47,1.3,0.8,1.1*39
$GPGSV,3,1,12,04,12,164,46,07,79,206,44,08,38,132,47,09,13,314,42*78
$GPGSV,3,2,12,11,18,051,36,24,29,121,43,26,40,262,45,27,10,137,45*7C
$GPGSV,3,3,12,28,55,054,41,29,37,247,49,35,10,105,44,47,13,252,43*77
$GPGLL,3926.5029,N,11946.1985,W,234238,A,D*52
$GPBOD,,T,,M,,*47
$PGRME,2.1,M,2.9,M,3.5,M*20
$PGRMZ,4527,f,3*2F
$GPRTE,1,1,c,*37
$GPRMC,234240,A,3926.5029,N,11946.1984,W,0.0,151.1,250905,15.2,E,D*39
$GPRMB,A,,,,,,,,,,,,A,D*0E
$GPGGA,234240,3926.5029,N,11946.1984,W,2,12,0.8,1380.1,M,-22.0,M,,*42
$GPGSA,A,3,04,07,08,09,11,24,26,27,28,29,35,47,1.3,0.8,1.1*39
$GPGSV,3,1,12,04,12,164,46,07,79,206,44,08,38,132,47,09,13,314,42*78
$GPGSV,3,2,12,11,18,051,36,24,29,121,43,26,40,262,45,27,10,137,45*7C
$GPGSV,3,3,12,28,55,054,40,29,37,247,49,35,10,105,43,47,13,252,43*71
$GPGLL,3926.5029,N,11946.1984,W,234240,A,D*5C
$GPBOD,,T,,M,,*47
$PGRME,2.1,M,2.9,M,3.5,M*20
$PGRMZ,4528,f,3*20
$GPRTE,1,1,c,*37
$GPRMC,234242,A,3926.5029,N,11946.1984,W,0.0,151.1,250905,15.2,E,D*3B
$GPRMB,A,,,,,,,,,,,,A,D*0E
$GPGGA,234242,3926.5029,N,11946.1984,W,2,12,0.8,1380.5,M,-22.0,M,,*44
$GPGSA,A,3,04,07,08,09,11,24,26,27,28,29,35,47,1.3,0.8,1.1*39
$GPGSV,3,1,12,04,12,164,46,07,79,206,44,08,38,132,48,09,13,314,41*74
$GPGSV,3,2,12,11,18,051,37,24,29,121,43,26,40,262,45,27,10,137,45*7D
$GPGSV,3,3,12,28,55,054,40,29,37,247,50,35,10,105,43,47,13,252,42*78
$GPGLL,3926.5029,N,11946.1984,W,234242,A,D*5E
$GPBOD,,T,,M,,*47
$PGRME,2.1,M,2.9,M,3.5,M*20
$PGRMZ,4529,f,3*21
$GPRTE,1,1,c,*37
$GPRMC,234244,A,3926.5029,N,11946.1984,W,0.0,151.1,250905,15.2,E,D*3D
$GPRMB,A,,,,,,,,,,,,A,D*0E
$GPGGA,234244,3926.5029,N,11946.1984,W,2,12,0.8,1380.9,M,-22.0,M,,*4E
$GPGSA,A,3,04,07,08,09,11,24,26,27,28,29,35,47,1.4,0.8,1.1*3E
$GPGSV,3,1,12,04,12,164,46,07,79,206,44,08,38,132,48,09,13,314,42*77
$GPGSV,3,2,12,11,18,051,37,24,29,121,43,26,40,262,45,27,10,137,45*7D
$GPGSV,3,3,12,28,55,054,40,29,37,247,50,35,10,105,42,47,13,252,43*78
$GPGLL,3926.5029,N,11946.1984,W,234244,A,D*58
$GPBOD,,T,,M,,*47
$PGRME,2.1,M,2.9,M,3.6,M*23
$PGRMZ,4531,f,3*28
$GPRTE,1,1,c,*37
$GPRMC,234246,A,3926.5029,N,11946.1984,W,0.0,151.1,250905,15.2,E,D*3F
$GPRMB,A,,,,,,,,,,,,A,D*0E
$GPGGA,234246,3926.5029,N,11946.1984,W,2,12,0.8,1381.4,M,-22.0,M,,*40
$GPGSA,A,3,04,07,08,09,11,24,26,27,28,29,35,47,1.4,0.8,1.1*3E
$GPGSV,3,1,12,04,12,164,45,07,79,206,44,08,38,132,48,09,13,314,42*74
$GPGSV,3,2,12,11,18,051,36,24,29,121,43,26,40,262,45,27,10,137,45*7C
$GPGSV,3,3,12,28,55,054,40,29,37,247,50,35,10,105,42,47,13,252,43*78
$GPGLL,3926.5029,N,11946.1984,W,234246,A,D*5A
$GPBOD,,T,,M,,*47
$PGRME,2.1,M,2.8,M,3.5,M*21
$PGRMZ,4532,f,3*2B
$GPRTE,1,1,c,*37
$GPRMC,234248,A,3926.5029,N,11946.1984,W,0.0,151.1,250905,15.2,E,D*31
$GPRMB,A,,,,,,,,,,,,A,D*0E
$GPGGA,234248,3926.5029,N,11946.1984,W,2,12,0.8,1381.7,M,-22.0,M,,*4D
$GPGSA,A,3,04,07,08,09,11,24,26,27,28,29,35,47,1.3,0.8,1.1*39
$GPGSV,3,1,12,04,12,164,45,07,79,206,44,08,38,132,48,09,13,314,42*74
$GPGSV,3,2,12,11,18,051,36,24,29,121,43,26,40,262,45,27,10,137,45*7C
$GPGSV,3,3,12,28,55,054,41,29,37,247,50,35,10,105,42,47,13,252,42*78
$GPGLL,3926.5029,N,11946.1984,W,234248,A,D*54
$GPBOD,,T,,M,,*47
$PGRME,2.1,M,2.8,M,3.5,M*21
$PGRMZ,4533,f,3*2A
$GPRTE,1,1,c,*37
$GPRMC,234250,A,3926.5029,N,11946.1984,W,0.0,151.1,250905,15.2,E,D*38
$GPRMB,A,,,,,,,,,,,,A,D*0E
$GPGGA,234250,3926.5029,N,11946.1984,W,2,12,0.8,1382.1,M,-22.0,M,,*41
$GPGSA,A,3,04,07,08,09,11,24,26,27,28,29,35,47,1.3,0.8,1.1*39
$GPGSV,3,1,12,04,12,164,45,07,79,206,44,08,38,132,48,09,13,314,41*77
$GPGSV,3,2,12,11,18,051,36,24,29,121,42,26,40,262,45,27,10,137,45*7D
$GPGSV,3,3,12,28,55,054,42,29,37,247,50,35,10,105,42,47,13,252,42*7B
$GPGLL,3926.5029,N,11946.1984,W,234250,A,D*5D
$GPBOD,,T,,M,,*47
$PGRME,2.1,M,2.8,M,3.5,M*21
$PGRMZ,4535,f,3*2C
$GPRTE,1,1,c,*37
$GPRMC,234252,A,3926.5029,N,11946.1984,W,0.0,151.1,250905,15.2,E,D*3A
$GPRMB,A,,,,,,,,,,,,A,D*0E
$GPGGA,234252,3926.5029,N,11946.1984,W,2,12,0.8,1382.3,M,-22.0,M,,*41
$GPGSA,A,3,04,07,08,09,11,24,26,27,28,29,35,47,1.4,0.8,1.1*3E
$GPGSV,3,1,12,04,12,164,45,07,79,206,44,08,38,132,48,09,13,314,41*77
$GPGSV,3,2,12,11,18,051,37,24,29,121,42,26,40,262,46,27,10,137,45*7F
$GPGSV,3,3,12,28,55,054,41,29,37,247,50,35,10,105,42,47,13,252,42*78
$GPGLL,3926.5029,N,11946.1984,W,234252,A,D*5F
$GPBOD,,T,,M,,*47
$PGRME,2.1,M,2.9,M,3.6,M*23
$PGRMZ,4535,f,3*2C
$GPRTE,1,1,c,*37
$GPRMC,234254,A,3926.5029,N,11946.1984,W,0.0,151.1,250905,15.2,E,D*3C
$GPRMB,A,,,,,,,,,,,,A,D*0E
$GPGGA,234254,3926.5029,N,11946.1984,W,2,12,0.8,1382.6,M,-22.0,M,,*42
$GPGSA,A,3,04,07,08,09,11,24,26,27,28,29,35,47,1.3,0.8,1.1*39
$GPGSV,3,1,12,04,12,164,45,07,79,206,44,08,38,132,48,09,13,314,41*77
$GPGSV,3,2,12,11,18,051,36,24,29,121,43,26,40,262,46,27,10,137,45*7F
$GPGSV,3,3,12,28,55,054,41,29,37,247,50,35,10,105,43,47,13,252,41*7A
$GPGLL,3926.5029,N,11946.1984,W,234254,A,D*59
$GPBOD,,T,,M,,*47
$PGRME,2.1,M,2.8,M,3.5,M*21
$PGRMZ,4536,f,3*2F
$GPRTE,1,1,c,*37
$GPRMC,234256,A,3926.5029,N,11946.1984,W,0.0,151.1,250905,15.2,E,D*3E
$GPRMB,A,,,,,,,,,,,,A,D*0E
$GPGGA,234256,3926.5029,N,11946.1984,W,2,12,0.8,1382.7,M,-22.0,M,,*41
$GPGSA,A,3,04,07,08,09,11,24,26,27,28,29,35,47,1.3,0.8,1.1*39
$GPGSV,3,1,12,04,12,164,44,07,79,206,44,08,38,132,48,09,13,314,41*76
$GPGSV,3,2,12,11,18,051,36,24,29,121,42,26,40,262,46,27,10,137,44*7F
$GPGSV,3,3,12,28,55,054,41,29,37,247,50,35,10,105,42,47,13,252,41*7B
$GPGLL,3926.5029,N,11946.1984,W,234256,A,D*5B
$GPBOD,,T,,M,,*47
$PGRME,2.1,M,2.8,M,3.5,M*21
$PGRMZ,4537,f,3*2E
$GPRTE,1,1,c,*37
$GPRMC,234258,A,3926.5029,N,11946.1984,W,0.0,151.1,250905,15.2,E,D*30
$GPRMB,A,,,,,,,,,,,,A,D*0E
$GPGGA,234258,3926.5029,N,11946.1984,W,2,12,0.8,1382.7,M,-22.0,M,,*4F
$GPGSA,A,3,04,07,08,09,11,24,26,27,28,29,35,47,1.3,0.8,1.1*39
$GPGSV,3,1,12,04,12,164,44,07,79,206,44,08,38,132,48,09,13,314,40*77
$GPGSV,3,2,12,11,18,051,37,24,29,121,42,26,40,262,46,27,10,137,44*7E
$GPGSV,3,3,12,28,55,054,41,29,37,247,50,35,10,105,42,47,13,252,42*78
$GPGLL,3926.5029,N,11946.1984,W,234258,A,D*55
$GPBOD,,T,,M,,*47
$PGRME,2.1,M,2.8,M,3.5,M*21
$PGRMZ,4536,f,3*2F
$GPRTE,1,1,c,*37
$GPRMC,234300,A,3926.5029,N,11946.1984,W,0.0,151.1,250905,15.2,E,D*3C
$GPRMB,A,,,,,,,,,,,,A,D*0E
$GPGGA,234300,3926.5029,N,11946.1984,W,2,12,0.8,1382.5,M,-22.0,M,,*41
$GPGSA,A,3,04,07,08,09,11,24,26,27,28,29,35,47,1.4,0.8,1.1*3E
$GPGSV,3,1,12,04,12,164,44,07,79,206,44,08,38,132,48,09,13,314,40*77
$GPGSV,3,2,12,11,18,051,37,24,29,121,43,26,40,262,46,27,10,137,44*7F
$GPGSV,3,3,12,28,55,054,41,29,37,247,50,35,10,105,43,47,13,252,42*79
$GPGLL,3926.5029,N,11946.1984,W,234300,A,D*59
$GPBOD,,T,,M,,*47
$PGRME,2.1,M,2.8,M,3.5,M*21
$PGRMZ,4536,f,3*2F
$GPRTE,1,1,c,*37
$GPRMC,234302,A,3926.5029,N,11946.1984,W,0.0,151.1,250905,15.2,E,D*3E
$GPRMB,A,,,,,,,,,,,,A,D*0E
$GPGGA,234302,3926.5029,N,11946.1984,W,2,12,0.8,1382.3,M,-22.0,M,,*45
$GPGSA,A,3,04,07,08,09,11,24,26,27,28,29,35,47,1.3,0.8,1.1*39
$GPGSV,3,1,12,04,12,164,44,07,79,206,44,08,38,132,48,09,13,314,40*77
$GPGSV,3,2,12,11,18,051,37,24,29,121,43,26,40,262,46,27,10,137,44*7F
$GPGSV,3,3,12,28,55,054,42,29,37,247,50,35,10,105,42,47,13,252,42*7B
$GPGLL,3926.5029,N,11946.1984,W,234302,A,D*5B
$GPBOD,,T,,M,,*47
$PGRME,2.1,M,2.8,M,3.5,M*21
$PGRMZ,4535,f,3*2C
$GPRTE,1,1,c,*37
$GPRMC,234304,A,3926.5029,N,11946.1984,W,0.0,151.1,250905,15.2,E,D*38
$GPRMB,A,,,,,,,,,,,,A,D*0E
$GPGGA,234304,3926.5029,N,11946.1984,W,2,12,0.8,1382.2,M,-22.0,M,,*42
$GPGSA,A,3,04,07,08,09,11,24,26,27,28,29,35,47,1.3,0.8,1.1*39
$GPGSV,3,1,12,04,12,164,45,07,79,206,44,08,38,132,48,09,13,314,39*78
$GPGSV,3,2,12,11,18,051,37,24,29,121,43,26,40,262,46,27,10,137,44*7F
$GPGSV,3,3,12,28,55,054,42,29,37,247,50,35,10,105,42,47,13,252,42*7B
$GPGLL,3926.5029,N,11946.1984,W,234304,A,D*5D
$GPBOD,,T,,M,,*47
$PGRME,2.1,M,2.8,M,3.5,M*21
$PGRMZ,4535,f,3*2C
$GPRTE,1,1,c,*37
$GPRMC,234306,A,3926.5029,N,11946.1984,W,0.0,151.1,250905,15.2,E,D*3A
$GPRMB,A,,,,,,,,,,,,A,D*0E
$GPGGA,234306,3926.5029,N,11946.1984,W,2,12,0.8,1382.2,M,-22.0,M,,*40
$GPGSA,A,3,04,07,08,09,11,24,26,27,28,29,35,47,1.3,0.8,1.1*39
$GPGSV,3,1,12,04,12,164,45,07,79,206,43,08,38,132,48,09,13,314,40*71
$GPGSV,3,2,12,11,18,051,38,24,29,121,43,26,40,262,46,27,10,137,44*70
$GPGSV,3,3,12,28,55,054,41,29,37,247,50,35,10,105,42,47,13,252,42*78
$GPGLL,3926.5029,N,11946.1984,W,234306,A,D*5F
$GPBOD,,T,,M,,*47
$PGRME,2.1,M,2.8,M,3.5,M*21
$PGRMZ,4535,f,3*2C
$GPRTE,1,1,c,*37
$GPRMC,234308,A,3926.5029,N,11946.1984,W,0.0,151.1,250905,15.2,E,D*34
$GPRMB,A,,,,,,,,,,,,A,D*0E
$GPGGA,234308,3926.5029,N,11946.1984,W,2,12,0.8,1382.4,M,-22.0,M,,*48
$GPGSA,A,3,04,07,08,09,11,24,26,27,28,29,35,47,1.3,0.8,1.1*39
$GPGSV,3,1,12,04,12,164,45,07,79,206,44,08,38,132,49,09,13,314,40*77
$GPGSV,3,2,12,11,18,051,38,24,29,121,43,26,40,262,45,27,10,137,44*73
$GPGSV,3,3,12,28,55,054,41,29,37,247,50,35,10,105,42,47,13,252,42*78
$GPGLL,3926.5029,N,11946.1984,W,234308,A,D*51
$GPBOD,,T,,M,,*47
$PGRME,2.1,M,2.8,M,3.5,M*21
$PGRMZ,4535,f,3*2C
$GPRTE,1,1,c,*37
$GPRMC,234310,A,3926.5029,N,11946.1984,W,0.0,151.1,250905,15.2,E,D*3D
$GPRMB,A,,,,,,,,,,,,A,D*0E
$GPGGA,234310,3926.5029,N,11946.1984,W,2,12,0.8,1382.5,M,-22.0,M,,*40
$GPGSA,A,3,04,07,08,09,11,24,26,27,28,29,35,47,1.3,0.8,1.1*39
$GPGSV,3,1,12,04,12,164,45,07,79,206,44,08,38,132,49,09,13,314,40*77
$GPGSV,3,2,12,11,18,051,38,24,29,121,43,26,40,262,46,27,10,137,45*71
$GPGSV,3,3,12,28,55,054,42,29,37,247,50,35,10,105,42,47,13,252,42*7B
$GPGLL,3926.5029,N,11946.1984,W,234310,A,D*58
$GPBOD,,T,,M,,*47
$PGRME,2.1,M,2.8,M,3.5,M*21
$PGRMZ,4536,f,3*2F
$GPRTE,1,1,c,*37
$GPRMC,234312,A,3926.5029,N,11946.1984,W,0.0,151.1,250905,15.2,E,D*3F
$GPRMB,A,,,,,,,,,,,,A,D*0E
$GPGGA,234312,3926.5029,N,11946.1984,W,2,12,0.8,1382.9,M,-22.0,M,,*4E
$GPGSA,A,3,04,07,08,09,11,24,26,27,28,29,35,47,1.4,0.8,1.1*3E
$GPGSV,3,1,12,04,12,164,45,07,79,206,44,08,38,132,48,09,13,314,39*78
$GPGSV,3,2,12,11,18,051,38,24,29,121,44,26,40,262,46,27,10,137,44*77
$GPGSV,3,3,12,28,55,054,42,29,37,247,50,35,10,105,43,47,13,252,42*7A
$GPGLL,3926.5029,N,11946.1984,W,234312,A,D*5A
$GPBOD,,T,,M,,*47
$PGRME,2.1,M,2.9,M,3.6,M*23
$PGRMZ,4537,f,3*2E
$GPRTE,1,1,c,*37
$GPRMC,234314,A,3926.5029,N,11946.1984,W,0.0,151.1,250905,15.2,E,D*39
$GPRMB,A,,,,,,,,,,,,A,D*0E
$GPGGA,234314,3926.5029,N,11946.1984,W,2,12,0.8,1383.2,M,-22.0,M,,*42
$GPGSA,A,3,04,07,08,09,11,24,26,27,28,29,35,47,1.4,0.8,1.1*3E
$GPGSV,3,1,12,04,12,164,45,07,79,206,44,08,38,132,49,09,13,314,39*79
$GPGSV,3,2,12,11,18,051,39,24,29,121,44,26,40,262,45,27,10,137,45*74
$GPGSV,3,3,12,28,55,054,42,29,37,247,50,35,10,105,42,47,13,252,42*7B
$GPGLL,3926.5029,N,11946.1984,W,234314,A,D*5C
$GPBOD,,T,,M,,*47
$PGRME,2.1,M,2.8,M,3.5,M*21
$PGRMZ,4538,f,3*21
$GPRTE,1,1,c,*37
$GPRMC,234316,A,3926.5029,N,11946.1984,W,0.0,151.1,250905,15.2,E,D*3B
$GPRMB,A,,,,,,,,,,,,A,D*0E
$GPGGA,234316,3926.5029,N,11946.1984,W,2,12,0.8,1383.6,M,-22.0,M,,*44
$GPGSA,A,3,04,07,08,09,11,24,26,27,28,29,35,47,1.4,0.8,1.1*3E
$GPGSV,3,1,12,04,12,164,45,07,79,206,44,08,38,132,48,09,13,314,39*78
$GPGSV,3,2,12,11,18,051,38,24,29,121,44,26,40,262,46,27,10,137,45*76
$GPGSV,3,3,12,28,55,054,42,29,37,247,50,35,10,105,42,47,13,252,42*7B
$GPGLL,3926.5029,N,11946.1984,W,234316,A,D*5E
$GPBOD,,T,,M,,*47
$PGRME,2.1,M,2.8,M,3.5,M*21
$PGRMZ,4539,f,3*20
$GPRTE,1,1,c,*37
$GPRMC,234318,A,3926.5029,N,11946.1984,W,0.0,151.1,250905,15.2,E,D*35
$GPRMB,A,,,,,,,,,,,,A,D*0E
$GPGGA,234318,3926.5029,N,11946.1984,W,2,12,0.8,1384.2,M,-22.0,M,,*49
$GPGSA,A,3,04,07,08,09,11,24,26,27,28,29,35,47,1.3,0.8,1.1*39
$GPGSV,3,1,12,04,12,164,46,07,79,206,43,08,38,132,48,09,13,314,40*72
$GPGSV,3,2,12,11,18,051,38,24,29,121,44,26,40,262,45,27,10,137,45*75
$GPGSV,3,3,12,28,55,054,42,29,37,247,50,35,10,105,42,47,13,252,43*7A
$GPGLL,3926.5029,N,11946.1984,W,234318,A,D*50
$GPBOD,,T,,M,,*47
$PGRME,2.1,M,2.8,M,3.5,M*21
$PGRMZ,4541,f,3*2F
$GPRTE,1,1,c,*37
$GPRMC,234320,A,3926.5029,N,11946.1984,W,0.0,151.1,250905,15.2,E,D*3E
$GPRMB,A,,,,,,,,,,,,A,D*0E
$GPGGA,234320,3926.5029,N,11946.1984,W,2,12,0.8,1384.8,M,-22.0,M,,*48
$GPGSA,A,3,04,07,08,09,11,24,26,27,28,29,35,47,1.3,0.8,1.1*39
$GPGSV,3,1,12,04,12,164,46,07,79,206,44,08,38,132,47,09,13,314,40*7A
$GPGSV,3,2,12,11,18,051,38,24,29,121,44,26,40,262,46,27,10,137,46*75
$GPGSV,3,3,12,28,55,054,42,29,37,247,50,35,10,105,42,47,13,252,43*7A
$GPGLL,3926.5029,N,11946.1984,W,234320,A,D*5B
$GPBOD,,T,,M,,*47
$PGRME,2.1,M,2.8,M,3.5,M*21
$PGRMZ,4543,f,3*2D
$GPRTE,1,1,c,*37
$GPRMC,234322,A,3926.5029,N,11946.1984,W,0.0,151.1,250905,15.2,E,D*3C
$GPRMB,A,,,,,,,,,,,,A,D*0E
$GPGGA,234322,3926.5029,N,11946.1984,W,2,12,0.8,1385.2,M,-22.0,M,,*41
$GPGSA,A,3,04,07,08,09,11,24,26,27,28,29,35,47,1.4,0.8,1.1*3E
$GPGSV,3,1,12,04,12,164,46,07,79,206,44,08,38,132,47,09,13,314,41*7B
$GPGSV,3,2,12,11,18,051,37,24,30,121,45,26,40,262,46,27,10,137,46*73
$GPGSV,3,3,12,28,55,054,42,29,37,247,50,35,10,105,42,47,13,252,42*7B
$GPGLL,3926.5029,N,11946.1984,W,234322,A,D*59
$GPBOD,,T,,M,,*47
$PGRME,2.1,M,2.9,M,3.6,M*23
$PGRMZ,4545,f,3*2B
$GPRTE,1,1,c,*37
$GPRMC,234324,A,3926.5029,N,11946.1984,W,0.0,151.1,250905,15.2,E,D*3A
$GPRMB,A,,,,,,,,,,,,A,D*0E
$GPGGA,234324,3926.5029,N,11946.1984,W,2,12,0.8,1385.4,M,-22.0,M,,*41
$GPGSA,A,3,04,07,08,09,11,24,26,27,28,29,35,47,1.4,0.8,1.1*3E
$GPGSV,3,1,12,04,12,164,46,07,79,206,44,08,38,132,47,09,13,314,40*7A
$GPGSV,3,2,12,11,18,051,36,24,30,121,44,26,40,262,46,27,10,137,46*73
$GPGSV,3,3,12,28,55,054,41,29,37,247,50,35,10,105,41,47,13,252,43*7A
$GPGLL,3926.5029,N,11946.1984,W,234324,A,D*5F
$GPBOD,,T,,M,,*47
$PGRME,2.1,M,2.9,M,3.6,M*23
$PGRMZ,4545,f,3*2B
$GPRTE,1,1,c,*37
$GPRMC,234326,A,3926.5029,N,11946.1984,W,0.0,151.1,250905,15.2,E,D*38
$GPRMB,A,,,,,,,,,,,,A,D*0E
$GPGGA,234326,3926.5029,N,11946.1984,W,2,12,0.8,1385.3,M,-22.0,M,,*44
$GPGSA,A,3,04,07,08,09,11,24,26,27,28,29,35,47,1.4,0.8,1.1*3E
$GPGSV,3,1,12,04,12,164,46,07,79,206,44,08,38,132,47,09,13,314,40*7A
$GPGSV,3,2,12,11,18,051,35,24,30,121,44,26,40,262,46,27,10,137,46*70
$GPGSV,3,3,12,28,55,054,41,29,37,247,50,35,10,105,42,47,13,252,43*79
$GPGLL,3926.5029,N,11946.1984,W,234326,A,D*5D
$GPBOD,,T,,M,,*47
$PGRME,2.1,M,2.9,M,3.6,M*23
$PGRMZ,4545,f,3*2B
$GPRTE,1,1,c,*37
$GPRMC,234328,A,3926.5029,N,11946.1984,W,0.0,151.1,250905,15.2,E,D*36
$GPRMB,A,,,,,,,,,,,,A,D*0E
$GPGGA,234328,3926.5029,N,11946.1984,W,2,12,0.8,1385.3,M,-22.0,M,,*4A
$GPGSA,A,3,04,07,08,09,11,24,26,27,28,29,35,47,1.4,0.8,1.1*3E
$GPGSV,3,1,12,04,12,164,47,07,79,206,44,08,38,132,47,09,13,314,40*7B
$GPGSV,3,2,12,11,18,051,34,24,30,121,44,26,40,262,46,27,10,137,46*71
$GPGSV,3,3,12,28,55,054,40,29,37,247,50,35,10,105,41,47,13,252,42*7A
$GPGLL,3926.5029,N,11946.1984,W,234328,A,D*53
$GPBOD,,T,,M,,*47
$PGRME,2.1,M,2.9,M,3.6,M*23
$PGRMZ,4545,f,3*2B
$GPRTE,1,1,c,*37
$GPRMC,234330,A,3926.5029,N,11946.1984,W,0.0,151.1,250905,15.2,E,D*3F
$GPRMB,A,,,,,,,,,,,,A,D*0E
$GPGGA,234330,3926.5029,N,11946.1984,W,2,12,0.8,1385.6,M,-22.0,M,,*46
$GPGSA,A,3,04,07,08,09,11,24,26,27,28,29,35,47,1.4,0.8,1.1*3E
$GPGSV,3,1,12,04,12,164,47,07,79,206,44,08,38,132,47,09,13,314,40*7B
$GPGSV,3,2,12,11,18,051,34,24,30,121,45,26,39,261,47,27,10,137,46*7C
$GPGSV,3,3,12,28,55,054,41,29,37,247,50,35,10,105,41,47,13,252,42*7B
$GPGLL,3926.5029,N,11946.1984,W,234330,A,D*5A
$GPBOD,,T,,M,,*47
$PGRME,2.1,M,2.8,M,3.5,M*21
$PGRMZ,4546,f,3*28
$GPRTE,1,1,c,*37
$GPRMC,234332,A,3926.5029,N,11946.1984,W,0.0,151.1,250905,15.2,E,D*3D
$GPRMB,A,,,,,,,,,,,,A,D*0E
$GPGGA,234332,3926.5029,N,11946.1984,W,2,12,0.8,1385.9,M,-22.0,M,,*4B
$GPGSA,A,3,04,07,08,09,11,24,26,27,28,29,35,47,1.4,0.8,1.1*3E
$GPGSV,3,1,12,04,12,164,47,07,79,206,44,08,38,132,47,09,13,314,40*7B
$GPGSV,3,2,12,11,18,051,00,24,30,121,45,26,39,261,47,27,10,137,46*7B
$GPGSV,3,3,12,28,55,054,41,29,37,247,50,35,10,105,41,47,13,252,42*7B
$GPGLL,3926.5029,N,11946.1984,W,234332,A,D*58
$GPBOD,,T,,M,,*47
$PGRME,2.1,M,2.9,M,3.6,M*23
$PGRMZ,4547,f,3*29
$GPRTE,1,1,c,*37
$GPRMC,234334,A,3926.5029,N,11946.1984,W,0.0,151.1,250905,15.2,E,D*3B
$GPRMB,A,,,,,,,,,,,,A,D*0E
$GPGGA,234334,3926.5029,N,11946.1984,W,2,12,0.8,1386.1,M,-22.0,M,,*46
$GPGSA,A,3,04,07,08,09,11,24,26,27,28,29,35,47,1.4,0.8,1.1*3E
$GPGSV,3,1,12,04,12,164,47,07,79,206,44,08,38,132,47,09,13,314,40*7B
$GPGSV,3,2,12,11,18,051,32,24,30,121,45,26,39,261,47,27,09,137,46*72
$GPGSV,3,3,12,28,55,054,41,29,37,247,50,35,10,105,41,47,13,252,42*7B
$GPGLL,3926.5029,N,11946.1984,W,234334,A,D*5E
$GPBOD,,T,,M,,*47
$PGRME,2.1,M,2.9,M,3.6,M*23
$PGRMZ,4548,f,3*26
$GPRTE,1,1,c,*37
$GPRMC,234336,A,3926.5029,N,11946.1983,W,0.0,151.1,250905,15.2,E,D*3E
$GPRMB,A,,,,,,,,,,,,A,D*0E
$GPGGA,234336,3926.5029,N,11946.1983,W,2,12,0.8,1386.7,M,-22.0,M,,*45
$GPGSA,A,3,04,07,08,09,11,24,26,27,28,29,35,47,1.4,0.8,1.1*3E
$GPGSV,3,1,12,04,12,164,47,07,79,206,44,08,38,132,47,09,13,314,40*7B
$GPGSV,3,2,12,11,18,051,32,24,30,121,45,26,39,261,47,27,09,137,46*72
$GPGSV,3,3,12,28,55,054,41,29,37,247,50,35,10,105,41,47,13,252,42*7B
$GPGLL,3926.5029,N,11946.1983,W,234336,A,D*5B
$GPBOD,,T,,M,,*47
$PGRME,2.1,M,2.9,M,3.6,M*23
$PGRMZ,4549,f,3*27
$GPRTE,1,1,c,*37
$GPRMC,234338,A,3926.5029,N,11946.1983,W,0.0,151.1,250905,15.2,E,D*30
$GPRMB,A,,,,,,,,,,,,A,D*0E
$GPGGA,234338,3926.5029,N,11946.1983,W,2,12,0.9,1387.2,M,-22.0,M,,*4E
$GPGSA,A,3,04,07,08,09,11,24,26,27,28,29,35,47,1.5,0.9,1.2*3D
$GPGSV,3,1,12,04,12,164,47,07,79,206,44,08,38,132,47,09,13,314,39*75
$GPGSV,3,2,12,11,18,051,32,24,30,121,45,26,39,261,46,27,09,137,45*70
$GPGSV,3,3,12,28,55,055,41,29,37,247,50,35,10,105,42,47,13,252,42*79
$GPGLL,3926.5029,N,11946.1983,W,234338,A,D*55
$GPBOD,,T,,M,,*47
$PGRME,2.2,M,3.0,M,3.7,M*29
$PGRMZ,4551,f,3*2E
$GPRTE,1,1,c,*37
$GPRMC,234340,A,3926.5029,N,11946.1983,W,0.0,151.1,250905,15.2,E,D*3F
$GPRMB,A,,,,,,,,,,,,A,D*0E
$GPGGA,234340,3926.5029,N,11946.1983,W,2,12,1.0,1387.3,M,-22.0,M,,*48
$GPGSA,A,3,04,07,08,09,11,24,26,27,28,29,35,47,1.5,1.0,1.2*35
$GPGSV,3,1,12,04,12,164,47,07,79,206,44,08,38,132,47,09,13,314,39*75
$GPGSV,3,2,12,11,18,051,31,24,30,121,45,26,39,261,46,27,09,137,45*73
$GPGSV,3,3,12,28,55,055,40,29,37,247,50,35,10,105,42,47,13,252,42*78
$GPGLL,3926.5029,N,11946.1983,W,234340,A,D*5A
$GPBOD,,T,,M,,*47
$PGRME,2.3,M,3.0,M,3.8,M*27
$PGRMZ,4552,f,3*2D
$GPRTE,1,1,c,*37
$GPRMC,234342,A,3926.5029,N,11946.1983,W,0.0,151.1,250905,15.2,E,D*3D
$GPRMB,A,,,,,,,,,,,,A,D*0E
$GPGGA,234342,3926.5029,N,11946.1983,W,2,12,0.9,1387.6,M,-22.0,M,,*47
$GPGSA,A,3,04,07,08,09,11,24,26,27,28,29,35,47,1.5,0.9,1.1*3E
$GPGSV,3,1,12,04,12,164,47,07,79,206,44,08,38,132,47,09,13,314,39*75
$GPGSV,3,2,12,11,18,051,00,24,30,121,45,26,39,261,47,27,09,137,46*73
$GPGSV,3,3,12,28,55,055,39,29,37,246,51,35,10,105,42,47,13,252,42*76
$GPGLL,3926.5029,N,11946.1983,W,234342,A,D*58
$GPBOD,,T,,M,,*47
$PGRME,2.3,M,3.0,M,3.8,M*27
$PGRMZ,4552,f,3*2D
$GPRTE,1,1,c,*37
$GPRMC,234344,A,3926.5028,N,11946.1983,W,0.0,151.1,250905,15.2,E,D*3A
$GPRMB,A,,,,,,,,,,,,A,D*0E
$GPGGA,234344,3926.5028,N,11946.1983,W,2,11,0.9,1387.6,M,-22.0,M,,*43
$GPGSA,A,3,04,07,08,09,,24,26,27,28,29,35,47,1.5,0.9,1.1*3E
$GPGSV,3,1,12,04,12,164,47,07,79,206,44,08,38,132,47,09,13,314,39*75
$GPGSV,3,2,12,11,18,051,00,24,30,121,45,26,39,261,47,27,09,137,45*70
$GPGSV,3,3,12,28,55,055,39,29,37,246,50,35,10,105,42,47,13,252,42*77
$GPGLL,3926.5028,N,11946.1983,W,234344,A,D*5F
$GPBOD,,T,,M,,*47
$PGRME,2.3,M,3.0,M,3.8,M*27
$PGRMZ,4552,f,3*2D
$GPRTE,1,1,c,*37
$GPRMC,234346,A,3926.5028,N,11946.1983,W,0.0,151.1,250905,15.2,E,D*38
$GPRMB,A,,,,,,,,,,,,A,D*0E
$GPGGA,234346,3926.5028,N,11946.1983,W,2,11,0.9,1387.5,M,-22.0,M,,*42
$GPGSA,A,3,04,07,08,09,,24,26,27,28,29,35,47,1.5,0.9,1.1*3E
$GPGSV,3,1,12,04,12,164,46,07,79,206,45,08,38,132,47,09,13,314,39*75
$GPGSV,3,2,12,11,18,051,00,24,30,121,45,26,39,261,47,27,09,137,45*70
$GPGSV,3,3,12,28,55,055,39,29,37,246,50,35,10,105,42,47,13,252,43*76
$GPGLL,3926.5028,N,11946.1983,W,234346,A,D*5D
$GPBOD,,T,,M,,*47
$PGRME,2.3,M,3.0,M,3.8,M*27
$PGRMZ,4552,f,3*2D
$GPRTE,1,1,c,*37
$GPRMC,234348,A,3926.5028,N,11946.1983,W,0.0,151.1,250905,15.2,E,D*36
$GPRMB,A,,,,,,,,,,,,A,D*0E
$GPGGA,234348,3926.5028,N,11946.1983,W,2,11,0.9,1387.5,M,-22.0,M,,*4C
$GPGSA,A,3,04,07,08,09,,24,26,27,28,29,35,47,1.5,0.9,1.1*3E
$GPGSV,3,1,12,04,12,164,46,07,79,206,45,08,38,132,47,09,13,314,40*7B
$GPGSV,3,2,12,11,18,051,00,24,30,121,45,26,39,261,47,27,09,137,45*70
$GPGSV,3,3,12,28,55,055,39,29,37,246,50,35,10,105,42,47,13,252,43*76
$GPGLL,3926.5028,N,11946.1983,W,234348,A,D*53
$GPBOD,,T,,M,,*47
$PGRME,2.3,M,3.0,M,3.8,M*27
$PGRMZ,4552,f,3*2D
$GPRTE,1,1,c,*37
$GPRMC,234350,A,3926.5028,N,11946.1983,W,0.0,151.1,250905,15.2,E,D*3F
$GPRMB,A,,,,,,,,,,,,A,D*0E
$GPGGA,234350,3926.5028,N,11946.1983,W,2,11,0.9,1387.6,M,-22.0,M,,*46
$GPGSA,A,3,04,07,08,09,,24,26,27,28,29,35,47,1.5,0.9,1.2*3D
$GPGSV,3,1,12,04,12,164,46,07,79,206,45,08,38,132,47,09,13,314,40*7B
$GPGSV,3,2,12,11,18,051,00,24,30,121,46,26,39,261,47,27,09,137,45*73
$GPGSV,3,3,12,28,55,055,39,29,37,246,50,35,10,105,42,47,13,252,42*77
$GPGLL,3926.5028,N,11946.1983,W,234350,A,D*5A
$GPBOD,,T,,M,,*47
$PGRME,2.3,M,3.0,M,3.8,M*27
$PGRMZ,4553,f,3*2C
$GPRTE,1,1,c,*37
$GPRMC,234352,A,3926.5028,N,11946.1983,W,0.0,151.1,250905,15.2,E,D*3D
$GPRMB,A,,,,,,,,,,,,A,D*0E
$GPGGA,234352,3926.5028,N,11946.1983,W,2,11,0.9,1387.9,M,-22.0,M,,*4B
$GPGSA,A,3,04,07,08,09,,24,26,27,28,29,35,47,1.5,0.9,1.1*3E
$GPGSV,3,1,12,04,12,164,47,07,79,206,45,08,38,132,47,09,13,314,41*7B
$GPGSV,3,2,12,11,18,051,00,24,30,121,46,26,39,261,47,27,09,137,45*73
$GPGSV,3,3,12,28,55,055,39,29,37,246,50,35,10,105,42,47,13,252,42*77
$GPGLL,3926.5028,N,11946.1983,W,234352,A,D*58
$GPBOD,,T,,M,,*47
$PGRME,2.4,M,3.0,M,3.9,M*21
$PGRMZ,4553,f,3*2C
$GPRTE,1,1,c,*37
$GPRMC,234354,A,3926.5028,N,11946.1983,W,0.0,151.1,250905,15.2,E,D*3B
$GPRMB,A,,,,,,,,,,,,A,D*0E
$GPGGA,234354,3926.5028,N,11946.1983,W,2,11,0.9,1387.9,M,-22.0,M,,*4D
$GPGSA,A,3,04,07,08,09,,24,26,27,28,29,35,47,1.5,0.9,1.1*3E
$GPGSV,3,1,12,04,12,164,47,07,79,206,45,08,38,132,47,09,13,314,40*7A
$GPGSV,3,2,12,11,18,051,00,24,30,121,46,26,39,261,47,27,09,137,45*73
$GPGSV,3,3,12,28,55,055,39,29,37,246,51,35,10,105,42,47,13,252,42*76
$GPGLL,3926.5028,N,11946.1983,W,234354,A,D*5E
$GPBOD,,T,,M,,*47
$PGRME,2.4,M,3.0,M,3.9,M*21
$PGRMZ,4553,f,3*2C
$GPRTE,1,1,c,*37
$GPRMC,234356,A,3926.5028,N,11946.1983,W,0.0,151.1,250905,15.2,E,D*39
$GPRMB,A,,,,,,,,,,,,A,D*0E
$GPGGA,234356,3926.5028,N,11946.1983,W,2,11,0.9,1387.9,M,-22.0,M,,*4F
$GPGSA,A,3,04,07,08,09,,24,26,27,28,29,35,47,1.5,0.9,1.1*3E
$GPGSV,3,1,12,04,12,164,46,07,79,206,46,08,38,132,46,09,13,314,40*79
$GPGSV,3,2,12,11,18,051,00,24,30,121,47,26,39,261,47,27,09,137,44*73
$GPGSV,3,3,12,28,55,055,39,29,37,246,51,35,10,105,42,47,13,252,43*77
$GPGLL,3926.5028,N,11946.1983,W,234356,A,D*5C
$GPBOD,,T,,M,,*47
$PGRME,2.4,M,3.0,M,3.9,M*21
$PGRMZ,4554,f,3*2B
$GPRTE,1,1,c,*37
$GPRMC,234358,A,3926.5028,N,11946.1983,W,0.0,151.1,250905,15.2,E,D*37
$GPRMB,A,,,,,,,,,,,,A,D*0E
$GPGGA,234358,3926.5028,N,11946.1983,W,2,11,0.9,1388.1,M,-22.0,M,,*46
$GPGSA,A,3,04,07,08,09,,24,26,27,28,29,35,47,1.5,0.9,1.1*3E
$GPGSV,3,1,12,04,12,164,46,07,79,206,46,08,38,132,46,09,13,314,40*79
$GPGSV,3,2,12,11,18,051,00,24,30,121,47,26,39,261,47,27,09,137,44*73
$GPGSV,3,3,12,28,55,055,40,29,37,246,51,35,10,105,42,47,13,252,42*78
$GPGLL,3926.5028,N,11946.1983,W,234358,A,D*52
$GPBOD,,T,,M,,*47
$PGRME,2.4,M,3.0,M,3.9,M*21
$PGRMZ,4554,f,3*2B
$GPRTE,1,1,c,*37
$GPRMC,234400,A,3926.5028,N,11946.1983,W,0.0,151.1,250905,15.2,E,D*3D
$GPRMB,A,,,,,,,,,,,,A,D*0E
$GPGGA,234400,3926.5028,N,11946.1983,W,2,12,0.9,1388.2,M,-22.0,M,,*4C
$GPGSA,A,3,04,07,08,09,11,24,26,27,28,29,35,47,1.5,0.9,1.1*3E
$GPGSV,3,1,12,04,12,164,47,07,79,206,46,08,38,132,46,09,13,314,40*78
$GPGSV,3,2,12,11,18,051,33,24,30,121,47,26,39,261,47,27,09,137,44*73
$GPGSV,3,3,12,28,55,055,40,29,37,246,51,35,10,105,42,47,13,252,43*79
$GPGLL,3926.5028,N,11946.1983,W,234400,A,D*58
$GPBOD,,T,,M,,*47
$PGRME,2.1,M,2.8,M,3.5,M*21
$PGRMZ,4554,f,3*2B
$GPRTE,1,1,c,*37
$GPRMC,234402,A,3926.5028,N,11946.1983,W,0.0,151.1,250905,15.2,E,D*3F
$GPRMB,A,,,,,,,,,,,,A,D*0E
$GPGGA,234402,3926.5028,N,11946.1983,W,2,12,0.9,1388.2,M,-22.0,M,,*4E
$GPGSA,A,3,04,07,08,09,11,24,26,27,28,29,35,47,1.5,0.9,1.1*3E
$GPGSV,3,1,12,04,12,164,47,07,79,206,46,08,38,132,46,09,13,314,40*78
$GPGSV,3,2,12,11,18,051,33,24,30,121,47,26,39,261,47,27,09,137,44*73
$GPGSV,3,3,12,28,55,055,40,29,37,246,51,35,10,105,41,47,13,252,43*7A
$GPGLL,3926.5028,N,11946.1983,W,234402,A,D*5A
$GPBOD,,T,,M,,*47
$PGRME,2.1,M,2.9,M,3.5,M*20
$PGRMZ,4554,f,3*2B
$GPRTE,1,1,c,*37
$GPRMC,234404,A,3926.5028,N,11946.1983,W,0.0,151.1,250905,15.2,E,D*39
$GPRMB,A,,,,,,,,,,,,A,D*0E
$GPGGA,234404,3926.5028,N,11946.1983,W,2,12,0.9,1388.0,M,-22.0,M,,*4A
$GPGSA,A,3,04,07,08,09,11,24,26,27,28,29,35,47,1.5,0.9,1.1*3E
$GPGSV,3,1,12,04,12,164,46,07,79,206,46,08,38,132,46,09,13,314,40*79
$GPGSV,3,2,12,11,18,051,32,24,30,121,47,26,39,261,46,27,09,137,44*73
$GPGSV,3,3,12,28,55,055,40,29,37,246,51,35,10,105,41,47,13,252,43*7A
$GPGLL,3926.5028,N,11946.1983,W,234404,A,D*5C
$GPBOD,,T,,M,,*47
$PGRME,2.1,M,2.8,M,3.5,M*21
$PGRMZ,4554,f,3*2B
$GPRTE,1,1,c,*37
$GPRMC,234406,A,3926.5028,N,11946.1982,W,0.0,151.1,250905,15.2,E,D*3A
$GPRMB,A,,,,,,,,,,,,A,D*0E
$GPGGA,234406,3926.5028,N,11946.1982,W,2,12,0.9,1387.7,M,-22.0,M,,*41
$GPGSA,A,3,04,07,08,09,11,24,26,27,28,29,35,47,1.5,0.9,1.1*3E
$GPGSV,3,1,12,04,12,164,47,07,79,206,46,08,38,132,46,09,13,314,40*78
$GPGSV,3,2,12,11,18,051,31,24,30,121,47,26,39,261,46,27,09,137,43*77
$GPGSV,3,3,12,28,55,055,40,29,37,246,51,35,10,105,41,47,13,252,43*7A
$GPGLL,3926.5028,N,11946.1982,W,234406,A,D*5F
$GPBOD,,T,,M,,*47
$PGRME,2.1,M,2.9,M,3.5,M*20
$PGRMZ,4553,f,3*2C
$GPRTE,1,1,c,*37
$GPRMC,234408,A,3926.5028,N,11946.1982,W,0.0,151.1,250905,15.2,E,D*34
$GPRMB,A,,,,,,,,,,,,A,D*0E
$GPGGA,234408,3926.5028,N,11946.1982,W,2,12,0.9,1387.3,M,-22.0,M,,*4B
$GPGSA,A,3,04,07,08,09,11,24,26,27,28,29,35,47,1.5,0.9,1.1*3E
$GPGSV,3,1,12,04,12,164,47,07,79,206,46,08,38,132,46,09,13,314,39*76
$GPGSV,3,2,12,11,18,051,31,24,30,121,47,26,39,261,47,27,09,137,43*76
$GPGSV,3,3,12,28,55,055,39,29,37,246,51,35,10,105,41,47,13,252,42*75
$GPGLL,3926.5028,N,11946.1982,W,234408,A,D*51
$GPBOD,,T,,M,,*47
$PGRME,2.1,M,2.9,M,3.5,M*20
$PGRMZ,4551,f,3*2E
$GPRTE,1,1,c,*37
$GPRMC,234410,A,3926.5028,N,11946.1982,W,0.0,151.1,250905,15.2,E,D*3D
$GPRMB,A,,,,,,,,,,,,A,D*0E
