$GPGGA,194222.000,4826.2617,N,00429.8670,W,1,07,1.1,73.5,M,52.1,M,0.0,0000*52
$GPRMC,194222.000,A,4826.2617,N,00429.8670,W,0.00,264.49,290114,,,A*7C
$GPVTG,264.49,T,,M,0.00,N,0.0,K,A*00
$GPGGA,194223.000,4826.2617,N,00429.8670,W,1,07,1.1,73.5,M,52.1,M,0.0,0000*53
$GPGSA,A,3,15,22,12,24,18,17,26,,,,,,2.1,1.1,1.8*32
$GPGSV,3,1,10,24,77,312,25,15,56,160,29,12,39,211,34,18,32,260,26*74
$GPGSV,3,2,10,17,30,073,19,22,25,298,25,26,19,136,24,28,06,044,*71
$GPGSV,3,3,10,14,06,311,,25,04,221,*7A
$GPRMC,194223.000,A,4826.2617,N,00429.8670,W,0.00,264.49,290114,,,A*7D
$GPVTG,264.49,T,,M,0.00,N,0.0,K,A*00
$GPGGA,194224.000,4826.2617,N,00429.8670,W,1,07,1.1,73.5,M,52.1,M,0.0,0000*54
$GPRMC,194224.000,A,4826.2617,N,00429.8670,W,0.00,264.49,290114,,,A*7A
$GPVTG,264.49,T,,M,0.00,N,0.0,K,A*00
$GPGGA,194225.000,4826.2617,N,00429.8670,W,1,07,1.1,73.5,M,52.1,M,0.0,0000*55
$GPRMC,194225.000,A,4826.2617,N,00429.8670,W,0.00,264.49,290114,,,A*7B
$GPVTG,264.49,T,,M,0.00,N,0.0,K,A*00
$GPGGA,194226.000,4826.2617,N,00429.8670,W,1,07,1.1,73.5,M,52.1,M,0.0,0000*56
$GPRMC,194226.000,A,4826.2617,N,00429.8670,W,0.00,264.49,290114,,,A*78
$GPVTG,264.49,T,,M,0.00,N,0.0,K,A*00
$GPGGA,194227.000,4826.2617,N,00429.8670,W,1,07,1.1,73.5,M,52.1,M,0.0,0000*57
$GPRMC,194227.000,A,4826.2617,N,00429.8670,W,0.00,264.49,290114,,,A*79
$GPVTG,264.49,T,,M,0.00,N,0.0,K,A*00
$GPGGA,194228.000,4826.2617,N,00429.8670,W,1,07,1.1,73.5,M,52.1,M,0.0,0000*58
$GPGSA,A,3,15,22,12,24,18,17,26,,,,,,2.1,1.1,1.8*32
$GPGSV,3,1,10,24,77,312,25,15,56,160,30,12,39,211,34,18,32,260,27*7D
$GPGSV,3,2,10,17,30,073,20,22,25,298,25,26,19,136,25,28,06,044,*7A
$GPGSV,3,3,10,14,06,311,,25,04,221,*7A
$GPRMC,194228.000,A,4826.2617,N,00429.8670,W,0.00,264.49,290114,,,A*76
$GPVTG,264.49,T,,M,0.00,N,0.0,K,A*00
$GPGGA,194229.000,4826.2617,N,00429.8670,W,1,07,1.1,73.5,M,52.1,M,0.0,0000*59
$GPRMC,194229.000,A,4826.2617,N,00429.8670,W,0.00,264.49,290114,,,A*77
$GPVTG,264.49,T,,M,0.00,N,0.0,K,A*00
$GPGGA,194230.000,4826.2617,N,00429.8670,W,1,07,1.1,73.5,M,52.1,M,0.0,0000*51
$GPRMC,194230.000,A,4826.2617,N,00429.8670,W,0.00,264.49,290114,,,A*7F
$GPVTG,264.49,T,,M,0.00,N,0.0,K,A*00
$GPGGA,194231.000,4826.2617,N,00429.8670,W,1,07,1.1,73.5,M,52.1,M,0.0,0000*50
$GPRMC,194231.000,A,4826.2617,N,00429.8670,W,0.00,264.49,290114,,,A*7E
$GPVTG,264.49,T,,M,0.00,N,0.0,K,A*00
$GPGGA,194232.000,4826.2617,N,00429.8670,W,1,07,1.1,73.5,M,52.1,M,0.0,0000*53
$GPRMC,194232.000,A,4826.2617,N,00429.8670,W,0.00,264.49,290114,,,A*7D
$GPVTG,264.49,T,,M,0.00,N,0.0,K,A*00
$GPGGA,194233.000,4826.2617,N,00429.8670,W,1,07,1.1,73.5,M,52.1,M,0.0,0000*52
$GPGSA,A,3,15,22,12,24,18,17,26,,,,,,2.1,1.1,1.8*32
$GPGSV,3,1,10,24,77,312,26,15,56,160,30,12,39,211,33,18,32,260,27*79
$GPGSV,3,2,10,17,30,073,20,22,25,298,24,26,19,136,25,28,06,044,*7B
$GPGSV,3,3,10,14,06,311,,25,04,221,*7A
$GPRMC,194233.000,A,4826.2617,N,00429.8670,W,0.00,264.49,290114,,,A*7C
$GPVTG,264.49,T,,M,0.00,N,0.0,K,A*00
$GPGGA,194234.000,4826.2617,N,00429.8670,W,1,07,1.1,73.5,M,52.1,M,0.0,0000*55
$GPRMC,194234.000,A,4826.2617,N,00429.8670,W,0.00,264.49,290114,,,A*7B
$GPVTG,264.49,T,,M,0.00,N,0.0,K,A*00
$GPGGA,194235.000,4826.2617,N,00429.8670,W,1,07,1.1,73.5,M,52.1,M,0.0,0000*54
$GPRMC,194235.000,A,4826.2617,N,00429.8670,W,0.00,264.49,290114,,,A*7A
$GPVTG,264.49,T,,M,0.00,N,0.0,K,A*00
$GPGGA,194236.000,4826.2617,N,00429.8670,W,1,07,1.1,73.5,M,52.1,M,0.0,0000*57
$GPRMC,194236.000,A,4826.2617,N,00429.8670,W,0.00,264.49,290114,,,A*79
$GPVTG,264.49,T,,M,0.00,N,0.0,K,A*00
$GPGGA,194237.000,4826.2617,N,00429.8670,W,1,07,1.1,73.5,M,52.1,M,0.0,0000*56
$GPRMC,194237.000,A,4826.2617,N,00429.8670,W,0.00,264.49,290114,,,A*78
$GPVTG,264.49,T,,M,0.00,N,0.0,K,A*00
$GPGGA,194238.000,4826.2617,N,00429.8670,W,1,07,1.1,73.5,M,52.1,M,0.0,0000*59
$GPGSA,A,3,15,22,12,24,18,17,26,,,,,,2.1,1.1,1.8*32
$GPGSV,3,1,10,24,77,312,26,15,56,160,30,12,39,211,32,18,32,260,28*77
$GPGSV,3,2,10,17,30,073,20,22,25,298,23,26,19,136,25,28,06,044,*7C
$GPGSV,3,3,10,14,06,311,,25,04,221,*7A
$GPRMC,194238.000,A,4826.2617,N,00429.8670,W,0.00,264.49,290114,,,A*77
$GPVTG,264.49,T,,M,0.00,N,0.0,K,A*00
$GPGGA,194239.000,4826.2617,N,00429.8670,W,1,07,1.1,73.5,M,52.1,M,0.0,0000*58
$GPRMC,194239.000,A,4826.2617,N,00429.8670,W,0.00,264.49,290114,,,A*76
$GPVTG,264.49,T,,M,0.00,N,0.0,K,A*00
$GPGGA,194240.000,4826.2617,N,00429.8670,W,1,07,1.1,73.5,M,52.1,M,0.0,0000*56
$GPRMC,194240.000,A,4826.2617,N,00429.8670,W,0.00,264.49,290114,,,A*78
$GPVTG,264.49,T,,M,0.00,N,0.0,K,A*00
$GPGGA,194241.000,4826.2617,N,00429.8670,W,1,07,1.1,73.5,M,52.1,M,0.0,0000*57
$GPRMC,194241.000,A,4826.2617,N,00429.8670,W,0.00,264.49,290114,,,A*79
$GPVTG,264.49,T,,M,0.00,N,0.0,K,A*00
$GPGGA,194242.000,4826.2617,N,00429.8670,W,1,07,1.1,73.5,M,52.1,M,0.0,0000*54
$GPRMC,194242.000,A,4826.2617,N,00429.8670,W,0.00,264.49,290114,,,A*7A
$GPVTG,264.49,T,,M,0.00,N,0.0,K,A*00
$GPGGA,194243.000,4826.2617,N,00429.8670,W,1,07,1.1,73.5,M,52.1,M,0.0,0000*55
$GPGSA,A,3,15,22,12,24,18,17,26,,,,,,2.1,1.1,1.8*32
$GPGSV,3,1,10,24,77,312,27,15,56,160,30,12,39,211,32,18,32,260,28*76
$GPGSV,3,2,10,17,30,073,20,22,25,298,23,26,19,136,25,28,06,044,*7C
$GPGSV,3,3,10,14,06,311,,25,04,221,*7A
$GPRMC,194243.000,A,4826.2617,N,00429.8670,W,0.00,264.49,290114,,,A*7B
$GPVTG,264.49,T,,M,0.00,N,0.0,K,A*00
$GPGGA,194244.000,4826.2617,N,00429.8670,W,1,07,1.1,73.5,M,52.1,M,0.0,0000*52
$GPRMC,194244.000,A,4826.2617,N,00429.8670,W,0.00,264.49,290114,,,A*7C
$GPVTG,264.49,T,,M,0.00,N,0.0,K,A*00
$GPGGA,194245.000,4826.2617,N,00429.8670,W,1,07,1.1,73.5,M,52.1,M,0.0,0000*53
$GPRMC,194245.000,A,4826.2617,N,00429.8670,W,0.00,264.49,290114,,,A*7D
$GPVTG,264.49,T,,M,0.00,N,0.0,K,A*00
$GPGGA,194246.000,4826.2617,N,00429.8670,W,1,07,1.1,73.5,M,52.1,M,0.0,0000*50
$GPRMC,194246.000,A,4826.2617,N,00429.8670,W,0.00,264.49,290114,,,A*7E
$GPVTG,264.49,T,,M,0.00,N,0.0,K,A*00
$GPGGA,194247.000,4826.2617,N,00429.8670,W,1,07,1.1,73.5,M,52.1,M,0.0,0000*51
$GPRMC,194247.000,A,4826.2617,N,00429.8670,W,0.00,264.49,290114,,,A*7F
$GPVTG,264.49,T,,M,0.00,N,0.0,K,A*00
$GPGGA,194248.000,4826.2617,N,00429.8670,W,1,07,1.1,73.5,M,52.1,M,0.0,0000*5E
$GPGSA,A,3,15,22,12,24,18,17,26,,,,,,2.1,1.1,1.8*32
$GPGSV,3,1,10,24,77,312,27,15,56,160,31,12,39,211,31,18,32,260,28*74
$GPGSV,3,2,10,17,30,073,20,22,25,298,22,26,19,136,24,28,06,044,*7C
$GPGSV,3,3,10,14,06,311,,25,04,221,*7A
$GPRMC,194248.000,A,4826.2617,N,00429.8670,W,0.00,264.49,290114,,,A*70
$GPVTG,264.49,T,,M,0.00,N,0.0,K,A*00
$GPGGA,194249.000,4826.2617,N,00429.8670,W,1,07,1.1,73.5,M,52.1,M,0.0,0000*5F
$GPRMC,194249.000,A,4826.2617,N,00429.8670,W,0.00,264.49,290114,,,A*71
$GPVTG,264.49,T,,M,0.00,N,0.0,K,A*00
$GPGGA,194250.000,4826.2617,N,00429.8670,W,1,07,1.1,73.5,M,52.1,M,0.0,0000*57
$GPRMC,194250.000,A,4826.2617,N,00429.8670,W,0.00,264.49,290114,,,A*79
$GPVTG,264.49,T,,M,0.00,N,0.0,K,A*00
$GPGGA,194251.000,4826.2617,N,00429.8670,W,1,07,1.1,73.5,M,52.1,M,0.0,0000*56
$GPRMC,194251.000,A,4826.2617,N,00429.8670,W,0.00,264.49,290114,,,A*78
$GPVTG,264.49,T,,M,0.00,N,0.0,K,A*00
$GPGGA,194252.000,4826.2617,N,00429.8670,W,1,07,1.1,73.5,M,52.1,M,0.0,0000*55
$GPRMC,194252.000,A,4826.2617,N,00429.8670,W,0.00,264.49,290114,,,A*7B
$GPVTG,264.49,T,,M,0.00,N,0.0,K,A*00
$GPGGA,194253.000,4826.2617,N,00429.8670,W,1,07,1.1,73.5,M,52.1,M,0.0,0000*54
$GPGSA,A,3,15,22,12,24,18,17,26,,,,,,2.1,1.1,1.8*32
$GPGSV,3,1,10,24,77,312,27,15,56,160,31,12,39,211,31,18,32,260,27*7B
$GPGSV,3,2,10,17,30,073,20,22,25,298,22,26,19,136,24,28,06,044,*7C
$GPGSV,3,3,10,14,06,311,,25,04,221,*7A
$GPRMC,194253.000,A,4826.2617,N,00429.8670,W,0.00,264.49,290114,,,A*7A
$GPVTG,264.49,T,,M,0.00,N,0.0,K,A*00
$GPGGA,194254.000,4826.2617,N,00429.8670,W,1,07,1.1,73.5,M,52.1,M,0.0,0000*53
$GPRMC,194254.000,A,4826.2617,N,00429.8670,W,0.00,264.49,290114,,,A*7D
$GPVTG,264.49,T,,M,0.00,N,0.0,K,A*00
$GPGGA,194255.000,4826.2617,N,00429.8670,W,1,07,1.1,73.5,M,52.1,M,0.0,0000*52
$GPRMC,194255.000,A,4826.2617,N,00429.8670,W,0.00,264.49,290114,,,A*7C
$GPVTG,264.49,T,,M,0.00,N,0.0,K,A*00
$GPGGA,194256.000,4826.2617,N,00429.8670,W,1,07,1.1,73.5,M,52.1,M,0.0,0000*51
$GPRMC,194256.000,A,4826.2617,N,00429.8670,W,0.00,264.49,290114,,,A*7F
$GPVTG,264.49,T,,M,0.00,N,0.0,K,A*00
$GPGGA,194257.000,4826.2617,N,00429.8670,W,1,07,1.1,73.5,M,52.1,M,0.0,0000*50
$GPRMC,194257.000,A,4826.2617,N,00429.8670,W,0.00,264.49,290114,,,A*7E
$GPVTG,264.49,T,,M,0.00,N,0.0,K,A*00
$GPGGA,194258.000,4826.2617,N,00429.8670,W,1,07,1.1,73.5,M,52.1,M,0.0,0000*5F
$GPGSA,A,3,15,22,12,24,18,17,26,,,,,,2.1,1.1,1.8*32
$GPGSV,3,1,10,24,77,312,28,15,56,160,32,12,39,211,31,18,32,260,27*77
$GPGSV,3,2,10,17,30,073,21,22,25,298,22,26,19,136,24,28,06,044,*7D
$GPGSV,3,3,10,14,06,311,,25,04,221,*7A
$GPRMC,194258.000,A,4826.2617,N,00429.8670,W,0.00,264.49,290114,,,A*71
$GPVTG,264.49,T,,M,0.00,N,0.0,K,A*00
$GPGGA,194259.000,4826.2617,N,00429.8670,W,1,07,1.1,73.5,M,52.1,M,0.0,0000*5E
$GPRMC,194259.000,A,4826.2617,N,00429.8670,W,0.00,264.49,290114,,,A*70
$GPVTG,264.49,T,,M,0.00,N,0.0,K,A*00
$GPGGA,194300.000,4826.2617,N,00429.8670,W,1,07,1.1,73.5,M,52.1,M,0.0,0000*53
$GPRMC,194300.000,A,4826.2617,N,00429.8670,W,0.00,264.49,290114,,,A*7D
$GPVTG,264.49,T,,M,0.00,N,0.0,K,A*00
$GPGGA,194301.000,4826.2617,N,00429.8670,W,1,07,1.1,73.5,M,52.1,M,0.0,0000*52
$GPRMC,194301.000,A,4826.2617,N,00429.8670,W,0.00,264.49,290114,,,A*7C
$GPVTG,264.49,T,,M,0.00,N,0.0,K,A*00
$GPGGA,194302.000,4826.2617,N,00429.8670,W,1,07,1.1,73.5,M,52.1,M,0.0,0000*51
$GPRMC,194302.000,A,4826.2617,N,00429.8670,W,0.00,264.49,290114,,,A*7F
$GPVTG,264.49,T,,M,0.00,N,0.0,K,A*00
$GPGGA,194303.000,4826.2617,N,00429.8670,W,1,07,1.1,73.5,M,52.1,M,0.0,0000*50
$GPGSA,A,3,15,22,12,24,18,17,26,,,,,,2.1,1.1,1.8*32
$GPGSV,3,1,10,24,77,314,29,15,55,160,32,12,40,211,30,18,31,259,27*75
$GPGSV,3,2,10,17,30,072,21,22,25,298,22,26,18,136,24,14,06,311,*71
$GPGSV,3,3,10,28,06,044,,25,05,221,*77
$GPRMC,194303.000,A,4826.2617,N,00429.8670,W,0.00,264.49,290114,,,A*7E
$GPVTG,264.49,T,,M,0.00,N,0.0,K,A*00
$GPGGA,194304.000,4826.2617,N,00429.8670,W,1,07,1.1,73.5,M,52.1,M,0.0,0000*57
$GPRMC,194304.000,A,4826.2617,N,00429.8670,W,0.00,264.49,290114,,,A*79
$GPVTG,264.49,T,,M,0.00,N,0.0,K,A*00
$GPGGA,194305.000,4826.2617,N,00429.8670,W,1,07,1.1,73.5,M,52.1,M,0.0,0000*56
$GPRMC,194305.000,A,4826.2617,N,00429.8670,W,0.00,264.49,290114,,,A*78
$GPVTG,264.49,T,,M,0.00,N,0.0,K,A*00
$GPGGA,194306.000,4826.2617,N,00429.8670,W,1,07,1.1,73.5,M,52.1,M,0.0,0000*55
$GPRMC,194306.000,A,4826.2617,N,00429.8670,W,0.00,264.49,290114,,,A*7B
$GPVTG,264.49,T,,M,0.00,N,0.0,K,A*00
$GPGGA,194307.000,4826.2617,N,00429.8670,W,1,07,1.1,73.5,M,52.1,M,0.0,0000*54
$GPRMC,194307.000,A,4826.2617,N,00429.8670,W,0.00,264.49,290114,,,A*7A
$GPVTG,264.49,T,,M,0.00,N,0.0,K,A*00
$GPGGA,194308.000,4826.2617,N,00429.8670,W,1,07,1.1,73.5,M,52.1,M,0.0,0000*5B
$GPGSA,A,3,15,22,12,24,18,17,26,,,,,,2.1,1.1,1.8*32
$GPGSV,3,1,10,24,77,314,29,15,55,160,32,12,40,211,30,18,31,259,27*75
$GPGSV,3,2,10,17,30,072,21,22,25,298,22,26,18,136,24,14,06,311,*71
$GPGSV,3,3,10,28,06,044,,25,05,221,*77
$GPRMC,194308.000,A,4826.2617,N,00429.8670,W,0.00,264.49,290114,,,A*75
$GPVTG,264.49,T,,M,0.00,N,0.0,K,A*00
$GPGGA,194309.000,4826.2617,N,00429.8670,W,1,07,1.1,73.5,M,52.1,M,0.0,0000*5A
$GPRMC,194309.000,A,4826.2617,N,00429.8670,W,0.00,264.49,290114,,,A*74
$GPVTG,264.49,T,,M,0.00,N,0.0,K,A*00
$GPGGA,194310.000,4826.2617,N,00429.8670,W,1,07,1.1,73.5,M,52.1,M,0.0,0000*52
$GPRMC,194310.000,A,4826.2617,N,00429.8670,W,0.00,264.49,290114,,,A*7C
$GPVTG,264.49,T,,M,0.00,N,0.0,K,A*00
$GPGGA,194311.000,4826.2617,N,00429.8670,W,1,07,1.1,73.5,M,52.1,M,0.0,0000*53
$GPRMC,194311.000,A,4826.2617,N,00429.8670,W,0.00,264.49,290114,,,A*7D
$GPVTG,264.49,T,,M,0.00,N,0.0,K,A*00
$GPGGA,194312.000,4826.2617,N,00429.8670,W,1,07,1.1,73.5,M,52.1,M,0.0,0000*50
$GPRMC,194312.000,A,4826.2617,N,00429.8670,W,0.00,264.49,290114,,,A*7E
$GPVTG,264.49,T,,M,0.00,N,0.0,K,A*00
$GPGGA,194313.000,4826.2617,N,00429.8670,W,1,07,1.1,73.5,M,52.1,M,0.0,0000*51
$GPGSA,A,3,15,22,12,24,18,17,26,,,,,,2.1,1.1,1.8*32
$GPGSV,3,1,10,24,77,314,29,15,55,160,32,12,40,211,30,18,31,259,27*75
$GPGSV,3,2,10,17,30,072,21,22,25,298,22,26,18,136,23,14,06,311,*76
$GPGSV,3,3,10,28,06,044,,25,05,221,*77
$GPRMC,194313.000,A,4826.2617,N,00429.8670,W,0.00,264.49,290114,,,A*7F
$GPVTG,264.49,T,,M,0.00,N,0.0,K,A*00
$GPGGA,194314.000,4826.2617,N,00429.8670,W,1,07,1.1,73.5,M,52.1,M,0.0,0000*56
$GPRMC,194314.000,A,4826.2617,N,00429.8670,W,0.00,264.49,290114,,,A*78
$GPVTG,264.49,T,,M,0.00,N,0.0,K,A*00
$GPGGA,194315.000,4826.2617,N,00429.8670,W,1,07,1.1,73.5,M,52.1,M,0.0,0000*57
$GPRMC,194315.000,A,4826.2617,N,00429.8670,W,0.00,264.49,290114,,,A*79
$GPVTG,264.49,T,,M,0.00,N,0.0,K,A*00
$GPGGA,194316.000,4826.2617,N,00429.8670,W,1,07,1.1,73.5,M,52.1,M,0.0,0000*54
$GPRMC,194316.000,A,4826.2617,N,00429.8670,W,0.00,264.49,290114,,,A*7A
$GPVTG,264.49,T,,M,0.00,N,0.0,K,A*00
$GPGGA,194317.000,4826.2616,N,00429.8669,W,1,07,1.1,74.4,M,52.1,M,0.0,0000*5A
$GPRMC,194317.000,A,4826.2616,N,00429.8669,W,0.10,197.16,290114,,,A*76
$GPVTG,197.16,T,,M,0.10,N,0.2,K,A*06
$GPGGA,194318.000,4826.2615,N,00429.8668,W,1,07,1.1,75.3,M,52.1,M,0.0,0000*51
$GPGSA,A,3,15,22,12,24,18,17,26,,,,,,2.1,1.1,1.8*32
$GPGSV,3,1,10,24,77,314,30,15,55,160,31,12,40,211,30,18,31,259,28*71
$GPGSV,3,2,10,17,30,072,22,22,25,298,22,26,18,136,23,14,06,311,*75
$GPGSV,3,3,10,28,06,044,,25,05,221,*77
$GPRMC,194318.000,A,4826.2615,N,00429.8668,W,0.05,229.09,290114,,,A*77
$GPVTG,229.09,T,,M,0.05,N,0.1,K,A*09
$GPGGA,194319.000,4826.2614,N,00429.8667,W,1,07,1.1,76.0,M,52.1,M,0.0,0000*5E
$GPRMC,194319.000,A,4826.2614,N,00429.8667,W,0.07,192.23,290114,,,A*71
$GPVTG,192.23,T,,M,0.07,N,0.1,K,A*00
$GPGGA,194320.000,4826.2613,N,00429.8665,W,1,07,1.1,76.8,M,52.1,M,0.0,0000*59
$GPRMC,194320.000,A,4826.2613,N,00429.8665,W,0.00,192.23,290114,,,A*79
$GPVTG,192.23,T,,M,0.00,N,0.0,K,A*06
$GPGGA,194321.000,4826.2613,N,00429.8665,W,1,07,1.1,76.8,M,52.1,M,0.0,0000*58
$GPRMC,194321.000,A,4826.2613,N,00429.8665,W,0.00,192.23,290114,,,A*78
$GPVTG,192.23,T,,M,0.00,N,0.0,K,A*06
$GPGGA,194322.000,4826.2613,N,00429.8665,W,1,07,1.1,76.8,M,52.1,M,0.0,0000*5B
$GPRMC,194322.000,A,4826.2613,N,00429.8665,W,0.00,192.23,290114,,,A*7B
$GPVTG,192.23,T,,M,0.00,N,0.0,K,A*06
$GPGGA,194323.000,4826.2613,N,00429.8665,W,1,07,1.1,76.8,M,52.1,M,0.0,0000*5A
$GPGSA,A,3,15,22,12,24,18,17,26,,,,,,2.1,1.1,1.8*32
$GPGSV,3,1,10,24,77,314,30,15,55,160,31,12,40,211,30,18,31,259,28*71
$GPGSV,3,2,10,17,30,072,22,22,25,298,21,26,18,136,23,14,06,311,*76
$GPGSV,3,3,10,28,06,044,,25,05,221,*77
$GPRMC,194323.000,A,4826.2613,N,00429.8665,W,0.00,192.23,290114,,,A*7A
$GPVTG,192.23,T,,M,0.00,N,0.0,K,A*06
$GPGGA,194324.000,4826.2613,N,00429.8665,W,1,07,1.1,76.8,M,52.1,M,0.0,0000*5D
$GPRMC,194324.000,A,4826.2613,N,00429.8665,W,0.00,192.23,290114,,,A*7D
$GPVTG,192.23,T,,M,0.00,N,0.0,K,A*06
$GPGGA,194325.000,4826.2613,N,00429.8665,W,1,07,1.1,76.8,M,52.1,M,0.0,0000*5C
$GPRMC,194325.000,A,4826.2613,N,00429.8665,W,0.00,192.23,290114,,,A*7C
$GPVTG,192.23,T,,M,0.00,N,0.0,K,A*06
$GPGGA,194326.000,4826.2613,N,00429.8665,W,1,07,1.1,76.8,M,52.1,M,0.0,0000*5F
$GPRMC,194326.000,A,4826.2613,N,00429.8665,W,0.00,192.23,290114,,,A*7F
$GPVTG,192.23,T,,M,0.00,N,0.0,K,A*06
$GPGGA,194327.000,4826.2613,N,00429.8665,W,1,07,1.1,76.8,M,52.1,M,0.0,0000*5E
$GPRMC,194327.000,A,4826.2613,N,00429.8665,W,0.00,192.23,290114,,,A*7E
$GPVTG,192.23,T,,M,0.00,N,0.0,K,A*06
$GPGGA,194328.000,4826.2613,N,00429.8665,W,1,07,1.1,76.8,M,52.1,M,0.0,0000*51
$GPGSA,A,3,15,22,12,24,18,17,26,,,,,,2.1,1.1,1.8*32
$GPGSV,3,1,10,24,77,314,30,15,55,160,31,12,40,211,30,18,31,259,28*71
$GPGSV,3,2,10,17,30,072,23,22,25,298,21,26,18,136,23,14,06,311,*77
$GPGSV,3,3,10,28,06,044,,25,05,221,*77
$GPRMC,194328.000,A,4826.2613,N,00429.8665,W,0.00,192.23,290114,,,A*71
$GPVTG,192.23,T,,M,0.00,N,0.0,K,A*06
$GPGGA,194329.000,4826.2613,N,00429.8665,W,1,07,1.1,76.8,M,52.1,M,0.0,0000*50
$GPRMC,194329.000,A,4826.2613,N,00429.8665,W,0.00,192.23,290114,,,A*70
$GPVTG,192.23,T,,M,0.00,N,0.0,K,A*06
$GPGGA,194330.000,4826.2613,N,00429.8665,W,1,07,1.1,76.8,M,52.1,M,0.0,0000*58
$GPRMC,194330.000,A,4826.2613,N,00429.8665,W,0.00,192.23,290114,,,A*78
$GPVTG,192.23,T,,M,0.00,N,0.0,K,A*06
$GPGGA,194331.000,4826.2613,N,00429.8665,W,1,07,1.1,76.8,M,52.1,M,0.0,0000*59
$GPRMC,194331.000,A,4826.2613,N,00429.8665,W,0.00,192.23,290114,,,A*79
$GPVTG,192.23,T,,M,0.00,N,0.0,K,A*06
$GPGGA,194332.000,4826.2613,N,00429.8665,W,1,07,1.1,76.8,M,52.1,M,0.0,0000*5A
$GPRMC,194332.000,A,4826.2613,N,00429.8665,W,0.00,192.23,290114,,,A*7A
$GPVTG,192.23,T,,M,0.00,N,0.0,K,A*06
$GPGGA,194333.000,4826.2613,N,00429.8665,W,1,07,1.1,76.8,M,52.1,M,0.0,0000*5B
$GPGSA,A,3,15,22,12,24,18,17,26,,,,,,2.1,1.1,1.8*32
$GPGSV,3,1,10,24,77,315,31,15,55,160,31,12,40,211,30,18,31,259,29*70
$GPGSV,3,2,10,17,30,071,23,22,25,297,20,26,18,136,22,14,06,311,*7B
$GPGSV,3,3,10,28,05,044,,25,05,221,*74
$GPRMC,194333.000,A,4826.2613,N,00429.8665,W,0.00,192.23,290114,,,A*7B
$GPVTG,192.23,T,,M,0.00,N,0.0,K,A*06
$GPGGA,194334.000,4826.2613,N,00429.8665,W,1,07,1.1,76.8,M,52.1,M,0.0,0000*5C
$GPRMC,194334.000,A,4826.2613,N,00429.8665,W,0.00,192.23,290114,,,A*7C
$GPVTG,192.23,T,,M,0.00,N,0.0,K,A*06
$GPGGA,194335.000,4826.2613,N,00429.8665,W,1,07,1.1,76.8,M,52.1,M,0.0,0000*5D
$GPRMC,194335.000,A,4826.2613,N,00429.8665,W,0.00,192.23,290114,,,A*7D
$GPVTG,192.23,T,,M,0.00,N,0.0,K,A*06
$GPGGA,194336.000,4826.2613,N,00429.8665,W,1,07,1.1,76.8,M,52.1,M,0.0,0000*5E
$GPRMC,194336.000,A,4826.2613,N,00429.8665,W,0.00,192.23,290114,,,A*7E
$GPVTG,192.23,T,,M,0.00,N,0.0,K,A*06
$GPGGA,194337.000,4826.2613,N,00429.8665,W,1,07,1.1,76.8,M,52.1,M,0.0,0000*5F
$GPRMC,194337.000,A,4826.2613,N,00429.8665,W,0.00,192.23,290114,,,A*7F
$GPVTG,192.23,T,,M,0.00,N,0.0,K,A*06
$GPGGA,194338.000,4826.2613,N,00429.8665,W,1,07,1.1,76.8,M,52.1,M,0.0,0000*50
$GPGSA,A,3,15,22,12,24,18,17,26,,,,,,2.1,1.1,1.8*32
$GPGSV,3,1,10,24,77,315,31,15,55,160,31,12,40,211,30,18,31,259,29*70
$GPGSV,3,2,10,17,30,071,23,22,25,297,19,26,18,136,22,14,06,311,*71
$GPGSV,3,3,10,28,05,044,,25,05,221,*74
$GPRMC,194338.000,A,4826.2613,N,00429.8665,W,0.00,192.23,290114,,,A*70
$GPVTG,192.23,T,,M,0.00,N,0.0,K,A*06
$GPGGA,194339.000,4826.2613,N,00429.8665,W,1,07,1.1,76.8,M,52.1,M,0.0,0000*51
$GPRMC,194339.000,A,4826.2613,N,00429.8665,W,0.00,192.23,290114,,,A*71
$GPVTG,192.23,T,,M,0.00,N,0.0,K,A*06
$GPGGA,194340.000,4826.2613,N,00429.8665,W,1,07,1.1,76.8,M,52.1,M,0.0,0000*5F
$GPRMC,194340.000,A,4826.2613,N,00429.8665,W,0.00,192.23,290114,,,A*7F
$GPVTG,192.23,T,,M,0.00,N,0.0,K,A*06
$GPGGA,194341.000,4826.2613,N,00429.8665,W,1,07,1.1,76.8,M,52.1,M,0.0,0000*5E
$GPRMC,194341.000,A,4826.2613,N,00429.8665,W,0.00,192.23,290114,,,A*7E
$GPVTG,192.23,T,,M,0.00,N,0.0,K,A*06
$GPGGA,194342.000,4826.2613,N,00429.8665,W,1,07,1.1,76.8,M,52.1,M,0.0,0000*5D
$GPRMC,194342.000,A,4826.2613,N,00429.8665,W,0.00,192.23,290114,,,A*7D
$GPVTG,192.23,T,,M,0.00,N,0.0,K,A*06
$GPGGA,194343.000,4826.2613,N,00429.8665,W,1,07,1.1,76.8,M,52.1,M,0.0,0000*5C
$GPGSA,A,3,15,22,12,24,18,17,26,,,,,,2.1,1.1,1.8*32
$GPGSV,3,1,10,24,77,315,31,15,55,160,30,12,40,211,30,18,31,259,29*71
$GPGSV,3,2,10,17,30,071,23,22,25,297,19,26,18,136,21,14,06,311,*72
$GPGSV,3,3,10,28,05,044,,25,05,221,*74
$GPRMC,194343.000,A,4826.2613,N,00429.8665,W,0.00,192.23,290114,,,A*7C
$GPVTG,192.23,T,,M,0.00,N,0.0,K,A*06
$GPGGA,194344.000,4826.2613,N,00429.8665,W,1,07,1.1,76.8,M,52.1,M,0.0,0000*5B
$GPRMC,194344.000,A,4826.2613,N,00429.8665,W,0.00,192.23,290114,,,A*7B
$GPVTG,192.23,T,,M,0.00,N,0.0,K,A*06
$GPGGA,194345.000,4826.2613,N,00429.8665,W,1,07,1.1,76.8,M,52.1,M,0.0,0000*5A
$GPRMC,194345.000,A,4826.2613,N,00429.8665,W,0.00,192.23,290114,,,A*7A
$GPVTG,192.23,T,,M,0.00,N,0.0,K,A*06
$GPGGA,194346.000,4826.2613,N,00429.8665,W,1,07,1.1,76.8,M,52.1,M,0.0,0000*59
$GPRMC,194346.000,A,4826.2613,N,00429.8665,W,0.00,192.23,290114,,,A*79
$GPVTG,192.23,T,,M,0.00,N,0.0,K,A*06
$GPGGA,194347.000,4826.2613,N,00429.8665,W,1,07,1.1,76.8,M,52.1,M,0.0,0000*58
$GPRMC,194347.000,A,4826.2613,N,00429.8665,W,0.00,192.23,290114,,,A*78
$GPVTG,192.23,T,,M,0.00,N,0.0,K,A*06
$GPGGA,194348.000,4826.2613,N,00429.8665,W,1,06,1.4,76.8,M,52.1,M,0.0,0000*53
$GPGSA,A,3,15,12,24,18,17,26,,,,,,,2.5,1.4,2.1*39
$GPGSV,3,1,10,24,77,315,31,15,55,160,30,12,40,211,31,18,31,259,29*70
$GPGSV,3,2,10,17,30,071,23,22,25,297,13,26,18,136,21,14,06,311,*78
$GPGSV,3,3,10,28,05,044,,25,05,221,*74
$GPRMC,194348.000,A,4826.2613,N,00429.8665,W,0.00,192.23,290114,,,A*77
$GPVTG,192.23,T,,M,0.00,N,0.0,K,A*06
$GPGGA,194349.000,4826.2613,N,00429.8665,W,1,06,1.4,76.8,M,52.1,M,0.0,0000*52
$GPRMC,194349.000,A,4826.2613,N,00429.8665,W,0.00,192.23,290114,,,A*76
$GPVTG,192.23,T,,M,0.00,N,0.0,K,A*06
$GPGGA,194350.000,4826.2613,N,00429.8665,W,1,06,1.4,76.8,M,52.1,M,0.0,0000*5A
$GPRMC,194350.000,A,4826.2613,N,00429.8665,W,0.00,192.23,290114,,,A*7E
$GPVTG,192.23,T,,M,0.00,N,0.0,K,A*06
$GPGGA,194351.000,4826.2613,N,00429.8665,W,1,06,1.4,76.8,M,52.1,M,0.0,0000*5B
$GPRMC,194351.000,A,4826.2613,N,00429.8665,W,0.00,192.23,290114,,,A*7F
$GPVTG,192.23,T,,M,0.00,N,0.0,K,A*06
$GPGGA,194352.000,4826.2613,N,00429.8665,W,1,06,1.4,76.8,M,52.1,M,0.0,0000*58
$GPRMC,194352.000,A,4826.2613,N,00429.8665,W,0.00,192.23,290114,,,A*7C
$GPVTG,192.23,T,,M,0.00,N,0.0,K,A*06
$GPGGA,194353.000,4826.2613,N,00429.8665,W,1,06,1.4,76.8,M,52.1,M,0.0,0000*59
$GPGSA,A,3,15,12,24,18,17,26,,,,,,,2.5,1.4,2.1*39
$GPGSV,3,1,10,24,77,315,30,15,55,160,30,12,40,211,30,18,31,259,29*70
$GPGSV,3,2,10,17,30,071,23,22,25,297,14,26,18,136,21,14,06,311,*7F
$GPGSV,3,3,10,28,05,044,,25,05,221,*74
$GPRMC,194353.000,A,4826.2613,N,00429.8665,W,0.00,192.23,290114,,,A*7D
$GPVTG,192.23,T,,M,0.00,N,0.0,K,A*06
$GPGGA,194354.000,4826.2613,N,00429.8665,W,1,06,1.4,76.8,M,52.1,M,0.0,0000*5E
$GPRMC,194354.000,A,4826.2613,N,00429.8665,W,0.00,192.23,290114,,,A*7A
$GPVTG,192.23,T,,M,0.00,N,0.0,K,A*06
$GPGGA,194355.000,4826.2613,N,00429.8665,W,1,06,1.4,76.8,M,52.1,M,0.0,0000*5F
$GPRMC,194355.000,A,4826.2613,N,00429.8665,W,0.00,192.23,290114,,,A*7B
$GPVTG,192.23,T,,M,0.00,N,0.0,K,A*06
$GPGGA,194356.000,4826.2613,N,00429.8665,W,1,06,1.4,76.8,M,52.1,M,0.0,0000*5C
$GPRMC,194356.000,A,4826.2613,N,00429.8665,W,0.00,192.23,290114,,,A*78
$GPVTG,192.23,T,,M,0.00,N,0.0,K,A*06
$GPGGA,194357.000,4826.2613,N,00429.8665,W,1,06,1.4,76.8,M,52.1,M,0.0,0000*5D
$GPRMC,194357.000,A,4826.2613,N,00429.8665,W,0.00,192.23,290114,,,A*79
$GPVTG,192.23,T,,M,0.00,N,0.0,K,A*06
$GPGGA,194358.000,4826.2613,N,00429.8665,W,1,06,1.4,76.8,M,52.1,M,0.0,0000*52
$GPGSA,A,3,15,12,24,18,17,26,,,,,,,2.5,1.4,2.1*39
$GPGSV,3,1,10,24,77,315,30,15,55,160,30,12,40,211,30,18,31,259,29*70
$GPGSV,3,2,10,17,30,071,23,22,25,297,13,26,18,136,21,14,06,311,*78
$GPGSV,3,3,10,28,05,044,,25,05,221,*74
$GPRMC,194358.000,A,4826.2613,N,00429.8665,W,0.00,192.23,290114,,,A*76
$GPVTG,192.23,T,,M,0.00,N,0.0,K,A*06
$GPGGA,194359.000,4826.2613,N,00429.8665,W,1,06,1.4,76.8,M,52.1,M,0.0,0000*53
$GPRMC,194359.000,A,4826.2613,N,00429.8665,W,0.00,192.23,290114,,,A*77
$GPVTG,192.23,T,,M,0.00,N,0.0,K,A*06
$GPGGA,194400.000,4826.2613,N,00429.8665,W,1,06,1.4,76.8,M,52.1,M,0.0,0000*58
$GPRMC,194400.000,A,4826.2613,N,00429.8665,W,0.00,192.23,290114,,,A*7C
$GPVTG,192.23,T,,M,0.00,N,0.0,K,A*06
$GPGGA,194401.000,4826.2613,N,00429.8665,W,1,06,1.4,76.8,M,52.1,M,0.0,0000*59
$GPRMC,194401.000,A,4826.2613,N,00429.8665,W,0.00,192.23,290114,,,A*7D
$GPVTG,192.23,T,,M,0.00,N,0.0,K,A*06
$GPGGA,194402.000,4826.2613,N,00429.8665,W,1,06,1.4,76.8,M,52.1,M,0.0,0000*5A
$GPRMC,194402.000,A,4826.2613,N,00429.8665,W,0.00,192.23,290114,,,A*7E
$GPVTG,192.23,T,,M,0.00,N,0.0,K,A*06
$GPGGA,194403.000,4826.2613,N,00429.8665,W,1,06,1.4,76.8,M,52.1,M,0.0,0000*5B
$GPGSA,A,3,15,12,24,18,17,26,,,,,,,2.5,1.4,2.1*39
$GPGSV,3,1,10,24,77,315,29,15,55,160,29,12,40,211,31,18,31,259,29*71
$GPGSV,3,2,10,17,30,071,23,22,25,297,14,26,18,136,20,14,06,311,*7E
$GPGSV,3,3,10,28,05,044,,25,05,221,*74
$GPRMC,194403.000,A,4826.2613,N,00429.8665,W,0.00,192.23,290114,,,A*7F
$GPVTG,192.23,T,,M,0.00,N,0.0,K,A*06
$GPGGA,194404.000,4826.2613,N,00429.8665,W,1,06,1.4,76.8,M,52.1,M,0.0,0000*5C
$GPRMC,194404.000,A,4826.2613,N,00429.8665,W,0.00,192.23,290114,,,A*78
$GPVTG,192.23,T,,M,0.00,N,0.0,K,A*06
$GPGGA,194405.000,4826.2613,N,00429.8665,W,1,06,1.4,76.8,M,52.1,M,0.0,0000*5D
$GPRMC,194405.000,A,4826.2613,N,00429.8665,W,0.00,192.23,290114,,,A*79
$GPVTG,192.23,T,,M,0.00,N,0.0,K,A*06
$GPGGA,194406.000,4826.2613,N,00429.8665,W,1,06,1.4,76.8,M,52.1,M,0.0,0000*5E
$GPRMC,194406.000,A,4826.2613,N,00429.8665,W,0.00,192.23,290114,,,A*7A
$GPVTG,192.23,T,,M,0.00,N,0.0,K,A*06
$GPGGA,194407.000,4826.2613,N,00429.8665,W,1,06,1.4,76.8,M,52.1,M,0.0,0000*5F
$GPRMC,194407.000,A,4826.2613,N,00429.8665,W,0.00,192.23,290114,,,A*7B
$GPVTG,192.23,T,,M,0.00,N,0.0,K,A*06
$GPGGA,194408.000,4826.2613,N,00429.8665,W,1,06,1.4,76.8,M,52.1,M,0.0,0000*50
$GPGSA,A,3,15,12,24,18,17,26,,,,,,,2.5,1.4,2.1*39
$GPGSV,3,1,10,24,77,315,29,15,55,160,29,12,40,211,31,18,31,259,30*79
$GPGSV,3,2,10,17,30,071,23,22,25,297,14,26,18,136,20,14,06,311,*7E
$GPGSV,3,3,10,28,05,044,,25,05,221,*74
$GPRMC,194408.000,A,4826.2613,N,00429.8665,W,0.00,192.23,290114,,,A*74
$GPVTG,192.23,T,,M,0.00,N,0.0,K,A*06
$GPGGA,194409.000,4826.2613,N,00429.8665,W,1,06,1.4,76.8,M,52.1,M,0.0,0000*51
$GPRMC,194409.000,A,4826.2613,N,00429.8665,W,0.00,192.23,290114,,,A*75
$GPVTG,192.23,T,,M,0.00,N,0.0,K,A*06
$GPGGA,194410.000,4826.2613,N,00429.8665,W,1,06,1.4,76.8,M,52.1,M,0.0,0000*59
$GPRMC,194410.000,A,4826.2613,N,00429.8665,W,0.00,192.23,290114,,,A*7D
$GPVTG,192.23,T,,M,0.00,N,0.0,K,A*06
$GPGGA,194411.000,4826.2613,N,00429.8665,W,1,06,1.4,76.8,M,52.1,M,0.0,0000*58
$GPRMC,194411.000,A,4826.2613,N,00429.8665,W,0.00,192.23,290114,,,A*7C
$GPVTG,192.23,T,,M,0.00,N,0.0,K,A*06
$GPGGA,194412.000,4826.2613,N,00429.8665,W,1,06,1.4,76.8,M,52.1,M,0.0,0000*5B
$GPRMC,194412.000,A,4826.2613,N,00429.8665,W,0.00,192.23,290114,,,A*7F
$GPVTG,192.23,T,,M,0.00,N,0.0,K,A*06
$GPGGA,194413.000,4826.2613,N,00429.8665,W,1,06,1.4,76.8,M,52.1,M,0.0,0000*5A
$GPGSA,A,3,15,12,24,18,17,26,,,,,,,2.5,1.4,2.1*39
$GPGSV,3,1,10,24,77,315,29,15,55,160,29,12,40,211,31,18,31,259,30*79
$GPGSV,3,2,10,17,30,071,22,22,25,297,12,26,18,136,20,14,06,311,*79
$GPGSV,3,3,10,28,05,044,,25,05,221,*74
$GPRMC,194413.000,A,4826.2613,N,00429.8665,W,0.00,192.23,290114,,,A*7E
$GPVTG,192.23,T,,M,0.00,N,0.0,K,A*06
$GPGGA,194414.000,4826.2613,N,00429.8665,W,1,06,1.4,76.8,M,52.1,M,0.0,0000*5D
$GPRMC,194414.000,A,4826.2613,N,00429.8665,W,0.00,192.23,290114,,,A*79
$GPVTG,192.23,T,,M,0.00,N,0.0,K,A*06
$GPGGA,194415.000,4826.2613,N,00429.8665,W,1,06,1.4,76.8,M,52.1,M,0.0,0000*5C
$GPRMC,194415.000,A,4826.2613,N,00429.8665,W,0.00,192.23,290114,,,A*78
$GPVTG,192.23,T,,M,0.00,N,0.0,K,A*06
$GPGGA,194416.000,4826.2613,N,00429.8665,W,1,06,1.4,76.8,M,52.1,M,0.0,0000*5F
$GPRMC,194416.000,A,4826.2613,N,00429.8665,W,0.00,192.23,290114,,,A*7B
$GPVTG,192.23,T,,M,0.00,N,0.0,K,A*06
$GPGGA,194417.000,4826.2613,N,00429.8665,W,1,06,1.4,76.8,M,52.1,M,0.0,0000*5E
$GPRMC,194417.000,A,4826.2613,N,00429.8665,W,0.00,192.23,290114,,,A*7A
$GPVTG,192.23,T,,M,0.00,N,0.0,K,A*06
$GPGGA,194418.000,4826.2613,N,00429.8665,W,1,06,1.4,76.8,M,52.1,M,0.0,0000*51
$GPGSA,A,3,15,12,24,18,17,26,,,,,,,2.5,1.4,2.1*39
$GPGSV,3,1,10,24,77,315,29,15,55,160,29,12,40,211,31,18,31,259,30*79
$GPGSV,3,2,10,17,30,071,22,22,25,297,,26,18,136,20,14,06,311,*7A
$GPGSV,3,3,10,28,05,044,,25,05,221,*74
$GPRMC,194418.000,A,4826.2613,N,00429.8665,W,0.00,192.23,290114,,,A*75
$GPVTG,192.23,T,,M,0.00,N,0.0,K,A*06
$GPGGA,194419.000,4826.2613,N,00429.8665,W,1,06,1.4,76.8,M,52.1,M,0.0,0000*50
$GPRMC,194419.000,A,4826.2613,N,00429.8665,W,0.00,192.23,290114,,,A*74
$GPVTG,192.23,T,,M,0.00,N,0.0,K,A*06
$GPGGA,194420.000,4826.2613,N,00429.8665,W,1,06,1.4,76.8,M,52.1,M,0.0,0000*5A
$GPRMC,194420.000,A,4826.2613,N,00429.8665,W,0.00,192.23,290114,,,A*7E
$GPVTG,192.23,T,,M,0.00,N,0.0,K,A*06
$GPGGA,194421.000,4826.2613,N,00429.8665,W,1,06,1.4,76.8,M,52.1,M,0.0,0000*5B
$GPRMC,194421.000,A,4826.2613,N,00429.8665,W,0.00,192.23,290114,,,A*7F
$GPVTG,192.23,T,,M,0.00,N,0.0,K,A*06
$GPGGA,194422.000,4826.2615,N,00429.8656,W,1,06,1.4,76.1,M,52.1,M,0.0,0000*57
$GPRMC,194422.000,A,4826.2615,N,00429.8656,W,0.76,75.34,290114,,,A*45
$GPVTG,75.34,T,,M,0.76,N,1.4,K,A*3C
$GPGGA,194423.000,4826.2616,N,00429.8648,W,1,05,1.6,75.3,M,52.1,M,0.0,0000*5A
$GPGSA,A,3,15,12,24,18,17,,,,,,,,3.0,1.6,2.5*3F
$GPGSV,3,1,10,24,77,315,29,15,55,160,29,12,40,211,30,18,31,259,30*78
$GPGSV,3,2,10,17,30,071,21,22,25,297,,26,18,136,19,14,06,311,*73
$GPGSV,3,3,10,28,05,044,,25,05,221,*74
$GPRMC,194423.000,A,4826.2616,N,00429.8648,W,0.63,92.60,290114,,,A*44
$GPVTG,92.60,T,,M,0.63,N,1.2,K,A*36
$GPGGA,194424.000,4826.2618,N,00429.8641,W,1,06,1.4,74.6,M,52.1,M,0.0,0000*5F
$GPRMC,194424.000,A,4826.2618,N,00429.8641,W,0.13,96.42,290114,,,A*47
$GPVTG,96.42,T,,M,0.13,N,0.2,K,A*34
$GPGGA,194425.000,4826.2619,N,00429.8636,W,1,06,1.4,73.8,M,52.1,M,0.0,0000*56
$GPRMC,194425.000,A,4826.2619,N,00429.8636,W,0.00,96.42,290114,,,A*45
$GPVTG,96.42,T,,M,0.00,N,0.0,K,A*34
$GPGGA,194426.000,4826.2619,N,00429.8636,W,1,06,1.4,73.8,M,52.1,M,0.0,0000*55
$GPRMC,194426.000,A,4826.2619,N,00429.8636,W,0.00,96.42,290114,,,A*46
$GPVTG,96.42,T,,M,0.00,N,0.0,K,A*34
$GPGGA,194427.000,4826.2619,N,00429.8636,W,1,06,1.4,73.8,M,52.1,M,0.0,0000*54
$GPRMC,194427.000,A,4826.2619,N,00429.8636,W,0.00,96.42,290114,,,A*47
$GPVTG,96.42,T,,M,0.00,N,0.0,K,A*34
$GPGGA,194428.000,4826.2619,N,00429.8636,W,1,06,1.4,73.8,M,52.1,M,0.0,0000*5B
$GPGSA,A,3,15,12,24,18,17,26,,,,,,,2.5,1.4,2.1*39
$GPGSV,3,1,10,24,77,315,29,15,55,160,29,12,40,211,30,18,31,259,30*78
$GPGSV,3,2,10,17,30,071,21,22,25,297,,26,18,136,17,14,06,311,*7D
$GPGSV,3,3,10,28,05,044,,25,05,221,*74
$GPRMC,194428.000,A,4826.2619,N,00429.8636,W,0.00,96.42,290114,,,A*48
$GPVTG,96.42,T,,M,0.00,N,0.0,K,A*34
$GPGGA,194429.000,4826.2619,N,00429.8636,W,1,05,1.6,73.8,M,52.1,M,0.0,0000*5B
$GPRMC,194429.000,A,4826.2619,N,00429.8636,W,0.00,96.42,290114,,,A*49
$GPVTG,96.42,T,,M,0.00,N,0.0,K,A*34
$GPGGA,194430.000,4826.2619,N,00429.8636,W,1,05,1.6,73.8,M,52.1,M,0.0,0000*53
$GPRMC,194430.000,A,4826.2619,N,00429.8636,W,0.00,96.42,290114,,,A*41
$GPVTG,96.42,T,,M,0.00,N,0.0,K,A*34
$GPGGA,194431.000,4826.2619,N,00429.8636,W,1,05,1.6,73.8,M,52.1,M,0.0,0000*52
$GPRMC,194431.000,A,4826.2619,N,00429.8636,W,0.00,96.42,290114,,,A*40
$GPVTG,96.42,T,,M,0.00,N,0.0,K,A*34
$GPGGA,194432.000,4826.2619,N,00429.8636,W,1,05,1.6,73.8,M,52.1,M,0.0,0000*51
$GPRMC,194432.000,A,4826.2619,N,00429.8636,W,0.00,96.42,290114,,,A*43
$GPVTG,96.42,T,,M,0.00,N,0.0,K,A*34
$GPGGA,194433.000,4826.2619,N,00429.8636,W,1,05,1.6,73.8,M,52.1,M,0.0,0000*50
$GPGSA,A,3,15,12,24,18,17,,,,,,,,3.0,1.6,2.5*3F
$GPGSV,3,1,10,24,77,315,28,15,55,160,29,12,40,211,30,18,31,259,29*71
$GPGSV,3,2,10,17,30,071,21,22,25,297,,26,18,136,16,14,06,311,*7C
$GPGSV,3,3,10,28,05,044,,25,05,221,*74
$GPRMC,194433.000,A,4826.2619,N,00429.8636,W,0.00,96.42,290114,,,A*42
$GPVTG,96.42,T,,M,0.00,N,0.0,K,A*34
$GPGGA,194434.000,4826.2619,N,00429.8636,W,1,05,1.6,73.8,M,52.1,M,0.0,0000*57
$GPRMC,194434.000,A,4826.2619,N,00429.8636,W,0.00,96.42,290114,,,A*45
$GPVTG,96.42,T,,M,0.00,N,0.0,K,A*34
$GPGGA,194435.000,4826.2619,N,00429.8636,W,1,05,1.6,73.8,M,52.1,M,0.0,0000*56
$GPRMC,194435.000,A,4826.2619,N,00429.8636,W,0.00,96.42,290114,,,A*44
$GPVTG,96.42,T,,M,0.00,N,0.0,K,A*34
$GPGGA,194436.000,4826.2619,N,00429.8636,W,1,05,1.6,73.8,M,52.1,M,0.0,0000*55
$GPRMC,194436.000,A,4826.2619,N,00429.8636,W,0.00,96.42,290114,,,A*47
$GPVTG,96.42,T,,M,0.00,N,0.0,K,A*34
$GPGGA,194437.000,4826.2619,N,00429.8636,W,1,05,1.6,73.8,M,52.1,M,0.0,0000*54
$GPRMC,194437.000,A,4826.2619,N,00429.8636,W,0.00,96.42,290114,,,A*46
$GPVTG,96.42,T,,M,0.00,N,0.0,K,A*34
$GPGGA,194438.000,4826.2619,N,00429.8636,W,1,05,1.6,73.8,M,52.1,M,0.0,0000*5B
$GPGSA,A,3,15,12,24,18,17,,,,,,,,3.0,1.6,2.5*3F
$GPGSV,3,1,10,24,77,315,28,15,55,160,28,12,40,211,30,18,31,259,29*70
$GPGSV,3,2,10,17,30,071,21,22,25,297,,26,18,136,,14,06,311,*7B
$GPGSV,3,3,10,28,05,044,,25,05,221,*74
$GPRMC,194438.000,A,4826.2619,N,00429.8636,W,0.00,96.42,290114,,,A*49
$GPVTG,96.42,T,,M,0.00,N,0.0,K,A*34
$GPGGA,194439.000,4826.2619,N,00429.8636,W,1,05,1.6,73.8,M,52.1,M,0.0,0000*5A
$GPRMC,194439.000,A,4826.2619,N,00429.8636,W,0.00,96.42,290114,,,A*48
$GPVTG,96.42,T,,M,0.00,N,0.0,K,A*34
$GPGGA,194440.000,4826.2619,N,00429.8636,W,1,05,1.6,73.8,M,52.1,M,0.0,0000*54
$GPRMC,194440.000,A,4826.2619,N,00429.8636,W,0.00,96.42,290114,,,A*46
$GPVTG,96.42,T,,M,0.00,N,0.0,K,A*34
$GPGGA,194441.000,4826.2619,N,00429.8636,W,1,05,1.6,73.8,M,52.1,M,0.0,0000*55
$GPRMC,194441.000,A,4826.2619,N,00429.8636,W,0.00,96.42,290114,,,A*47
$GPVTG,96.42,T,,M,0.00,N,0.0,K,A*34
$GPGGA,194442.000,4826.2619,N,00429.8636,W,1,05,1.6,73.8,M,52.1,M,0.0,0000*56
$GPRMC,194442.000,A,4826.2619,N,00429.8636,W,0.00,96.42,290114,,,A*44
$GPVTG,96.42,T,,M,0.00,N,0.0,K,A*34
$GPGGA,194443.000,4826.2619,N,00429.8636,W,1,05,1.6,73.8,M,52.1,M,0.0,0000*57
$GPGSA,A,3,15,12,24,18,17,,,,,,,,3.0,1.6,2.5*3F
$GPGSV,3,1,10,24,77,315,28,15,55,160,28,12,40,211,30,18,31,259,29*70
$GPGSV,3,2,10,17,30,071,21,22,25,297,,26,18,136,,14,06,311,*7B
$GPGSV,3,3,10,28,05,044,,25,05,221,*74
$GPRMC,194443.000,A,4826.2619,N,00429.8636,W,0.00,96.42,290114,,,A*45
$GPVTG,96.42,T,,M,0.00,N,0.0,K,A*34
$GPGGA,194444.000,4826.2619,N,00429.8636,W,1,05,1.6,73.8,M,52.1,M,0.0,0000*50
$GPRMC,194444.000,A,4826.2619,N,00429.8636,W,0.00,96.42,290114,,,A*42
$GPVTG,96.42,T,,M,0.00,N,0.0,K,A*34
$GPGGA,194445.000,4826.2619,N,00429.8636,W,1,05,1.6,73.8,M,52.1,M,0.0,0000*51
$GPRMC,194445.000,A,4826.2619,N,00429.8636,W,0.00,96.42,290114,,,A*43
$GPVTG,96.42,T,,M,0.00,N,0.0,K,A*34
$GPGGA,194446.000,4826.2619,N,00429.8636,W,1,05,1.6,73.8,M,52.1,M,0.0,0000*52
$GPRMC,194446.000,A,4826.2619,N,00429.8636,W,0.00,96.42,290114,,,A*40
$GPVTG,96.42,T,,M,0.00,N,0.0,K,A*34
$GPGGA,194447.000,4826.2619,N,00429.8636,W,1,05,1.6,73.8,M,52.1,M,0.0,0000*53
$GPRMC,194447.000,A,4826.2619,N,00429.8636,W,0.00,96.42,290114,,,A*41
$GPVTG,96.42,T,,M,0.00,N,0.0,K,A*34
$GPGGA,194448.000,4826.2619,N,00429.8636,W,1,05,1.6,73.8,M,52.1,M,0.0,0000*5C
$GPGSA,A,3,15,12,24,18,17,,,,,,,,3.0,1.6,2.5*3F
$GPGSV,3,1,10,24,77,315,28,15,55,160,28,12,40,211,31,18,31,259,28*70
$GPGSV,3,2,10,17,30,071,21,22,25,297,,26,18,136,,14,06,311,*7B
$GPGSV,3,3,10,28,05,044,,25,05,221,*74
$GPRMC,194448.000,A,4826.2619,N,00429.8636,W,0.00,96.42,290114,,,A*4E
$GPVTG,96.42,T,,M,0.00,N,0.0,K,A*34
$GPGGA,194449.000,4826.2619,N,00429.8636,W,1,05,1.6,73.8,M,52.1,M,0.0,0000*5D
$GPRMC,194449.000,A,4826.2619,N,00429.8636,W,0.00,96.42,290114,,,A*4F
$GPVTG,96.42,T,,M,0.00,N,0.0,K,A*34
$GPGGA,194450.000,4826.2619,N,00429.8636,W,1,05,1.6,73.8,M,52.1,M,0.0,0000*55
$GPRMC,194450.000,A,4826.2619,N,00429.8636,W,0.00,96.42,290114,,,A*47
$GPVTG,96.42,T,,M,0.00,N,0.0,K,A*34
$GPGGA,194451.000,4826.2619,N,00429.8636,W,1,05,1.6,73.8,M,52.1,M,0.0,0000*54
$GPRMC,194451.000,A,4826.2619,N,00429.8636,W,0.00,96.42,290114,,,A*46
$GPVTG,96.42,T,,M,0.00,N,0.0,K,A*34
$GPGGA,194452.000,4826.2619,N,00429.8636,W,1,05,1.6,73.8,M,52.1,M,0.0,0000*57
$GPRMC,194452.000,A,4826.2619,N,00429.8636,W,0.00,96.42,290114,,,A*45
$GPVTG,96.42,T,,M,0.00,N,0.0,K,A*34
$GPGGA,194453.000,4826.2619,N,00429.8636,W,1,05,1.6,73.8,M,52.1,M,0.0,0000*56
$GPGSA,A,3,15,12,24,18,17,,,,,,,,3.0,1.6,2.5*3F
$GPGSV,3,1,10,24,77,315,28,15,55,160,28,12,40,211,31,18,31,259,28*70
$GPGSV,3,2,10,17,30,071,20,22,25,297,16,26,18,136,,14,06,311,*7D
$GPGSV,3,3,10,28,05,044,,25,05,221,*74
$GPRMC,194453.000,A,4826.2619,N,00429.8636,W,0.00,96.42,290114,,,A*44
$GPVTG,96.42,T,,M,0.00,N,0.0,K,A*34
$GPGGA,194454.000,4826.2619,N,00429.8636,W,1,05,1.6,73.8,M,52.1,M,0.0,0000*51
$GPRMC,194454.000,A,4826.2619,N,00429.8636,W,0.00,96.42,290114,,,A*43
$GPVTG,96.42,T,,M,0.00,N,0.0,K,A*34
$GPGGA,194455.000,4826.2619,N,00429.8636,W,1,05,1.6,73.8,M,52.1,M,0.0,0000*50
$GPRMC,194455.000,A,4826.2619,N,00429.8636,W,0.00,96.42,290114,,,A*42
$GPVTG,96.42,T,,M,0.00,N,0.0,K,A*34
$GPGGA,194456.000,4826.2619,N,00429.8636,W,1,05,1.6,73.8,M,52.1,M,0.0,0000*53
$GPRMC,194456.000,A,4826.2619,N,00429.8636,W,0.00,96.42,290114,,,A*41
$GPVTG,96.42,T,,M,0.00,N,0.0,K,A*34
$GPGGA,194457.000,4826.2619,N,00429.8636,W,1,05,1.6,73.8,M,52.1,M,0.0,0000*52
$GPRMC,194457.000,A,4826.2619,N,00429.8636,W,0.00,96.42,290114,,,A*40
$GPVTG,96.42,T,,M,0.00,N,0.0,K,A*34
$GPGGA,194458.000,4826.2619,N,00429.8636,W,1,05,1.6,73.8,M,52.1,M,0.0,0000*5D
$GPGSA,A,3,15,12,24,18,17,,,,,,,,3.0,1.6,2.5*3F
$GPGSV,3,1,10,24,77,315,28,15,55,160,28,12,40,211,31,18,31,259,27*7F
$GPGSV,3,2,10,17,30,071,21,22,25,297,16,26,18,136,,14,06,311,*7C
$GPGSV,3,3,10,28,05,044,,25,05,221,*74
$GPRMC,194458.000,A,4826.2619,N,00429.8636,W,0.00,96.42,290114,,,A*4F
$GPVTG,96.42,T,,M,0.00,N,0.0,K,A*34
$GPGGA,194459.000,4826.2619,N,00429.8636,W,1,05,1.6,73.8,M,52.1,M,0.0,0000*5C
$GPRMC,194459.000,A,4826.2619,N,00429.8636,W,0.00,96.42,290114,,,A*4E
$GPVTG,96.42,T,,M,0.00,N,0.0,K,A*34
$GPGGA,194500.000,4826.2619,N,00429.8636,W,1,05,1.6,73.8,M,52.1,M,0.0,0000*51
$GPRMC,194500.000,A,4826.2619,N,00429.8636,W,0.00,96.42,290114,,,A*43
$GPVTG,96.42,T,,M,0.00,N,0.0,K,A*34
$GPGGA,194501.000,4826.2619,N,00429.8636,W,1,05,1.6,73.8,M,52.1,M,0.0,0000*50
$GPRMC,194501.000,A,4826.2619,N,00429.8636,W,0.00,96.42,290114,,,A*42
$GPVTG,96.42,T,,M,0.00,N,0.0,K,A*34
$GPGGA,194502.000,4826.2619,N,00429.8636,W,1,05,1.6,73.8,M,52.1,M,0.0,0000*53
$GPRMC,194502.000,A,4826.2619,N,00429.8636,W,0.00,96.42,290114,,,A*41
$GPVTG,96.42,T,,M,0.00,N,0.0,K,A*34
$GPGGA,194503.000,4826.2619,N,00429.8636,W,1,05,1.6,73.8,M,52.1,M,0.0,0000*52
$GPGSA,A,3,15,12,24,18,17,,,,,,,,3.0,1.6,2.5*3F
$GPGSV,3,1,10,24,77,315,27,15,55,160,29,12,40,211,31,18,31,259,27*71
$GPGSV,3,2,10,17,30,071,22,22,25,297,15,26,18,136,,14,06,311,*7C
$GPGSV,3,3,10,28,05,044,,25,05,221,*74
$GPRMC,194503.000,A,4826.2619,N,00429.8636,W,0.00,96.42,290114,,,A*40
$GPVTG,96.42,T,,M,0.00,N,0.0,K,A*34
$GPGGA,194504.000,4826.2619,N,00429.8636,W,1,05,1.6,73.8,M,52.1,M,0.0,0000*55
$GPRMC,194504.000,A,4826.2619,N,00429.8636,W,0.00,96.42,290114,,,A*47
$GPVTG,96.42,T,,M,0.00,N,0.0,K,A*34
$GPGGA,194505.000,4826.2619,N,00429.8636,W,1,05,1.6,73.8,M,52.1,M,0.0,0000*54
$GPRMC,194505.000,A,4826.2619,N,00429.8636,W,0.00,96.42,290114,,,A*46
$GPVTG,96.42,T,,M,0.00,N,0.0,K,A*34
$GPGGA,194506.000,4826.2618,N,00429.8636,W,1,05,1.6,75.1,M,52.1,M,0.0,0000*59
$GPRMC,194506.000,A,4826.2618,N,00429.8636,W,0.11,249.67,290114,,,A*73
$GPVTG,249.67,T,,M,0.11,N,0.2,K,A*01
$GPGGA,194507.000,4826.2616,N,00429.8636,W,1,05,1.6,76.4,M,52.1,M,0.0,0000*50
$GPRMC,194507.000,A,4826.2616,N,00429.8636,W,0.05,332.18,290114,,,A*7C
$GPVTG,332.18,T,,M,0.05,N,0.1,K,A*02
$GPGGA,194508.000,4826.2615,N,00429.8636,W,1,05,1.6,77.6,M,52.1,M,0.0,0000*5F
$GPGSA,A,3,15,12,24,18,17,,,,,,,,3.0,1.6,2.5*3F
$GPGSV,3,1,10,24,77,315,27,15,55,160,29,12,40,211,31,18,31,259,27*71
$GPGSV,3,2,10,17,30,071,22,22,25,297,15,26,18,136,,14,06,311,*7C
$GPGSV,3,3,10,28,05,044,,25,05,221,*74
$GPRMC,194508.000,A,4826.2615,N,00429.8636,W,0.18,26.39,290114,,,A*49
$GPVTG,26.39,T,,M,0.18,N,0.3,K,A*39
$GPGGA,194509.000,4826.2614,N,00429.8636,W,1,05,1.6,78.6,M,52.1,M,0.0,0000*50
$GPRMC,194509.000,A,4826.2614,N,00429.8636,W,0.00,26.39,290114,,,A*40
$GPVTG,26.39,T,,M,0.00,N,0.0,K,A*33
$GPGGA,194510.000,4826.2614,N,00429.8636,W,1,05,1.6,78.6,M,52.1,M,0.0,0000*58
$GPRMC,194510.000,A,4826.2614,N,00429.8636,W,0.00,26.39,290114,,,A*48
$GPVTG,26.39,T,,M,0.00,N,0.0,K,A*33
$GPGGA,194511.000,4826.2614,N,00429.8636,W,1,05,1.6,78.6,M,52.1,M,0.0,0000*59
$GPRMC,194511.000,A,4826.2614,N,00429.8636,W,0.00,26.39,290114,,,A*49
$GPVTG,26.39,T,,M,0.00,N,0.0,K,A*33
$GPGGA,194512.000,4826.2614,N,00429.8636,W,1,05,1.6,78.6,M,52.1,M,0.0,0000*5A
$GPRMC,194512.000,A,4826.2614,N,00429.8636,W,0.00,26.39,290114,,,A*4A
$GPVTG,26.39,T,,M,0.00,N,0.0,K,A*33
$GPGGA,194513.000,4826.2614,N,00429.8636,W,1,05,1.6,78.6,M,52.1,M,0.0,0000*5B
$GPGSA,A,3,15,12,24,18,17,,,,,,,,3.0,1.6,2.5*3F
$GPGSV,3,1,10,24,77,315,27,15,55,160,29,12,40,211,30,18,31,259,28*7F
$GPGSV,3,2,10,17,30,071,22,22,25,297,16,26,18,136,,14,06,311,*7F
$GPGSV,3,3,10,28,05,044,,25,05,221,*74
$GPRMC,194513.000,A,4826.2614,N,00429.8636,W,0.00,26.39,290114,,,A*4B
$GPVTG,26.39,T,,M,0.00,N,0.0,K,A*33
$GPGGA,194514.000,4826.2614,N,00429.8636,W,1,05,1.6,78.6,M,52.1,M,0.0,0000*5C
$GPRMC,194514.000,A,4826.2614,N,00429.8636,W,0.00,26.39,290114,,,A*4C
$GPVTG,26.39,T,,M,0.00,N,0.0,K,A*33
$GPGGA,194515.000,4826.2614,N,00429.8636,W,1,05,1.6,78.6,M,52.1,M,0.0,0000*5D
$GPRMC,194515.000,A,4826.2614,N,00429.8636,W,0.00,26.39,290114,,,A*4D
$GPVTG,26.39,T,,M,0.00,N,0.0,K,A*33
$GPGGA,194516.000,4826.2614,N,00429.8636,W,1,06,1.3,78.6,M,52.1,M,0.0,0000*58
$GPRMC,194516.000,A,4826.2614,N,00429.8636,W,0.00,26.39,290114,,,A*4E
$GPVTG,26.39,T,,M,0.00,N,0.0,K,A*33
$GPGGA,194517.000,4826.2614,N,00429.8636,W,1,06,1.3,78.6,M,52.1,M,0.0,0000*59
$GPRMC,194517.000,A,4826.2614,N,00429.8636,W,0.00,26.39,290114,,,A*4F
$GPVTG,26.39,T,,M,0.00,N,0.0,K,A*33
$GPGGA,194518.000,4826.2614,N,00429.8636,W,1,06,1.3,78.6,M,52.1,M,0.0,0000*56
$GPGSA,A,3,15,22,12,24,18,17,,,,,,,2.7,1.3,2.3*3A
$GPGSV,3,1,10,24,77,315,28,15,55,160,30,12,40,211,30,18,31,259,28*78
$GPGSV,3,2,10,17,30,071,21,22,25,297,18,26,18,136,,14,06,311,*72
$GPGSV,3,3,10,28,05,044,,25,05,221,*74
$GPRMC,194518.000,A,4826.2614,N,00429.8636,W,0.00,26.39,290114,,,A*40
$GPVTG,26.39,T,,M,0.00,N,0.0,K,A*33
$GPGGA,194519.000,4826.2614,N,00429.8636,W,1,06,1.3,78.6,M,52.1,M,0.0,0000*57
$GPRMC,194519.000,A,4826.2614,N,00429.8636,W,0.00,26.39,290114,,,A*41
$GPVTG,26.39,T,,M,0.00,N,0.0,K,A*33
$GPGGA,194520.000,4826.2614,N,00429.8636,W,1,06,1.3,78.6,M,52.1,M,0.0,0000*5D
$GPRMC,194520.000,A,4826.2614,N,00429.8636,W,0.00,26.39,290114,,,A*4B
$GPVTG,26.39,T,,M,0.00,N,0.0,K,A*33
$GPGGA,194521.000,4826.2614,N,00429.8636,W,1,06,1.3,78.6,M,52.1,M,0.0,0000*5C
$GPRMC,194521.000,A,4826.2614,N,00429.8636,W,0.00,26.39,290114,,,A*4A
$GPVTG,26.39,T,,M,0.00,N,0.0,K,A*33
$GPGGA,194522.000,4826.2614,N,00429.8636,W,1,06,1.3,78.6,M,52.1,M,0.0,0000*5F
$GPRMC,194522.000,A,4826.2614,N,00429.8636,W,0.00,26.39,290114,,,A*49
$GPVTG,26.39,T,,M,0.00,N,0.0,K,A*33
$GPGGA,194523.000,4826.2614,N,00429.8636,W,1,06,1.3,78.6,M,52.1,M,0.0,0000*5E
$GPGSA,A,3,15,22,12,24,18,17,,,,,,,2.7,1.3,2.3*3A
$GPGSV,3,1,10,24,77,315,28,15,55,160,30,12,40,211,30,18,31,259,28*78
$GPGSV,3,2,10,17,30,071,20,22,25,297,20,26,18,136,,14,06,311,*78
$GPGSV,3,3,10,28,05,044,,25,05,221,*74
$GPRMC,194523.000,A,4826.2614,N,00429.8636,W,0.00,26.39,290114,,,A*48
$GPVTG,26.39,T,,M,0.00,N,0.0,K,A*33
$GPGGA,194524.000,4826.2614,N,00429.8636,W,1,06,1.3,78.6,M,52.1,M,0.0,0000*59
$GPRMC,194524.000,A,4826.2614,N,00429.8636,W,0.00,26.39,290114,,,A*4F
$GPVTG,26.39,T,,M,0.00,N,0.0,K,A*33
$GPGGA,194525.000,4826.2614,N,00429.8636,W,1,06,1.3,78.6,M,52.1,M,0.0,0000*58
$GPRMC,194525.000,A,4826.2614,N,00429.8636,W,0.00,26.39,290114,,,A*4E
$GPVTG,26.39,T,,M,0.00,N,0.0,K,A*33
$GPGGA,194526.000,4826.2614,N,00429.8636,W,1,06,1.3,78.6,M,52.1,M,0.0,0000*5B
$GPRMC,194526.000,A,4826.2614,N,00429.8636,W,0.00,26.39,290114,,,A*4D
$GPVTG,26.39,T,,M,0.00,N,0.0,K,A*33
$GPGGA,194527.000,4826.2614,N,00429.8636,W,1,06,1.3,78.6,M,52.1,M,0.0,0000*5A
$GPRMC,194527.000,A,4826.2614,N,00429.8636,W,0.00,26.39,290114,,,A*4C
$GPVTG,26.39,T,,M,0.00,N,0.0,K,A*33
$GPGGA,194528.000,4826.2614,N,00429.8636,W,1,06,1.3,78.6,M,52.1,M,0.0,0000*55
$GPGSA,A,3,15,22,12,24,18,17,,,,,,,2.7,1.3,2.3*3A
$GPGSV,3,1,10,24,77,315,28,15,55,160,30,12,40,211,30,18,31,259,28*78
$GPGSV,3,2,10,17,30,071,19,22,25,297,21,26,18,136,,14,06,311,*73
$GPGSV,3,3,10,28,05,044,,25,05,221,*74
$GPRMC,194528.000,A,4826.2614,N,00429.8636,W,0.00,26.39,290114,,,A*43
$GPVTG,26.39,T,,M,0.00,N,0.0,K,A*33
$GPGGA,194529.000,4826.2614,N,00429.8636,W,1,06,1.3,78.6,M,52.1,M,0.0,0000*54
$GPRMC,194529.000,A,4826.2614,N,00429.8636,W,0.00,26.39,290114,,,A*42
$GPVTG,26.39,T,,M,0.00,N,0.0,K,A*33
$GPGGA,194530.000,4826.2614,N,00429.8636,W,1,06,1.3,78.6,M,52.1,M,0.0,0000*5C
$GPRMC,194530.000,A,4826.2614,N,00429.8636,W,0.00,26.39,290114,,,A*4A
$GPVTG,26.39,T,,M,0.00,N,0.0,K,A*33
$GPGGA,194531.000,4826.2614,N,00429.8636,W,1,06,1.3,78.6,M,52.1,M,0.0,0000*5D
$GPRMC,194531.000,A,4826.2614,N,00429.8636,W,0.00,26.39,290114,,,A*4B
$GPVTG,26.39,T,,M,0.00,N,0.0,K,A*33
$GPGGA,194532.000,4826.2614,N,00429.8636,W,1,06,1.3,78.6,M,52.1,M,0.0,0000*5E
$GPRMC,194532.000,A,4826.2614,N,00429.8636,W,0.00,26.39,290114,,,A*48
$GPVTG,26.39,T,,M,0.00,N,0.0,K,A*33
$GPGGA,194533.000,4826.2614,N,00429.8636,W,1,06,1.3,78.6,M,52.1,M,0.0,0000*5F
$GPGSA,A,3,15,22,12,24,18,17,,,,,,,2.7,1.3,2.3*3A
$GPGSV,3,1,10,24,77,315,28,15,55,160,30,12,40,211,30,18,31,259,28*78
$GPGSV,3,2,10,17,30,071,18,22,25,297,22,26,18,136,,14,06,311,*71
$GPGSV,3,3,10,28,05,044,,25,05,221,*74
$GPRMC,194533.000,A,4826.2614,N,00429.8636,W,0.00,26.39,290114,,,A*49
$GPVTG,26.39,T,,M,0.00,N,0.0,K,A*33
$GPGGA,194534.000,4826.2614,N,00429.8636,W,1,05,2.9,78.6,M,52.1,M,0.0,0000*52
$GPRMC,194534.000,A,4826.2614,N,00429.8636,W,0.00,26.39,290114,,,A*4E
$GPVTG,26.39,T,,M,0.00,N,0.0,K,A*33
$GPGGA,194535.000,4826.2614,N,00429.8636,W,1,05,2.9,78.6,M,52.1,M,0.0,0000*53
$GPRMC,194535.000,A,4826.2614,N,00429.8636,W,0.00,26.39,290114,,,A*4F
$GPVTG,26.39,T,,M,0.00,N,0.0,K,A*33
$GPGGA,194536.000,4826.2614,N,00429.8636,W,1,06,1.6,78.6,M,52.1,M,0.0,0000*5F
$GPRMC,194536.000,A,4826.2614,N,00429.8636,W,0.00,26.39,290114,,,A*4C
$GPVTG,26.39,T,,M,0.00,N,0.0,K,A*33
$GPGGA,194537.000,4826.2614,N,00429.8636,W,1,06,1.6,78.6,M,52.1,M,0.0,0000*5E
$GPRMC,194537.000,A,4826.2614,N,00429.8636,W,0.00,26.39,290114,,,A*4D
$GPVTG,26.39,T,,M,0.00,N,0.0,K,A*33
$GPGGA,194538.000,4826.2614,N,00429.8636,W,1,07,1.1,78.6,M,52.1,M,0.0,0000*57
$GPGSA,A,3,15,22,12,24,18,17,26,,,,,,2.1,1.1,1.8*32
$GPGSV,3,1,10,24,77,315,28,15,55,160,30,12,40,211,30,18,31,259,28*78
$GPGSV,3,2,10,17,30,071,18,22,25,297,23,26,18,136,18,14,06,311,*79
$GPGSV,3,3,10,28,05,044,,25,05,221,*74
$GPRMC,194538.000,A,4826.2614,N,00429.8636,W,0.00,26.39,290114,,,A*42
$GPVTG,26.39,T,,M,0.00,N,0.0,K,A*33
$GPGGA,194539.000,4826.2614,N,00429.8636,W,1,07,1.1,78.6,M,52.1,M,0.0,0000*56
$GPRMC,194539.000,A,4826.2614,N,00429.8636,W,0.00,26.39,290114,,,A*43
$GPVTG,26.39,T,,M,0.00,N,0.0,K,A*33
$GPGGA,194540.000,4826.2614,N,00429.8636,W,1,07,1.1,78.6,M,52.1,M,0.0,0000*58
$GPRMC,194540.000,A,4826.2614,N,00429.8636,W,0.00,26.39,290114,,,A*4D
$GPVTG,26.39,T,,M,0.00,N,0.0,K,A*33
$GPGGA,194541.000,4826.2614,N,00429.8636,W,1,06,1.6,78.6,M,52.1,M,0.0,0000*5F
$GPRMC,194541.000,A,4826.2614,N,00429.8636,W,0.00,26.39,290114,,,A*4C
$GPVTG,26.39,T,,M,0.00,N,0.0,K,A*33
$GPGGA,194542.000,4826.2614,N,00429.8636,W,1,07,1.1,78.6,M,52.1,M,0.0,0000*5A
$GPRMC,194542.000,A,4826.2614,N,00429.8636,W,0.00,26.39,290114,,,A*4F
$GPVTG,26.39,T,,M,0.00,N,0.0,K,A*33
$GPGGA,194543.000,4826.2614,N,00429.8636,W,1,07,1.1,78.6,M,52.1,M,0.0,0000*5B
$GPGSA,A,3,15,22,12,24,18,17,26,,,,,,2.1,1.1,1.8*32
$GPGSV,3,1,10,24,77,315,27,15,55,160,30,12,40,211,29,18,31,259,28*7F
$GPGSV,3,2,10,17,30,071,19,22,25,297,23,26,18,136,18,14,06,311,*78
$GPGSV,3,3,10,28,05,044,,25,05,221,*74
$GPRMC,194543.000,A,4826.2614,N,00429.8636,W,0.00,26.39,290114,,,A*4E
$GPVTG,26.39,T,,M,0.00,N,0.0,K,A*33
$GPGGA,194544.000,4826.2614,N,00429.8636,W,1,07,1.1,78.6,M,52.1,M,0.0,0000*5C
$GPRMC,194544.000,A,4826.2614,N,00429.8636,W,0.00,26.39,290114,,,A*49
$GPVTG,26.39,T,,M,0.00,N,0.0,K,A*33
$GPGGA,194545.000,4826.2614,N,00429.8636,W,1,07,1.1,78.6,M,52.1,M,0.0,0000*5D
$GPRMC,194545.000,A,4826.2614,N,00429.8636,W,0.00,26.39,290114,,,A*48
$GPVTG,26.39,T,,M,0.00,N,0.0,K,A*33
$GPGGA,194546.000,4826.2614,N,00429.8636,W,1,07,1.1,78.6,M,52.1,M,0.0,0000*5E
$GPRMC,194546.000,A,4826.2614,N,00429.8636,W,0.00,26.39,290114,,,A*4B
$GPVTG,26.39,T,,M,0.00,N,0.0,K,A*33
$GPGGA,194547.000,4826.2614,N,00429.8636,W,1,07,1.1,78.6,M,52.1,M,0.0,0000*5F
$GPRMC,194547.000,A,4826.2614,N,00429.8636,W,0.00,26.39,290114,,,A*4A
$GPVTG,26.39,T,,M,0.00,N,0.0,K,A*33
$GPGGA,194548.000,4826.2614,N,00429.8636,W,1,07,1.1,78.6,M,52.1,M,0.0,0000*50
$GPGSA,A,3,15,22,12,24,18,17,26,,,,,,2.1,1.1,1.8*32
$GPGSV,3,1,10,24,77,315,27,15,55,160,29,12,40,211,29,18,31,259,28*77
$GPGSV,3,2,10,17,30,071,19,22,25,297,23,26,18,136,18,14,06,311,*78
$GPGSV,3,3,10,28,05,044,,25,05,221,*74
$GPRMC,194548.000,A,4826.2614,N,00429.8636,W,0.00,26.39,290114,,,A*45
$GPVTG,26.39,T,,M,0.00,N,0.0,K,A*33
$GPGGA,194549.000,4826.2614,N,00429.8636,W,1,06,1.6,78.6,M,52.1,M,0.0,0000*57
$GPRMC,194549.000,A,4826.2614,N,00429.8636,W,0.00,26.39,290114,,,A*44
$GPVTG,26.39,T,,M,0.00,N,0.0,K,A*33
$GPGGA,194550.000,4826.2614,N,00429.8636,W,1,06,1.6,78.6,M,52.1,M,0.0,0000*5F
$GPRMC,194550.000,A,4826.2614,N,00429.8636,W,0.00,26.39,290114,,,A*4C
$GPVTG,26.39,T,,M,0.00,N,0.0,K,A*33
$GPGGA,194551.000,4826.2614,N,00429.8636,W,1,07,1.1,78.6,M,52.1,M,0.0,0000*58
$GPRMC,194551.000,A,4826.2614,N,00429.8636,W,0.00,26.39,290114,,,A*4D
$GPVTG,26.39,T,,M,0.00,N,0.0,K,A*33
$GPGGA,194552.000,4826.2614,N,00429.8636,W,1,06,1.6,78.6,M,52.1,M,0.0,0000*5D
$GPRMC,194552.000,A,4826.2614,N,00429.8636,W,0.00,26.39,290114,,,A*4E
$GPVTG,26.39,T,,M,0.00,N,0.0,K,A*33
$GPGGA,194553.000,4826.2614,N,00429.8636,W,1,07,1.1,78.6,M,52.1,M,0.0,0000*5A
$GPGSA,A,3,15,22,12,24,18,17,26,,,,,,2.1,1.1,1.8*32
$GPGSV,3,1,10,24,77,315,28,15,55,160,29,12,40,211,29,18,31,259,27*77
$GPGSV,3,2,10,17,30,071,19,22,25,297,23,26,18,136,18,14,06,311,*78
$GPGSV,3,3,10,28,05,044,,25,05,221,*74
$GPRMC,194553.000,A,4826.2614,N,00429.8636,W,0.00,26.39,290114,,,A*4F
$GPVTG,26.39,T,,M,0.00,N,0.0,K,A*33
$GPGGA,194554.000,4826.2614,N,00429.8636,W,1,07,1.1,78.6,M,52.1,M,0.0,0000*5D
$GPRMC,194554.000,A,4826.2614,N,00429.8636,W,0.00,26.39,290114,,,A*48
$GPVTG,26.39,T,,M,0.00,N,0.0,K,A*33
$GPGGA,194555.000,4826.2614,N,00429.8636,W,1,07,1.1,78.6,M,52.1,M,0.0,0000*5C
$GPRMC,194555.000,A,4826.2614,N,00429.8636,W,0.00,26.39,290114,,,A*49
$GPVTG,26.39,T,,M,0.00,N,0.0,K,A*33
$GPGGA,194556.000,4826.2614,N,00429.8636,W,1,07,1.1,78.6,M,52.1,M,0.0,0000*5F
$GPRMC,194556.000,A,4826.2614,N,00429.8636,W,0.00,26.39,290114,,,A*4A
$GPVTG,26.39,T,,M,0.00,N,0.0,K,A*33
$GPGGA,194557.000,4826.2614,N,00429.8636,W,1,07,1.1,78.6,M,52.1,M,0.0,0000*5E
$GPRMC,194557.000,A,4826.2614,N,00429.8636,W,0.00,26.39,290114,,,A*4B
$GPVTG,26.39,T,,M,0.00,N,0.0,K,A*33
$GPGGA,194558.000,4826.2614,N,00429.8636,W,1,07,1.1,78.6,M,52.1,M,0.0,0000*51
$GPGSA,A,3,15,22,12,24,18,17,26,,,,,,2.1,1.1,1.8*32
$GPGSV,3,1,10,24,77,315,28,15,55,160,28,12,40,211,29,18,31,259,27*76
$GPGSV,3,2,10,17,30,071,19,22,25,297,23,26,18,136,18,14,06,311,*78
$GPGSV,3,3,10,28,05,044,,25,05,221,*74
$GPRMC,194558.000,A,4826.2614,N,00429.8636,W,0.00,26.39,290114,,,A*44
$GPVTG,26.39,T,,M,0.00,N,0.0,K,A*33
$GPGGA,194559.000,4826.2614,N,00429.8636,W,1,07,1.1,78.6,M,52.1,M,0.0,0000*50
$GPRMC,194559.000,A,4826.2614,N,00429.8636,W,0.00,26.39,290114,,,A*45
$GPVTG,26.39,T,,M,0.00,N,0.0,K,A*33
$GPGGA,194600.000,4826.2614,N,00429.8636,W,1,07,1.1,78.6,M,52.1,M,0.0,0000*5F
$GPRMC,194600.000,A,4826.2614,N,00429.8636,W,0.00,26.39,290114,,,A*4A
$GPVTG,26.39,T,,M,0.00,N,0.0,K,A*33
$GPGGA,194601.000,4826.2614,N,00429.8636,W,1,07,1.1,78.6,M,52.1,M,0.0,0000*5E
$GPRMC,194601.000,A,4826.2614,N,00429.8636,W,0.00,26.39,290114,,,A*4B
$GPVTG,26.39,T,,M,0.00,N,0.0,K,A*33
$GPGGA,194602.000,4826.2614,N,00429.8636,W,1,07,1.1,78.6,M,52.1,M,0.0,0000*5D
$GPRMC,194602.000,A,4826.2614,N,00429.8636,W,0.00,26.39,290114,,,A*48
$GPVTG,26.39,T,,M,0.00,N,0.0,K,A*33
$GPGGA,194603.000,4826.2614,N,00429.8636,W,1,07,1.1,78.6,M,52.1,M,0.0,0000*5C
$GPGSA,A,3,15,22,12,24,18,17,26,,,,,,2.1,1.1,1.8*32
$GPGSV,3,1,10,24,77,315,27,15,55,160,27,12,40,211,29,18,31,259,27*76
$GPGSV,3,2,10,17,30,071,19,22,25,297,23,26,18,136,18,14,06,311,*78
$GPGSV,3,3,10,28,05,044,,25,05,221,*74
$GPRMC,194603.000,A,4826.2614,N,00429.8636,W,0.00,26.39,290114,,,A*49
$GPVTG,26.39,T,,M,0.00,N,0.0,K,A*33
$GPGGA,194604.000,4826.2614,N,00429.8636,W,1,07,1.1,78.6,M,52.1,M,0.0,0000*5B
$GPRMC,194604.000,A,4826.2614,N,00429.8636,W,0.00,26.39,290114,,,A*4E
$GPVTG,26.39,T,,M,0.00,N,0.0,K,A*33
$GPGGA,194605.000,4826.2614,N,00429.8636,W,1,07,1.1,78.6,M,52.1,M,0.0,0000*5A
$GPRMC,194605.000,A,4826.2614,N,00429.8636,W,0.00,26.39,290114,,,A*4F
$GPVTG,26.39,T,,M,0.00,N,0.0,K,A*33
$GPGGA,194606.000,4826.2614,N,00429.8636,W,1,07,1.1,78.6,M,52.1,M,0.0,0000*59
$GPRMC,194606.000,A,4826.2614,N,00429.8636,W,0.00,26.39,290114,,,A*4C
$GPVTG,26.39,T,,M,0.00,N,0.0,K,A*33
$GPGGA,194607.000,4826.2614,N,00429.8636,W,1,07,1.1,78.6,M,52.1,M,0.0,0000*58
$GPRMC,194607.000,A,4826.2614,N,00429.8636,W,0.00,26.39,290114,,,A*4D
$GPVTG,26.39,T,,M,0.00,N,0.0,K,A*33
$GPGGA,194608.000,4826.2614,N,00429.8636,W,1,07,1.1,78.6,M,52.1,M,0.0,0000*57
$GPGSA,A,3,15,22,12,24,18,17,26,,,,,,2.1,1.1,1.8*32
$GPGSV,3,1,10,24,77,315,27,15,55,160,27,12,40,211,29,18,31,259,26*77
$GPGSV,3,2,10,17,30,071,19,22,25,297,22,26,18,136,18,14,06,311,*79
$GPGSV,3,3,10,28,05,044,,25,05,221,16*73
$GPRMC,194608.000,A,4826.2614,N,00429.8636,W,0.00,26.39,290114,,,A*42
$GPVTG,26.39,T,,M,0.00,N,0.0,K,A*33
$GPGGA,194609.000,4826.2614,N,00429.8636,W,1,07,1.1,78.6,M,52.1,M,0.0,0000*56
$GPRMC,194609.000,A,4826.2614,N,00429.8636,W,0.00,26.39,290114,,,A*43
$GPVTG,26.39,T,,M,0.00,N,0.0,K,A*33
$GPGGA,194610.000,4826.2614,N,00429.8636,W,1,07,1.1,78.6,M,52.1,M,0.0,0000*5E
$GPRMC,194610.000,A,4826.2614,N,00429.8636,W,0.00,26.39,290114,,,A*4B
$GPVTG,26.39,T,,M,0.00,N,0.0,K,A*33
$GPGGA,194611.000,4826.2614,N,00429.8636,W,1,07,1.1,78.6,M,52.1,M,0.0,0000*5F
$GPRMC,194611.000,A,4826.2614,N,00429.8636,W,0.00,26.39,290114,,,A*4A
$GPVTG,26.39,T,,M,0.00,N,0.0,K,A*33
$GPGGA,194612.000,4826.2614,N,00429.8636,W,1,07,1.1,78.6,M,52.1,M,0.0,0000*5C
$GPRMC,194612.000,A,4826.2614,N,00429.8636,W,0.00,26.39,290114,,,A*49
$GPVTG,26.39,T,,M,0.00,N,0.0,K,A*33
$GPGGA,194613.000,4826.2614,N,00429.8636,W,1,07,1.1,78.6,M,52.1,M,0.0,0000*5D
$GPGSA,A,3,15,22,12,24,18,17,26,,,,,,2.1,1.1,1.8*32
$GPGSV,3,1,10,24,77,315,27,15,55,160,27,12,40,211,29,18,31,259,26*77
$GPGSV,3,2,10,17,30,071,20,22,25,297,22,26,18,136,18,14,06,311,*73
$GPGSV,3,3,10,28,05,044,,25,05,221,16*73
$GPRMC,194613.000,A,4826.2614,N,00429.8636,W,0.00,26.39,290114,,,A*48
$GPVTG,26.39,T,,M,0.00,N,0.0,K,A*33
$GPGGA,194614.000,4826.2614,N,00429.8636,W,1,07,1.1,78.6,M,52.1,M,0.0,0000*5A
$GPRMC,194614.000,A,4826.2614,N,00429.8636,W,0.00,26.39,290114,,,A*4F
$GPVTG,26.39,T,,M,0.00,N,0.0,K,A*33
$GPGGA,194615.000,4826.2614,N,00429.8636,W,1,07,1.1,78.6,M,52.1,M,0.0,0000*5B
$GPRMC,194615.000,A,4826.2614,N,00429.8636,W,0.00,26.39,290114,,,A*4E
$GPVTG,26.39,T,,M,0.00,N,0.0,K,A*33
$GPGGA,194616.000,4826.2614,N,00429.8636,W,1,07,1.1,78.6,M,52.1,M,0.0,0000*58
$GPRMC,194616.000,A,4826.2614,N,00429.8636,W,0.00,26.39,290114,,,A*4D
$GPVTG,26.39,T,,M,0.00,N,0.0,K,A*33
$GPGGA,194617.000,4826.2614,N,00429.8636,W,1,07,1.1,78.6,M,52.1,M,0.0,0000*59
$GPRMC,194617.000,A,4826.2614,N,00429.8636,W,0.00,26.39,290114,,,A*4C
$GPVTG,26.39,T,,M,0.00,N,0.0,K,A*33
$GPGGA,194618.000,4826.2614,N,00429.8636,W,1,06,1.3,78.6,M,52.1,M,0.0,0000*55
$GPGSA,A,3,15,22,12,24,18,17,,,,,,,2.7,1.3,2.3*3A
$GPGSV,3,1,10,24,77,315,28,15,55,160,26,12,40,211,30,18,31,259,25*72
$GPGSV,3,2,10,17,30,071,21,22,25,297,21,26,18,136,17,14,06,311,*7E
$GPGSV,3,3,10,28,05,044,,25,05,221,17*72
$GPRMC,194618.000,A,4826.2614,N,00429.8636,W,0.00,26.39,290114,,,A*43
$GPVTG,26.39,T,,M,0.00,N,0.0,K,A*33
$GPGGA,194619.000,4826.2614,N,00429.8636,W,1,06,1.3,78.6,M,52.1,M,0.0,0000*54
$GPRMC,194619.000,A,4826.2614,N,00429.8636,W,0.00,26.39,290114,,,A*42
$GPVTG,26.39,T,,M,0.00,N,0.0,K,A*33
$GPGGA,194620.000,4826.2614,N,00429.8636,W,1,06,1.3,78.6,M,52.1,M,0.0,0000*5E
$GPRMC,194620.000,A,4826.2614,N,00429.8636,W,0.00,26.39,290114,,,A*48
$GPVTG,26.39,T,,M,0.00,N,0.0,K,A*33
$GPGGA,194621.000,4826.2614,N,00429.8636,W,1,06,1.3,78.6,M,52.1,M,0.0,0000*5F
$GPRMC,194621.000,A,4826.2614,N,00429.8636,W,0.00,26.39,290114,,,A*49
$GPVTG,26.39,T,,M,0.00,N,0.0,K,A*33
$GPGGA,194622.000,4826.2614,N,00429.8636,W,1,06,1.3,78.6,M,52.1,M,0.0,0000*5C
$GPRMC,194622.000,A,4826.2614,N,00429.8636,W,0.00,26.39,290114,,,A*4A
$GPVTG,26.39,T,,M,0.00,N,0.0,K,A*33
$GPGGA,194623.000,4826.2614,N,00429.8636,W,1,06,1.3,78.6,M,52.1,M,0.0,0000*5D
$GPGSA,A,3,15,22,12,24,18,17,,,,,,,2.7,1.3,2.3*3A
$GPGSV,3,1,10,24,77,315,28,15,55,160,26,12,40,211,30,18,31,259,25*72
$GPGSV,3,2,10,17,30,071,22,22,25,297,21,26,18,136,17,14,06,311,*7D
$GPGSV,3,3,10,28,05,044,,25,05,221,16*73
$GPRMC,194623.000,A,4826.2614,N,00429.8636,W,0.00,26.39,290114,,,A*4B
$GPVTG,26.39,T,,M,0.00,N,0.0,K,A*33
$GPGGA,194624.000,4826.2614,N,00429.8636,W,1,06,1.3,78.6,M,52.1,M,0.0,0000*5A
$GPRMC,194624.000,A,4826.2614,N,00429.8636,W,0.00,26.39,290114,,,A*4C
$GPVTG,26.39,T,,M,0.00,N,0.0,K,A*33
$GPGGA,194625.000,4826.2614,N,00429.8636,W,1,06,1.3,78.6,M,52.1,M,0.0,0000*5B
$GPRMC,194625.000,A,4826.2614,N,00429.8636,W,0.00,26.39,290114,,,A*4D
$GPVTG,26.39,T,,M,0.00,N,0.0,K,A*33
$GPGGA,194626.000,4826.2614,N,00429.8636,W,1,06,1.3,78.6,M,52.1,M,0.0,0000*58
$GPRMC,194626.000,A,4826.2614,N,00429.8636,W,0.00,26.39,290114,,,A*4E
$GPVTG,26.39,T,,M,0.00,N,0.0,K,A*33
$GPGGA,194627.000,4826.2614,N,00429.8636,W,1,06,1.3,78.6,M,52.1,M,0.0,0000*59
$GPRMC,194627.000,A,4826.2614,N,00429.8636,W,0.00,26.39,290114,,,A*4F
$GPVTG,26.39,T,,M,0.00,N,0.0,K,A*33
$GPGGA,194628.000,4826.2614,N,00429.8636,W,1,06,1.3,78.6,M,52.1,M,0.0,0000*56
$GPGSA,A,3,15,22,12,24,18,17,,,,,,,2.7,1.3,2.3*3A
$GPGSV,3,1,10,24,77,315,28,15,55,160,27,12,40,211,30,18,31,259,25*73
$GPGSV,3,2,10,17,30,071,23,22,25,297,21,26,18,136,17,14,06,311,*7C
$GPGSV,3,3,10,28,05,044,,25,05,221,16*73
$GPRMC,194628.000,A,4826.2614,N,00429.8636,W,0.00,26.39,290114,,,A*40
$GPVTG,26.39,T,,M,0.00,N,0.0,K,A*33
$GPGGA,194629.000,4826.2614,N,00429.8636,W,1,06,1.3,78.6,M,52.1,M,0.0,0000*57
$GPRMC,194629.000,A,4826.2614,N,00429.8636,W,0.00,26.39,290114,,,A*41
$GPVTG,26.39,T,,M,0.00,N,0.0,K,A*33
$GPGGA,194630.000,4826.2614,N,00429.8636,W,1,06,1.3,78.6,M,52.1,M,0.0,0000*5F
$GPRMC,194630.000,A,4826.2614,N,00429.8636,W,0.00,26.39,290114,,,A*49
$GPVTG,26.39,T,,M,0.00,N,0.0,K,A*33
$GPGGA,194631.000,4826.2614,N,00429.8636,W,1,06,1.3,78.6,M,52.1,M,0.0,0000*5E
$GPRMC,194631.000,A,4826.2614,N,00429.8636,W,0.00,26.39,290114,,,A*48
$GPVTG,26.39,T,,M,0.00,N,0.0,K,A*33
$GPGGA,194632.000,4826.2614,N,00429.8636,W,1,06,1.3,78.6,M,52.1,M,0.0,0000*5D
$GPRMC,194632.000,A,4826.2614,N,00429.8636,W,0.00,26.39,290114,,,A*4B
$GPVTG,26.39,T,,M,0.00,N,0.0,K,A*33
$GPGGA,194633.000,4826.2614,N,00429.8636,W,1,06,1.3,78.6,M,52.1,M,0.0,0000*5C
$GPGSA,A,3,15,22,12,24,18,17,,,,,,,2.7,1.3,2.3*3A
$GPGSV,3,1,10,24,78,321,27,15,54,160,27,12,42,212,30,18,31,257,25*7A
$GPGSV,3,2,10,17,30,070,23,22,25,296,21,26,17,137,17,14,08,311,*7C
$GPGSV,3,3,10,25,06,222,15,28,04,044,*71
$GPRMC,194633.000,A,4826.2614,N,00429.8636,W,0.00,26.39,290114,,,A*4A
$GPVTG,26.39,T,,M,0.00,N,0.0,K,A*33
$GPGGA,194634.000,4826.2614,N,00429.8636,W,1,06,1.3,78.6,M,52.1,M,0.0,0000*5B
$GPRMC,194634.000,A,4826.2614,N,00429.8636,W,0.00,26.39,290114,,,A*4D
$GPVTG,26.39,T,,M,0.00,N,0.0,K,A*33
$GPGGA,194635.000,4826.2614,N,00429.8636,W,1,06,1.3,78.6,M,52.1,M,0.0,0000*5A
$GPRMC,194635.000,A,4826.2614,N,00429.8636,W,0.00,26.39,290114,,,A*4C
$GPVTG,26.39,T,,M,0.00,N,0.0,K,A*33
$GPGGA,194636.000,4826.2614,N,00429.8636,W,1,06,1.3,78.6,M,52.1,M,0.0,0000*59
$GPRMC,194636.000,A,4826.2614,N,00429.8636,W,0.00,26.39,290114,,,A*4F
$GPVTG,26.39,T,,M,0.00,N,0.0,K,A*33
$GPGGA,194637.000,4826.2614,N,00429.8636,W,1,06,1.3,78.6,M,52.1,M,0.0,0000*58
$GPRMC,194637.000,A,4826.2614,N,00429.8636,W,0.00,26.39,290114,,,A*4E
$GPVTG,26.39,T,,M,0.00,N,0.0,K,A*33
$GPGGA,194638.000,4826.2614,N,00429.8636,W,1,06,1.3,78.6,M,52.1,M,0.0,0000*57
$GPGSA,A,3,15,22,12,24,18,17,,,,,,,2.7,1.3,2.3*3A
$GPGSV,3,1,10,24,78,321,27,15,54,160,27,12,42,212,30,18,31,257,25*7A
$GPGSV,3,2,10,17,30,070,23,22,25,296,21,26,17,137,16,14,08,311,*7D
$GPGSV,3,3,10,25,06,222,14,28,04,044,*70
$GPRMC,194638.000,A,4826.2614,N,00429.8636,W,0.00,26.39,290114,,,A*41
$GPVTG,26.39,T,,M,0.00,N,0.0,K,A*33
$GPGGA,194639.000,4826.2614,N,00429.8636,W,1,06,1.3,78.6,M,52.1,M,0.0,0000*56
$GPRMC,194639.000,A,4826.2614,N,00429.8636,W,0.00,26.39,290114,,,A*40
$GPVTG,26.39,T,,M,0.00,N,0.0,K,A*33
$GPGGA,194640.000,4826.2614,N,00429.8636,W,1,06,1.3,78.6,M,52.1,M,0.0,0000*58
$GPRMC,194640.000,A,4826.2614,N,00429.8636,W,0.00,26.39,290114,,,A*4E
$GPVTG,26.39,T,,M,0.00,N,0.0,K,A*33
$GPGGA,194641.000,4826.2614,N,00429.8636,W,1,06,1.3,78.6,M,52.1,M,0.0,0000*59
$GPRMC,194641.000,A,4826.2614,N,00429.8636,W,0.00,26.39,290114,,,A*4F
$GPVTG,26.39,T,,M,0.00,N,0.0,K,A*33
$GPGGA,194642.000,4826.2614,N,00429.8636,W,1,07,1.1,78.6,M,52.1,M,0.0,0000*59
$GPRMC,194642.000,A,4826.2614,N,00429.8636,W,0.00,26.39,290114,,,A*4C
$GPVTG,26.39,T,,M,0.00,N,0.0,K,A*33
