$GPRMC,055410,A,4822.0208,N,429.2248,W,10.00,165.42,261015,,*3B
$GPRMC,055410,A,4821.9891,N,429.2124,W,10.00,165.42,261015,,*32
$GPRMC,055410,A,4821.9574,N,429.2000,W,10.00,165.42,261015,,*33
$GPRMC,055410,A,4821.9257,N,429.1877,W,10.00,165.42,261015,,*3E
$GPRMC,055410,A,4821.8941,N,429.1753,W,10.00,165.42,261015,,*3A
$GPRMC,055410,A,4821.8624,N,429.1629,W,10.00,165.42,261015,,*3A
$GPRMC,055410,A,4821.8307,N,429.1506,W,10.00,165.42,261015,,*30
$GPRMC,055410,A,4821.7990,N,429.1382,W,10.00,165.42,261015,,*31
$GPRMC,055410,A,4821.7674,N,429.1258,W,10.00,165.42,261015,,*32
$GPRMC,055410,A,4821.7357,N,429.1135,W,10.00,165.42,261015,,*3E
$GPRMC,055410,A,4821.7040,N,429.1011,W,10.00,165.42,261015,,*3C
$GPRMC,055410,A,4821.6723,N,429.0888,W,10.00,165.42,261015,,*36
$GPRMC,055410,A,4821.6407,N,429.0764,W,10.00,165.42,261015,,*3E
$GPRMC,055410,A,4821.6090,N,429.0640,W,10.00,165.42,261015,,*33
$GPRMC,055410,A,4821.5903,N,429.0567,W,10.00,252.75,261015,,*36
$GPRMC,055410,A,4821.5859,N,429.0779,W,10.00,252.75,261015,,*35
$GPRMC,055410,A,4821.5816,N,429.0990,W,10.00,252.75,261015,,*37
$GPRMC,055410,A,4821.5772,N,429.1202,W,10.00,252.75,261015,,*3B
$GPRMC,055410,A,4821.5728,N,429.1413,W,10.00,252.75,261015,,*32
$GPRMC,055410,A,4821.5684,N,429.1625,W,10.00,252.75,261015,,*32
$GPRMC,055410,A,4821.5641,N,429.1836,W,10.00,252.75,261015,,*37
$GPRMC,055410,A,4821.5597,N,429.2048,W,10.00,252.75,261015,,*3D
$GPRMC,055410,A,4821.5553,N,429.2259,W,10.00,252.75,261015,,*37
$GPRMC,055410,A,4821.5509,N,429.2471,W,10.00,252.75,261015,,*34
$GPRMC,055410,A,4821.5466,N,429.2682,W,10.00,252.75,261015,,*32
$GPRMC,055410,A,4821.5422,N,429.2894,W,10.00,252.75,261015,,*3B
$GPRMC,055410,A,4821.5378,N,429.3105,W,10.00,252.75,261015,,*33
$GPRMC,055410,A,4821.5334,N,429.3316,W,10.00,252.75,261015,,*3B
$GPRMC,055410,A,4821.5291,N,429.3528,W,10.00,252.75,261015,,*3E
$GPRMC,055410,A,4821.5247,N,429.3739,W,10.00,252.75,261015,,*37
$GPRMC,055410,A,4821.5203,N,429.3951,W,10.00,252.75,261015,,*37
$GPRMC,055410,A,4821.5159,N,429.4162,W,10.00,252.75,261015,,*34
$GPRMC,055410,A,4821.5116,N,429.4374,W,10.00,252.75,261015,,*3A
$GPRMC,055410,A,4821.5072,N,429.4585,W,10.00,252.75,261015,,*31
$GPRMC,055410,A,4821.5028,N,429.4797,W,10.00,252.75,261015,,*3F
$GPRMC,055410,A,4821.4984,N,429.5008,W,10.00,252.75,261015,,*31
$GPRMC,055410,A,4821.4940,N,429.5220,W,10.00,252.75,261015,,*31
$GPRMC,055410,A,4821.4897,N,429.5431,W,10.00,252.75,261015,,*3C
$GPRMC,055410,A,4821.4853,N,429.5643,W,10.00,252.75,261015,,*33
$GPRMC,055410,A,4821.4809,N,429.5854,W,10.00,252.75,261015,,*34
$GPRMC,055410,A,4821.4765,N,429.6065,W,10.00,252.75,261015,,*38
$GPRMC,055410,A,4821.4722,N,429.6277,W,10.00,252.75,261015,,*3A
$GPRMC,055410,A,4821.4678,N,429.6488,W,10.00,252.75,261015,,*32
$GPRMC,055410,A,4821.4634,N,429.6700,W,10.00,252.75,261015,,*39
$GPRMC,055410,A,4821.4590,N,429.6911,W,10.00,252.75,261015,,*3A
$GPRMC,055410,A,4821.4547,N,429.7123,W,10.00,252.75,261015,,*38
$GPRMC,055410,A,4821.4503,N,429.7334,W,10.00,252.75,261015,,*3C
$GPRMC,055410,A,4821.4459,N,429.7546,W,10.00,252.75,261015,,*31
$GPRMC,055410,A,4821.4415,N,429.7757,W,10.00,252.75,261015,,*3B
$GPRMC,055410,A,4821.4371,N,429.7969,W,10.00,252.75,261015,,*3D
$GPRMC,055410,A,4821.4328,N,429.8180,W,10.00,252.75,261015,,*31
$GPRMC,055410,A,4821.4284,N,429.8391,W,10.00,252.75,261015,,*34
$GPRMC,055410,A,4821.4240,N,429.8603,W,10.00,252.75,261015,,*32
$GPRMC,055410,A,4821.4196,N,429.8814,W,10.00,252.75,261015,,*32
$GPRMC,055410,A,4821.4153,N,429.9026,W,10.00,252.75,261015,,*33
$GPRMC,055410,A,4821.4109,N,429.9237,W,10.00,252.75,261015,,*3E
$GPRMC,055410,A,4821.4065,N,429.9449,W,10.00,252.75,261015,,*3A
$GPRMC,055410,A,4821.4021,N,429.9660,W,10.00,252.75,261015,,*33
$GPRMC,055410,A,4821.3978,N,429.9872,W,10.00,252.75,261015,,*3C
$GPRMC,055410,A,4821.3934,N,430.0083,W,10.00,252.75,261015,,*33
$GPRMC,055410,A,4821.3890,N,430.0294,W,10.00,252.75,261015,,*38
$GPRMC,055410,A,4821.3846,N,430.0506,W,10.00,252.75,261015,,*3F
$GPRMC,055410,A,4821.3802,N,430.0717,W,10.00,252.75,261015,,*3D
$GPRMC,055410,A,4821.3759,N,430.0929,W,10.00,252.75,261015,,*3F
$GPRMC,055410,A,4821.3715,N,430.1140,W,10.00,252.75,261015,,*31
$GPRMC,055410,A,4821.3671,N,430.1352,W,10.00,252.75,261015,,*33
$GPRMC,055410,A,4821.3627,N,430.1563,W,10.00,252.75,261015,,*34
$GPRMC,055410,A,4821.3583,N,430.1775,W,10.00,252.75,261015,,*3C
$GPRMC,055410,A,4821.3540,N,430.1986,W,10.00,252.75,261015,,*31
$GPRMC,055410,A,4821.3496,N,430.2197,W,10.00,252.75,261015,,*30
$GPRMC,055410,A,4821.3452,N,430.2409,W,10.00,252.75,261015,,*3A
$GPRMC,055410,A,4821.3408,N,430.2620,W,10.00,252.75,261015,,*3C
$GPRMC,055410,A,4821.3365,N,430.2832,W,10.00,252.75,261015,,*3D
$GPRMC,055410,A,4821.3321,N,430.3043,W,10.00,252.75,261015,,*32
$GPRMC,055410,A,4821.3277,N,430.3255,W,10.00,252.75,261015,,*35
$GPRMC,055410,A,4821.3233,N,430.3466,W,10.00,252.75,261015,,*33
$GPRMC,055410,A,4821.3189,N,430.3678,W,10.00,252.75,261015,,*3C
$GPRMC,055410,A,4821.3146,N,430.3889,W,10.00,252.75,261015,,*3F
$GPRMC,055410,A,4821.3102,N,430.4100,W,10.00,252.75,261015,,*30
$GPRMC,055410,A,4821.3058,N,430.4312,W,10.00,252.75,261015,,*3F
$GPRMC,055410,A,4821.3014,N,430.4523,W,10.00,252.75,261015,,*33
$GPRMC,055410,A,4821.2977,N,430.4703,W,10.00,265.94,261015,,*35
$GPRMC,055410,A,4821.2969,N,430.4881,W,10.00,265.94,261015,,*3F
$GPRMC,055410,A,4821.2960,N,430.5059,W,10.00,265.94,261015,,*3A
$GPRMC,055410,A,4821.2952,N,430.5237,W,10.00,265.94,261015,,*31
$GPRMC,055410,A,4821.2943,N,430.5414,W,10.00,265.94,261015,,*36
$GPRMC,055410,A,4821.2935,N,430.5592,W,10.00,265.94,261015,,*38
$GPRMC,055410,A,4821.2926,N,430.5770,W,10.00,265.94,261015,,*34
$GPRMC,055410,A,4821.2918,N,430.5948,W,10.00,265.94,261015,,*3C
$GPRMC,055410,A,4821.2910,N,430.6126,W,10.00,265.94,261015,,*37
$GPRMC,055410,A,4821.2901,N,430.6303,W,10.00,265.94,261015,,*32
$GPRMC,055410,A,4821.2893,N,430.6481,W,10.00,265.94,261015,,*35
$GPRMC,055410,A,4821.2884,N,430.6659,W,10.00,265.94,261015,,*34
$GPRMC,055410,A,4821.2876,N,430.6837,W,10.00,265.94,261015,,*3F
$GPRMC,055410,A,4821.2868,N,430.7014,W,10.00,265.94,261015,,*38
$GPRMC,055410,A,4821.2859,N,430.7192,W,10.00,265.94,261015,,*35
$GPRMC,055410,A,4821.2851,N,430.7370,W,10.00,265.94,261015,,*33
$GPRMC,055410,A,4821.2842,N,430.7548,W,10.00,265.94,261015,,*3C
$GPRMC,055410,A,4821.2834,N,430.7726,W,10.00,265.94,261015,,*37
$GPRMC,055410,A,4821.2825,N,430.7903,W,10.00,265.94,261015,,*3E
$GPRMC,055410,A,4821.2817,N,430.8081,W,10.00,265.94,261015,,*33
$GPRMC,055410,A,4821.2809,N,430.8259,W,10.00,265.94,261015,,*3B
$GPRMC,055410,A,4821.2800,N,430.8437,W,10.00,265.94,261015,,*3C
$GPRMC,055410,A,4821.2792,N,430.8614,W,10.00,265.94,261015,,*3B
$GPRMC,055410,A,4821.2783,N,430.8792,W,10.00,265.94,261015,,*34
$GPRMC,055410,A,4821.2775,N,430.8970,W,10.00,265.94,261015,,*3F
$GPRMC,055410,A,4821.2766,N,430.9148,W,10.00,265.94,261015,,*3F
$GPRMC,055410,A,4821.2758,N,430.9325,W,10.00,265.94,261015,,*3B
$GPRMC,055410,A,4821.2750,N,430.9503,W,10.00,265.94,261015,,*31
$GPRMC,055410,A,4821.2741,N,430.9681,W,10.00,265.94,261015,,*38
$GPRMC,055410,A,4821.2733,N,430.9859,W,10.00,265.94,261015,,*36
$GPRMC,055410,A,4821.2724,N,431.0037,W,10.00,265.94,261015,,*38
$GPRMC,055410,A,4821.2716,N,431.0214,W,10.00,265.94,261015,,*3A
$GPRMC,055410,A,4821.2707,N,431.0392,W,10.00,265.94,261015,,*35
$GPRMC,055410,A,4821.2699,N,431.0570,W,10.00,265.94,261015,,*39
$GPRMC,055410,A,4821.2691,N,431.0748,W,10.00,265.94,261015,,*38
$GPRMC,055410,A,4821.2682,N,431.0925,W,10.00,265.94,261015,,*3F
$GPRMC,055410,A,4821.2674,N,431.1103,W,10.00,265.94,261015,,*3B
$GPRMC,055410,A,4821.2665,N,431.1281,W,10.00,265.94,261015,,*32
$GPRMC,055410,A,4821.2657,N,431.1459,W,10.00,265.94,261015,,*30
$GPRMC,055410,A,4821.2648,N,431.1637,W,10.00,265.94,261015,,*34
$GPRMC,055410,A,4821.2640,N,431.1814,W,10.00,265.94,261015,,*33
$GPRMC,055410,A,4821.2632,N,431.1992,W,10.00,265.94,261015,,*39
$GPRMC,055410,A,4821.2623,N,431.2170,W,10.00,265.94,261015,,*3E
$GPRMC,055410,A,4821.2615,N,431.2348,W,10.00,265.94,261015,,*32
$GPRMC,055410,A,4821.2606,N,431.2525,W,10.00,265.94,261015,,*3D
$GPRMC,055410,A,4821.2598,N,431.2703,W,10.00,265.94,261015,,*3F
$GPRMC,055410,A,4821.2589,N,431.2881,W,10.00,265.94,261015,,*3A
$GPRMC,055410,A,4821.2581,N,431.3059,W,10.00,265.94,261015,,*3E
$GPRMC,055410,A,4821.2573,N,431.3236,W,10.00,265.94,261015,,*38
$GPRMC,055410,A,4821.2564,N,431.3414,W,10.00,265.94,261015,,*38
$GPRMC,055410,A,4821.2556,N,431.3592,W,10.00,265.94,261015,,*36
$GPRMC,055410,A,4821.2547,N,431.3770,W,10.00,265.94,261015,,*38
$GPRMC,055410,A,4821.2539,N,431.3948,W,10.00,265.94,261015,,*34
$GPRMC,055410,A,4821.2530,N,431.4125,W,10.00,265.94,261015,,*39
$GPRMC,055410,A,4821.2522,N,431.4303,W,10.00,265.94,261015,,*3C
$GPRMC,055410,A,4821.2513,N,431.4481,W,10.00,265.94,261015,,*33
$GPRMC,055410,A,4821.2505,N,431.4659,W,10.00,265.94,261015,,*33
$GPRMC,055410,A,4821.2497,N,431.4836,W,10.00,265.94,261015,,*3E
$GPRMC,055410,A,4821.2488,N,431.5014,W,10.00,265.94,261015,,*39
$GPRMC,055410,A,4821.2480,N,431.5192,W,10.00,265.94,261015,,*3E
$GPRMC,055410,A,4821.2471,N,431.5370,W,10.00,265.94,261015,,*3E
$GPRMC,055410,A,4821.2463,N,431.5548,W,10.00,265.94,261015,,*30
$GPRMC,055410,A,4821.2454,N,431.5725,W,10.00,265.94,261015,,*3D
$GPRMC,055410,A,4821.2446,N,431.5903,W,10.00,265.94,261015,,*34
$GPRMC,055410,A,4821.2438,N,431.6081,W,10.00,265.94,261015,,*3D
$GPRMC,055410,A,4821.2429,N,431.6259,W,10.00,265.94,261015,,*3A
$GPRMC,055410,A,4821.2421,N,431.6436,W,10.00,265.94,261015,,*3D
$GPRMC,055410,A,4821.2412,N,431.6614,W,10.00,265.94,261015,,*3F
$GPRMC,055410,A,4821.2404,N,431.6792,W,10.00,265.94,261015,,*37
$GPRMC,055410,A,4821.2395,N,431.6970,W,10.00,265.94,261015,,*3A
$GPRMC,055410,A,4821.2387,N,431.7147,W,10.00,265.94,261015,,*34
$GPRMC,055410,A,4821.2378,N,431.7325,W,10.00,265.94,261015,,*32
$GPRMC,055410,A,4821.2370,N,431.7503,W,10.00,265.94,261015,,*38
$GPRMC,055410,A,4821.2362,N,431.7681,W,10.00,265.94,261015,,*32
$GPRMC,055410,A,4821.2353,N,431.7859,W,10.00,265.94,261015,,*3B
$GPRMC,055410,A,4821.2345,N,431.8036,W,10.00,265.94,261015,,*32
$GPRMC,055410,A,4821.2336,N,431.8214,W,10.00,265.94,261015,,*34
$GPRMC,055410,A,4821.2328,N,431.8392,W,10.00,265.94,261015,,*34
$GPRMC,055410,A,4821.2319,N,431.8570,W,10.00,265.94,261015,,*3C
$GPRMC,055410,A,4821.2311,N,431.8747,W,10.00,265.94,261015,,*32
$GPRMC,055410,A,4821.2302,N,431.8925,W,10.00,265.94,261015,,*3A
$GPRMC,055410,A,4821.2294,N,431.9103,W,10.00,265.94,261015,,*39
$GPRMC,055410,A,4821.2285,N,431.9281,W,10.00,265.94,261015,,*30
$GPRMC,055410,A,4821.2277,N,431.9458,W,10.00,265.94,261015,,*3F
$GPRMC,055410,A,4821.2269,N,431.9636,W,10.00,265.94,261015,,*3A
$GPRMC,055410,A,4821.2260,N,431.9814,W,10.00,265.94,261015,,*3D
$GPRMC,055410,A,4821.2252,N,431.9992,W,10.00,265.94,261015,,*33
$GPRMC,055410,A,4821.2243,N,432.0169,W,10.00,265.94,261015,,*35
$GPRMC,055410,A,4821.2235,N,432.0347,W,10.00,265.94,261015,,*3A
$GPRMC,055410,A,4821.2226,N,432.0525,W,10.00,265.94,261015,,*3A
$GPRMC,055410,A,4821.2218,N,432.0703,W,10.00,265.94,261015,,*31
$GPRMC,055410,A,4821.2209,N,432.0881,W,10.00,265.94,261015,,*34
$GPRMC,055410,A,4821.2201,N,432.1058,W,10.00,265.94,261015,,*31
$GPRMC,055410,A,4821.2192,N,432.1236,W,10.00,265.94,261015,,*32
$GPRMC,055410,A,4821.2184,N,432.1414,W,10.00,265.94,261015,,*33
$GPRMC,055410,A,4821.2176,N,432.1592,W,10.00,265.94,261015,,*31
$GPRMC,055410,A,4821.2167,N,432.1769,W,10.00,265.94,261015,,*37
$GPRMC,055410,A,4821.2159,N,432.1947,W,10.00,265.94,261015,,*38
$GPRMC,055410,A,4821.2150,N,432.2125,W,10.00,265.94,261015,,*3E
$GPRMC,055410,A,4821.2142,N,432.2303,W,10.00,265.94,261015,,*3B
$GPRMC,055410,A,4821.2133,N,432.2480,W,10.00,265.94,261015,,*31
$GPRMC,055410,A,4821.2125,N,432.2658,W,10.00,265.94,261015,,*31
$GPRMC,055410,A,4821.2116,N,432.2836,W,10.00,265.94,261015,,*37
$GPRMC,055410,A,4821.2108,N,432.3014,W,10.00,265.94,261015,,*31
$GPRMC,055410,A,4821.2106,N,432.3044,W,10.00,247.87,261015,,*38
$GPRMC,055410,A,4821.2062,N,432.3210,W,10.00,247.87,261015,,*38
$GPRMC,055410,A,4821.2017,N,432.3375,W,10.00,247.87,261015,,*38
$GPRMC,055410,A,4821.1972,N,432.3540,W,10.00,247.87,261015,,*31
$GPRMC,055410,A,4821.1927,N,432.3705,W,10.00,247.87,261015,,*32
$GPRMC,055410,A,4821.1883,N,432.3870,W,10.00,247.87,261015,,*30
$GPRMC,055410,A,4821.1838,N,432.4035,W,10.00,247.87,261015,,*3E
$GPRMC,055410,A,4821.1793,N,432.4200,W,10.00,247.87,261015,,*34
$GPRMC,055410,A,4821.1748,N,432.4365,W,10.00,247.87,261015,,*30
$GPRMC,055410,A,4821.1704,N,432.4531,W,10.00,247.87,261015,,*3F
$GPRMC,055410,A,4821.1659,N,432.4696,W,10.00,247.87,261015,,*38
$GPRMC,055410,A,4821.1614,N,432.4861,W,10.00,247.87,261015,,*37
$GPRMC,055410,A,4821.1569,N,432.5026,W,10.00,247.87,261015,,*34
$GPRMC,055410,A,4821.1525,N,432.5191,W,10.00,247.87,261015,,*31
$GPRMC,055410,A,4821.1480,N,432.5356,W,10.00,247.87,261015,,*36
$GPRMC,055410,A,4821.1435,N,432.5521,W,10.00,247.87,261015,,*3E
$GPRMC,055410,A,4821.1390,N,432.5686,W,10.00,247.87,261015,,*38
$GPRMC,055410,A,4821.1346,N,432.5851,W,10.00,247.87,261015,,*37
$GPRMC,055410,A,4821.1301,N,432.6017,W,10.00,247.87,261015,,*3D
$GPRMC,055410,A,4821.1256,N,432.6182,W,10.00,247.87,261015,,*33
$GPRMC,055410,A,4821.1211,N,432.6347,W,10.00,247.87,261015,,*3B
$GPRMC,055410,A,4821.1167,N,432.6512,W,10.00,247.87,261015,,*3F
$GPRMC,055410,A,4821.1122,N,432.6677,W,10.00,247.87,261015,,*3E
$GPRMC,055410,A,4821.1077,N,432.6842,W,10.00,247.87,261015,,*37
$GPRMC,055410,A,4821.1032,N,432.7007,W,10.00,247.87,261015,,*3E
$GPRMC,055410,A,4821.0988,N,432.7172,W,10.00,247.87,261015,,*34
$GPRMC,055410,A,4821.0943,N,432.7337,W,10.00,247.87,261015,,*30
$GPRMC,055410,A,4821.0898,N,432.7503,W,10.00,247.87,261015,,*36
$GPRMC,055410,A,4821.0853,N,432.7668,W,10.00,247.87,261015,,*3F
$GPRMC,055410,A,4821.0809,N,432.7833,W,10.00,247.87,261015,,*30
$GPRMC,055410,A,4821.0764,N,432.7998,W,10.00,247.87,261015,,*34
$GPRMC,055410,A,4821.0719,N,432.8163,W,10.00,247.87,261015,,*3D
$GPRMC,055410,A,4821.0674,N,432.8328,W,10.00,247.87,261015,,*3A
$GPRMC,055410,A,4821.0630,N,432.8493,W,10.00,247.87,261015,,*3D
$GPRMC,055410,A,4821.0585,N,432.8658,W,10.00,247.87,261015,,*35
$GPRMC,055410,A,4821.0540,N,432.8823,W,10.00,247.87,261015,,*3E
$GPRMC,055410,A,4821.0495,N,432.8989,W,10.00,247.87,261015,,*36
$GPRMC,055410,A,4821.0451,N,432.9154,W,10.00,247.87,261015,,*37
$GPRMC,055410,A,4821.0406,N,432.9319,W,10.00,247.87,261015,,*3E
$GPRMC,055410,A,4821.0361,N,432.9484,W,10.00,247.87,261015,,*3B
$GPRMC,055410,A,4821.0316,N,432.9649,W,10.00,247.87,261015,,*38
$GPRMC,055410,A,4821.0272,N,432.9814,W,10.00,247.87,261015,,*3D
$GPRMC,055410,A,4821.0227,N,432.9979,W,10.00,247.87,261015,,*37
$GPRMC,055410,A,4821.0182,N,433.0144,W,10.00,247.87,261015,,*35
$GPRMC,055410,A,4821.0137,N,433.0309,W,10.00,247.87,261015,,*30
$GPRMC,055410,A,4821.0092,N,433.0474,W,10.00,247.87,261015,,*33
$GPRMC,055410,A,4821.0048,N,433.0640,W,10.00,247.87,261015,,*31
$GPRMC,055410,A,4821.0003,N,433.0805,W,10.00,247.87,261015,,*31
$GPRMC,055410,A,4820.9958,N,433.0970,W,10.00,247.87,261015,,*3D
$GPRMC,055410,A,4820.9913,N,433.1135,W,10.00,247.87,261015,,*3A
$GPRMC,055410,A,4820.9869,N,433.1300,W,10.00,247.87,261015,,*32
$GPRMC,055410,A,4820.9824,N,433.1465,W,10.00,247.87,261015,,*3F
$GPRMC,055410,A,4820.9779,N,433.1630,W,10.00,247.87,261015,,*3A
$GPRMC,055410,A,4820.9734,N,433.1795,W,10.00,247.87,261015,,*3D
$GPRMC,055410,A,4820.9690,N,433.1960,W,10.00,247.87,261015,,*36
$GPRMC,055410,A,4820.9645,N,433.2125,W,10.00,247.87,261015,,*34
$GPRMC,055410,A,4820.9600,N,433.2290,W,10.00,247.87,261015,,*38
$GPRMC,055410,A,4820.9555,N,433.2456,W,10.00,247.87,261015,,*37
$GPRMC,055410,A,4820.9510,N,433.2621,W,10.00,247.87,261015,,*34
$GPRMC,055410,A,4820.9466,N,433.2786,W,10.00,247.87,261015,,*38
$GPRMC,055410,A,4820.9421,N,433.2951,W,10.00,247.87,261015,,*3F
$GPRMC,055410,A,4820.9376,N,433.3116,W,10.00,247.87,261015,,*30
$GPRMC,055410,A,4820.9331,N,433.3281,W,10.00,247.87,261015,,*3E
$GPRMC,055410,A,4820.9287,N,433.3446,W,10.00,247.87,261015,,*3F
$GPRMC,055410,A,4820.9242,N,433.3611,W,10.00,247.87,261015,,*36
$GPRMC,055410,A,4820.9197,N,433.3776,W,10.00,247.87,261015,,*3D
$GPRMC,055410,A,4820.9152,N,433.3941,W,10.00,247.87,261015,,*3E
$GPRMC,055410,A,4820.9108,N,433.4107,W,10.00,247.87,261015,,*3C
$GPRMC,055410,A,4820.9063,N,433.4272,W,10.00,247.87,261015,,*31
$GPRMC,055410,A,4820.9018,N,433.4437,W,10.00,247.87,261015,,*3A
$GPRMC,055410,A,4820.8973,N,433.4602,W,10.00,247.87,261015,,*3B
$GPRMC,055410,A,4820.8928,N,433.4767,W,10.00,247.87,261015,,*37
$GPRMC,055410,A,4820.8884,N,433.4932,W,10.00,247.87,261015,,*3E
$GPRMC,055410,A,4820.8839,N,433.5097,W,10.00,247.87,261015,,*3F
$GPRMC,055410,A,4820.8794,N,433.5262,W,10.00,247.87,261015,,*3F
$GPRMC,055410,A,4820.8749,N,433.5427,W,10.00,247.87,261015,,*38
$GPRMC,055410,A,4820.8705,N,433.5592,W,10.00,247.87,261015,,*3F
$GPRMC,055410,A,4820.8660,N,433.5757,W,10.00,247.87,261015,,*36
$GPRMC,055410,A,4820.8615,N,433.5922,W,10.00,247.87,261015,,*38
$GPRMC,055410,A,4820.8570,N,433.6088,W,10.00,247.87,261015,,*32
$GPRMC,055410,A,4820.8525,N,433.6253,W,10.00,247.87,261015,,*36
$GPRMC,055410,A,4820.8481,N,433.6418,W,10.00,247.87,261015,,*30
$GPRMC,055410,A,4820.8436,N,433.6583,W,10.00,247.87,261015,,*3F
$GPRMC,055410,A,4820.8391,N,433.6748,W,10.00,247.87,261015,,*30
$GPRMC,055410,A,4820.8346,N,433.6913,W,10.00,247.87,261015,,*3A
$GPRMC,055410,A,4820.8302,N,433.7078,W,10.00,247.87,261015,,*3F
$GPRMC,055410,A,4820.8257,N,433.7243,W,10.00,247.87,261015,,*34
$GPRMC,055410,A,4820.8212,N,433.7408,W,10.00,247.87,261015,,*3C
$GPRMC,055410,A,4820.8167,N,433.7573,W,10.00,247.87,261015,,*30
$GPRMC,055410,A,4820.8122,N,433.7738,W,10.00,247.87,261015,,*3C
$GPRMC,055410,A,4820.8078,N,433.7903,W,10.00,247.87,261015,,*34
$GPRMC,055410,A,4820.8033,N,433.8068,W,10.00,247.87,261015,,*30
$GPRMC,055410,A,4820.7988,N,433.8234,W,10.00,247.87,261015,,*3D
$GPRMC,055410,A,4820.7943,N,433.8399,W,10.00,247.87,261015,,*3C
$GPRMC,055410,A,4820.7899,N,433.8564,W,10.00,247.87,261015,,*3E
$GPRMC,055410,A,4820.7854,N,433.8729,W,10.00,247.87,261015,,*34
$GPRMC,055410,A,4820.7809,N,433.8894,W,10.00,247.87,261015,,*35
$GPRMC,055410,A,4820.7764,N,433.9059,W,10.00,247.87,261015,,*39
$GPRMC,055410,A,4820.7719,N,433.9224,W,10.00,247.87,261015,,*3B
$GPRMC,055410,A,4820.7675,N,433.9389,W,10.00,247.87,261015,,*36
$GPRMC,055410,A,4820.7630,N,433.9554,W,10.00,247.87,261015,,*31
$GPRMC,055410,A,4820.7585,N,433.9719,W,10.00,247.87,261015,,*37
$GPRMC,055410,A,4820.7540,N,433.9884,W,10.00,247.87,261015,,*35
$GPRMC,055410,A,4820.7495,N,434.0049,W,10.00,247.87,261015,,*3B
$GPRMC,055410,A,4820.7489,N,434.0072,W,10.00,207.91,261015,,*3D
$GPRMC,055410,A,4820.7307,N,434.0217,W,10.00,207.91,261015,,*3D
$GPRMC,055410,A,4820.7125,N,434.0362,W,10.00,207.91,261015,,*3C
$GPRMC,055410,A,4820.6943,N,434.0507,W,10.00,207.91,261015,,*30
$GPRMC,055410,A,4820.6760,N,434.0652,W,10.00,207.91,261015,,*3C
$GPRMC,055410,A,4820.6578,N,434.0796,W,10.00,207.91,261015,,*3E
$GPRMC,055410,A,4820.6396,N,434.0941,W,10.00,207.91,261015,,*3C
$GPRMC,055410,A,4820.6214,N,434.1086,W,10.00,207.91,261015,,*34
$GPRMC,055410,A,4820.6031,N,434.1231,W,10.00,207.91,261015,,*3F
$GPRMC,055410,A,4820.5849,N,434.1375,W,10.00,207.91,261015,,*3A
$GPRMC,055410,A,4820.5667,N,434.1520,W,10.00,207.91,261015,,*3E
$GPRMC,055410,A,4820.5485,N,434.1665,W,10.00,207.91,261015,,*32
$GPRMC,055410,A,4820.5302,N,434.1810,W,10.00,207.91,261015,,*36
$GPRMC,055410,A,4820.5120,N,434.1954,W,10.00,207.91,261015,,*35
$GPRMC,055410,A,4820.4938,N,434.2099,W,10.00,207.91,261015,,*3E
$GPRMC,055410,A,4820.4756,N,434.2244,W,10.00,207.91,261015,,*3A
$GPRMC,055410,A,4820.4573,N,434.2389,W,10.00,207.91,261015,,*3F
$GPRMC,055410,A,4820.4391,N,434.2533,W,10.00,207.91,261015,,*32
$GPRMC,055410,A,4820.4209,N,434.2678,W,10.00,207.91,261015,,*3E
$GPRMC,055410,A,4820.4027,N,434.2823,W,10.00,207.91,261015,,*30
$GPRMC,055410,A,4820.3844,N,434.2968,W,10.00,207.91,261015,,*34
$GPRMC,055410,A,4820.3662,N,434.3112,W,10.00,207.91,261015,,*3A
$GPRMC,055410,A,4820.3480,N,434.3257,W,10.00,207.91,261015,,*36
$GPRMC,055410,A,4820.3298,N,434.3402,W,10.00,207.91,261015,,*3F
$GPRMC,055410,A,4820.3116,N,434.3547,W,10.00,207.91,261015,,*3A
$GPRMC,055410,A,4820.2933,N,434.3691,W,10.00,207.91,261015,,*3C
$GPRMC,055410,A,4820.2751,N,434.3836,W,10.00,207.91,261015,,*35
$GPRMC,055410,A,4820.2569,N,434.3981,W,10.00,207.91,261015,,*31
$GPRMC,055410,A,4820.2387,N,434.4126,W,10.00,207.91,261015,,*35
$GPRMC,055410,A,4820.2204,N,434.4270,W,10.00,207.91,261015,,*3F
$GPRMC,055410,A,4820.2022,N,434.4415,W,10.00,207.91,261015,,*3C
$GPRMC,055410,A,4820.1840,N,434.4560,W,10.00,207.91,261015,,*30
$GPRMC,055410,A,4820.1658,N,434.4705,W,10.00,207.91,261015,,*36
$GPRMC,055410,A,4820.1475,N,434.4849,W,10.00,207.91,261015,,*3C
$GPRMC,055410,A,4820.1293,N,434.4994,W,10.00,207.91,261015,,*33
$GPRMC,055410,A,4820.1251,N,434.5028,W,10.00,253.27,261015,,*3E
$GPRMC,055410,A,4820.1159,N,434.5486,W,10.00,253.27,261015,,*35
$GPRMC,055410,A,4820.1067,N,434.5945,W,10.00,253.27,261015,,*3B
$GPRMC,055410,A,4820.0975,N,434.6404,W,10.00,253.27,261015,,*3B
$GPRMC,055410,A,4820.0883,N,434.6862,W,10.00,253.27,261015,,*3F
$GPRMC,055410,A,4820.0791,N,434.7321,W,10.00,253.27,261015,,*3E
$GPRMC,055410,A,4820.0699,N,434.7779,W,10.00,253.27,261015,,*3E
$GPRMC,055410,A,4820.0607,N,434.8238,W,10.00,253.27,261015,,*36
$GPRMC,055410,A,4820.0515,N,434.8697,W,10.00,253.27,261015,,*37
$GPRMC,055410,A,4820.0423,N,434.9155,W,10.00,253.27,261015,,*3B
$GPRMC,055410,A,4820.0331,N,434.9614,W,10.00,253.27,261015,,*3D
$GPRMC,055410,A,4820.0239,N,435.0073,W,10.00,253.27,261015,,*3B
$GPRMC,055410,A,4820.0147,N,435.0531,W,10.00,253.27,261015,,*32
$GPRMC,055410,A,4820.0055,N,435.0990,W,10.00,253.27,261015,,*37
$GPRMC,055410,A,4819.9963,N,435.1448,W,10.00,253.27,261015,,*31
