$GPRMC,034746,A,4821.9107,N,429.1167,W,10.00,250.89,260915,,*3D
$GPRMC,034746,A,4821.9095,N,429.1219,W,10.00,250.89,260915,,*3D
$GPRMC,034746,A,4821.9083,N,429.1271,W,10.00,250.89,260915,,*34
$GPRMC,034746,A,4821.9072,N,429.1323,W,10.00,250.89,260915,,*3C
$GPRMC,034746,A,4821.9060,N,429.1375,W,10.00,250.89,260915,,*3C
$GPRMC,034746,A,4821.9048,N,429.1426,W,10.00,250.89,260915,,*37
$GPRMC,034746,A,4821.9036,N,429.1478,W,10.00,250.89,260915,,*35
$GPRMC,034746,A,4821.9024,N,429.1530,W,10.00,250.89,260915,,*3B
$GPRMC,034746,A,4821.9012,N,429.1582,W,10.00,250.89,260915,,*37
$GPRMC,034746,A,4821.9000,N,429.1634,W,10.00,250.89,260915,,*3A
$GPRMC,034746,A,4821.8988,N,429.1686,W,10.00,250.89,260915,,*3B
$GPRMC,034746,A,4821.8976,N,429.1737,W,10.00,250.89,260915,,*31
$GPRMC,034746,A,4821.8964,N,429.1789,W,10.00,250.89,260915,,*37
$GPRMC,034746,A,4821.8952,N,429.1841,W,10.00,250.89,260915,,*39
$GPRMC,034746,A,4821.8940,N,429.1893,W,10.00,250.89,260915,,*35
$GPRMC,034746,A,4821.8928,N,429.1945,W,10.00,250.89,260915,,*31
$GPRMC,034746,A,4821.8916,N,429.1997,W,10.00,250.89,260915,,*33
$GPRMC,034746,A,4821.8904,N,429.2048,W,10.00,250.89,260915,,*38
$GPRMC,034746,A,4821.8892,N,429.2100,W,10.00,250.89,260915,,*3B
$GPRMC,034746,A,4821.8880,N,429.2152,W,10.00,250.89,260915,,*3F
$GPRMC,034746,A,4821.8868,N,429.2204,W,10.00,250.89,260915,,*39
$GPRMC,034746,A,4821.8856,N,429.2256,W,10.00,250.89,260915,,*33
$GPRMC,034746,A,4821.8844,N,429.2307,W,10.00,250.89,260915,,*35
$GPRMC,034746,A,4821.8832,N,429.2359,W,10.00,250.89,260915,,*3F
$GPRMC,034746,A,4821.8820,N,429.2411,W,10.00,250.89,260915,,*37
$GPRMC,034746,A,4821.8808,N,429.2463,W,10.00,250.89,260915,,*38
$GPRMC,034746,A,4821.8796,N,429.2515,W,10.00,250.89,260915,,*30
$GPRMC,034746,A,4821.8784,N,429.2567,W,10.00,250.89,260915,,*36
$GPRMC,034746,A,4821.8772,N,429.2618,W,10.00,250.89,260915,,*34
$GPRMC,034746,A,4821.8760,N,429.2670,W,10.00,250.89,260915,,*39
$GPRMC,034746,A,4821.8748,N,429.2722,W,10.00,250.89,260915,,*35
$GPRMC,034746,A,4821.8736,N,429.2774,W,10.00,250.89,260915,,*3F
$GPRMC,034746,A,4821.8724,N,429.2826,W,10.00,250.89,260915,,*34
$GPRMC,034746,A,4821.8712,N,429.2877,W,10.00,250.89,260915,,*35
$GPRMC,034746,A,4821.8701,N,429.2929,W,10.00,250.89,260915,,*3D
$GPRMC,034746,A,4821.8689,N,429.2981,W,10.00,250.89,260915,,*3E
$GPRMC,034746,A,4821.8677,N,429.3033,W,10.00,250.89,260915,,*3E
$GPRMC,034746,A,4821.8665,N,429.3085,W,10.00,250.89,260915,,*30
$GPRMC,034746,A,4821.8653,N,429.3137,W,10.00,250.89,260915,,*3D
$GPRMC,034746,A,4821.8641,N,429.3188,W,10.00,250.89,260915,,*3A
$GPRMC,034746,A,4821.8629,N,429.3240,W,10.00,250.89,260915,,*33
$GPRMC,034746,A,4821.8617,N,429.3292,W,10.00,250.89,260915,,*31
$GPRMC,034746,A,4821.8605,N,429.3344,W,10.00,250.89,260915,,*38
$GPRMC,034746,A,4821.8593,N,429.3396,W,10.00,250.89,260915,,*3B
$GPRMC,034746,A,4821.8581,N,429.3447,W,10.00,250.89,260915,,*33
$GPRMC,034746,A,4821.8569,N,429.3499,W,10.00,250.89,260915,,*36
$GPRMC,034746,A,4821.8557,N,429.3551,W,10.00,250.89,260915,,*3E
$GPRMC,034746,A,4821.8545,N,429.3603,W,10.00,250.89,260915,,*39
$GPRMC,034746,A,4821.8533,N,429.3655,W,10.00,250.89,260915,,*3B
$GPRMC,034746,A,4821.8521,N,429.3707,W,10.00,250.89,260915,,*3E
$GPRMC,034746,A,4821.8509,N,429.3758,W,10.00,250.89,260915,,*3E
$GPRMC,034746,A,4821.8497,N,429.3810,W,10.00,250.89,260915,,*3B
$GPRMC,034746,A,4821.8485,N,429.3862,W,10.00,250.89,260915,,*3D
$GPRMC,034746,A,4821.8473,N,429.3914,W,10.00,250.89,260915,,*34
$GPRMC,034746,A,4821.8461,N,429.3966,W,10.00,250.89,260915,,*32
$GPRMC,034746,A,4821.8449,N,429.4017,W,10.00,250.89,260915,,*30
$GPRMC,034746,A,4821.8437,N,429.4069,W,10.00,250.89,260915,,*30
$GPRMC,034746,A,4821.8425,N,429.4121,W,10.00,250.89,260915,,*3E
$GPRMC,034746,A,4821.8413,N,429.4173,W,10.00,250.89,260915,,*3C
$GPRMC,034746,A,4821.8401,N,429.4225,W,10.00,250.89,260915,,*3F
$GPRMC,034746,A,4821.8389,N,429.4277,W,10.00,250.89,260915,,*3F
$GPRMC,034746,A,4821.8377,N,429.4328,W,10.00,250.89,260915,,*35
$GPRMC,034746,A,4821.8365,N,429.4380,W,10.00,250.89,260915,,*34
$GPRMC,034746,A,4821.8353,N,429.4432,W,10.00,250.89,260915,,*3F
$GPRMC,034746,A,4821.8341,N,429.4484,W,10.00,250.89,260915,,*31
$GPRMC,034746,A,4821.8329,N,429.4536,W,10.00,250.89,260915,,*37
$GPRMC,034746,A,4821.8317,N,429.4587,W,10.00,250.89,260915,,*30
$GPRMC,034746,A,4821.8306,N,429.4639,W,10.00,250.89,260915,,*36
$GPRMC,034746,A,4821.8294,N,429.4691,W,10.00,250.89,260915,,*3E
$GPRMC,034746,A,4821.8282,N,429.4743,W,10.00,250.89,260915,,*37
$GPRMC,034746,A,4821.8270,N,429.4795,W,10.00,250.89,260915,,*31
$GPRMC,034746,A,4821.8258,N,429.4847,W,10.00,250.89,260915,,*3B
$GPRMC,034746,A,4821.8246,N,429.4898,W,10.00,250.89,260915,,*36
$GPRMC,034746,A,4821.8234,N,429.4950,W,10.00,250.89,260915,,*36
$GPRMC,034746,A,4821.8222,N,429.5002,W,10.00,250.89,260915,,*3E
$GPRMC,034746,A,4821.8210,N,429.5054,W,10.00,250.89,260915,,*3C
$GPRMC,034746,A,4821.8198,N,429.5106,W,10.00,250.89,260915,,*39
$GPRMC,034746,A,4821.8186,N,429.5157,W,10.00,250.89,260915,,*32
$GPRMC,034746,A,4821.8174,N,429.5209,W,10.00,250.89,260915,,*37
$GPRMC,034746,A,4821.8162,N,429.5261,W,10.00,250.89,260915,,*3E
$GPRMC,034746,A,4821.8150,N,429.5313,W,10.00,250.89,260915,,*3B
$GPRMC,034746,A,4821.8138,N,429.5365,W,10.00,250.89,260915,,*34
$GPRMC,034746,A,4821.8126,N,429.5417,W,10.00,250.89,260915,,*39
$GPRMC,034746,A,4821.8114,N,429.5468,W,10.00,250.89,260915,,*30
$GPRMC,034746,A,4821.8102,N,429.5520,W,10.00,250.89,260915,,*3A
$GPRMC,034746,A,4821.8090,N,429.5572,W,10.00,250.89,260915,,*37
$GPRMC,034746,A,4821.8078,N,429.5624,W,10.00,250.89,260915,,*31
$GPRMC,034746,A,4821.8066,N,429.5676,W,10.00,250.89,260915,,*39
$GPRMC,034746,A,4821.8054,N,429.5727,W,10.00,250.89,260915,,*3D
$GPRMC,034746,A,4821.8042,N,429.5779,W,10.00,250.89,260915,,*31
$GPRMC,034746,A,4821.8030,N,429.5831,W,10.00,250.89,260915,,*37
$GPRMC,034746,A,4821.8018,N,429.5883,W,10.00,250.89,260915,,*34
$GPRMC,034746,A,4821.8006,N,429.5935,W,10.00,250.89,260915,,*37
$GPRMC,034746,A,4821.7994,N,429.5987,W,10.00,250.89,260915,,*33
$GPRMC,034746,A,4821.7982,N,429.6038,W,10.00,250.89,260915,,*3A
$GPRMC,034746,A,4821.7970,N,429.6090,W,10.00,250.89,260915,,*35
$GPRMC,034746,A,4821.7958,N,429.6142,W,10.00,250.89,260915,,*31
$GPRMC,034746,A,4821.7946,N,429.6194,W,10.00,250.89,260915,,*35
$GPRMC,034746,A,4821.7934,N,429.6246,W,10.00,250.89,260915,,*3C
$GPRMC,034746,A,4821.7922,N,429.6297,W,10.00,250.89,260915,,*37
$GPRMC,034746,A,4821.7910,N,429.6349,W,10.00,250.89,260915,,*34
$GPRMC,034746,A,4821.7899,N,429.6401,W,10.00,250.89,260915,,*3F
$GPRMC,034746,A,4821.7887,N,429.6453,W,10.00,250.89,260915,,*37
$GPRMC,034746,A,4821.7875,N,429.6505,W,10.00,250.89,260915,,*38
$GPRMC,034746,A,4821.7863,N,429.6557,W,10.00,250.89,260915,,*38
$GPRMC,034746,A,4821.7851,N,429.6608,W,10.00,250.89,260915,,*30
$GPRMC,034746,A,4821.7839,N,429.6660,W,10.00,250.89,260915,,*30
$GPRMC,034746,A,4821.7827,N,429.6712,W,10.00,250.89,260915,,*3B
$GPRMC,034746,A,4821.7815,N,429.6764,W,10.00,250.89,260915,,*3B
$GPRMC,034746,A,4821.7803,N,429.6816,W,10.00,250.89,260915,,*36
$GPRMC,034746,A,4821.7791,N,429.6867,W,10.00,250.89,260915,,*34
$GPRMC,034746,A,4821.7779,N,429.6919,W,10.00,250.89,260915,,*3A
$GPRMC,034746,A,4821.7767,N,429.6971,W,10.00,250.89,260915,,*3B
$GPRMC,034746,A,4821.7755,N,429.7023,W,10.00,250.89,260915,,*35
$GPRMC,034746,A,4821.7743,N,429.7075,W,10.00,250.89,260915,,*31
$GPRMC,034746,A,4821.7731,N,429.7126,W,10.00,250.89,260915,,*33
$GPRMC,034746,A,4821.7719,N,429.7178,W,10.00,250.89,260915,,*32
$GPRMC,034746,A,4821.7707,N,429.7230,W,10.00,250.89,260915,,*32
$GPRMC,034746,A,4821.7695,N,429.7282,W,10.00,250.89,260915,,*31
$GPRMC,034746,A,4821.7683,N,429.7334,W,10.00,250.89,260915,,*3A
$GPRMC,034746,A,4821.7671,N,429.7386,W,10.00,250.89,260915,,*3E
$GPRMC,034746,A,4821.7659,N,429.7437,W,10.00,250.89,260915,,*39
$GPRMC,034746,A,4821.7647,N,429.7489,W,10.00,250.89,260915,,*33
$GPRMC,034746,A,4821.7635,N,429.7541,W,10.00,250.89,260915,,*33
$GPRMC,034746,A,4821.7623,N,429.7593,W,10.00,250.89,260915,,*3B
$GPRMC,034746,A,4821.7611,N,429.7645,W,10.00,250.89,260915,,*32
$GPRMC,034746,A,4821.7599,N,429.7696,W,10.00,250.89,260915,,*3F
$GPRMC,034746,A,4821.7587,N,429.7748,W,10.00,250.89,260915,,*32
$GPRMC,034746,A,4821.7575,N,429.7800,W,10.00,250.89,260915,,*3C
$GPRMC,034746,A,4821.7563,N,429.7852,W,10.00,250.89,260915,,*3C
$GPRMC,034746,A,4821.7551,N,429.7904,W,10.00,250.89,260915,,*3F
$GPRMC,034746,A,4821.7539,N,429.7956,W,10.00,250.89,260915,,*36
$GPRMC,034746,A,4821.7527,N,429.8007,W,10.00,250.89,260915,,*3B
$GPRMC,034746,A,4821.7515,N,429.8059,W,10.00,250.89,260915,,*31
$GPRMC,034746,A,4821.7503,N,429.8111,W,10.00,250.89,260915,,*3B
$GPRMC,034746,A,4821.7491,N,429.8163,W,10.00,250.89,260915,,*34
$GPRMC,034746,A,4821.7480,N,429.8215,W,10.00,250.89,260915,,*36
$GPRMC,034746,A,4821.7468,N,429.8266,W,10.00,250.89,260915,,*34
$GPRMC,034746,A,4821.7456,N,429.8318,W,10.00,250.89,260915,,*31
$GPRMC,034746,A,4821.7444,N,429.8370,W,10.00,250.89,260915,,*3C
$GPRMC,034746,A,4821.7432,N,429.8422,W,10.00,250.89,260915,,*3D
$GPRMC,034746,A,4821.7420,N,429.8474,W,10.00,250.89,260915,,*3D
$GPRMC,034746,A,4821.7408,N,429.8525,W,10.00,250.89,260915,,*32
$GPRMC,034746,A,4821.7396,N,429.8577,W,10.00,250.89,260915,,*35
$GPRMC,034746,A,4821.7384,N,429.8629,W,10.00,250.89,260915,,*3E
$GPRMC,034746,A,4821.7372,N,429.8681,W,10.00,250.89,260915,,*35
$GPRMC,034746,A,4821.7360,N,429.8733,W,10.00,250.89,260915,,*3E
$GPRMC,034746,A,4821.7348,N,429.8785,W,10.00,250.89,260915,,*39
$GPRMC,034746,A,4821.7336,N,429.8836,W,10.00,250.89,260915,,*37
$GPRMC,034746,A,4821.7324,N,429.8888,W,10.00,250.89,260915,,*31
$GPRMC,034746,A,4821.7312,N,429.8940,W,10.00,250.89,260915,,*31
$GPRMC,034746,A,4821.7300,N,429.8992,W,10.00,250.89,260915,,*3D
$GPRMC,034746,A,4821.7288,N,429.9044,W,10.00,250.89,260915,,*3F
$GPRMC,034746,A,4821.7276,N,429.9095,W,10.00,250.89,260915,,*32
$GPRMC,034746,A,4821.7264,N,429.9147,W,10.00,250.89,260915,,*3F
$GPRMC,034746,A,4821.7252,N,429.9199,W,10.00,250.89,260915,,*39
$GPRMC,034746,A,4821.7240,N,429.9251,W,10.00,250.89,260915,,*3D
$GPRMC,034746,A,4821.7228,N,429.9303,W,10.00,250.89,260915,,*35
$GPRMC,034746,A,4821.7216,N,429.9355,W,10.00,250.89,260915,,*3B
$GPRMC,034746,A,4821.7204,N,429.9406,W,10.00,250.89,260915,,*39
$GPRMC,034746,A,4821.7192,N,429.9458,W,10.00,250.89,260915,,*3E
$GPRMC,034746,A,4821.7180,N,429.9510,W,10.00,250.89,260915,,*30
$GPRMC,034746,A,4821.7168,N,429.9562,W,10.00,250.89,260915,,*33
$GPRMC,034746,A,4821.7156,N,429.9614,W,10.00,250.89,260915,,*3C
$GPRMC,034746,A,4821.7144,N,429.9665,W,10.00,250.89,260915,,*39
$GPRMC,034746,A,4821.7132,N,429.9717,W,10.00,250.89,260915,,*3C
$GPRMC,034746,A,4821.7120,N,429.9769,W,10.00,250.89,260915,,*36
$GPRMC,034746,A,4821.7108,N,429.9821,W,10.00,250.89,260915,,*3F
$GPRMC,034746,A,4821.7096,N,429.9873,W,10.00,250.89,260915,,*3E
$GPRMC,034746,A,4821.7084,N,429.9924,W,10.00,250.89,260915,,*3E
$GPRMC,034746,A,4821.7072,N,429.9976,W,10.00,250.89,260915,,*30
$GPRMC,034746,A,4821.7060,N,430.0028,W,10.00,250.89,260915,,*30
$GPRMC,034746,A,4821.7048,N,430.0080,W,10.00,250.89,260915,,*38
$GPRMC,034746,A,4821.7036,N,430.0132,W,10.00,250.89,260915,,*39
$GPRMC,034746,A,4821.7025,N,430.0184,W,10.00,250.89,260915,,*36
$GPRMC,034746,A,4821.7013,N,430.0235,W,10.00,250.89,260915,,*3A
$GPRMC,034746,A,4821.7001,N,430.0287,W,10.00,250.89,260915,,*30
$GPRMC,034746,A,4821.6989,N,430.0339,W,10.00,250.89,260915,,*3C
$GPRMC,034746,A,4821.6977,N,430.0391,W,10.00,250.89,260915,,*3F
$GPRMC,034746,A,4821.6965,N,430.0443,W,10.00,250.89,260915,,*34
$GPRMC,034746,A,4821.6953,N,430.0494,W,10.00,250.89,260915,,*3B
$GPRMC,034746,A,4821.6941,N,430.0546,W,10.00,250.89,260915,,*36
$GPRMC,034746,A,4821.6929,N,430.0598,W,10.00,250.89,260915,,*3B
$GPRMC,034746,A,4821.6917,N,430.0650,W,10.00,250.89,260915,,*31
$GPRMC,034746,A,4821.6905,N,430.0702,W,10.00,250.89,260915,,*34
$GPRMC,034746,A,4821.6893,N,430.0753,W,10.00,250.89,260915,,*3E
$GPRMC,034746,A,4821.6881,N,430.0805,W,10.00,250.89,260915,,*31
$GPRMC,034746,A,4821.6869,N,430.0857,W,10.00,250.89,260915,,*30
$GPRMC,034746,A,4821.6857,N,430.0909,W,10.00,250.89,260915,,*37
$GPRMC,034746,A,4821.6845,N,430.0961,W,10.00,250.89,260915,,*3A
$GPRMC,034746,A,4821.6833,N,430.1013,W,10.00,250.89,260915,,*36
$GPRMC,034746,A,4821.6821,N,430.1064,W,10.00,250.89,260915,,*35
$GPRMC,034746,A,4821.6809,N,430.1116,W,10.00,250.89,260915,,*3B
$GPRMC,034746,A,4821.6797,N,430.1168,W,10.00,250.89,260915,,*3A
$GPRMC,034746,A,4821.6785,N,430.1220,W,10.00,250.89,260915,,*36
$GPRMC,034746,A,4821.6773,N,430.1272,W,10.00,250.89,260915,,*38
$GPRMC,034746,A,4821.6761,N,430.1323,W,10.00,250.89,260915,,*3E
$GPRMC,034746,A,4821.6749,N,430.1375,W,10.00,250.89,260915,,*37
$GPRMC,034746,A,4821.6737,N,430.1427,W,10.00,250.89,260915,,*3E
$GPRMC,034746,A,4821.6725,N,430.1479,W,10.00,250.89,260915,,*36
$GPRMC,034746,A,4821.6713,N,430.1531,W,10.00,250.89,260915,,*3E
$GPRMC,034746,A,4821.6701,N,430.1582,W,10.00,250.89,260915,,*35
$GPRMC,034746,A,4821.6689,N,430.1634,W,10.00,250.89,260915,,*3A
$GPRMC,034746,A,4821.6677,N,430.1686,W,10.00,250.89,260915,,*32
$GPRMC,034746,A,4821.6665,N,430.1738,W,10.00,250.89,260915,,*35
$GPRMC,034746,A,4821.6653,N,430.1790,W,10.00,250.89,260915,,*32
$GPRMC,034746,A,4821.6641,N,430.1842,W,10.00,250.89,260915,,*31
$GPRMC,034746,A,4821.6629,N,430.1893,W,10.00,250.89,260915,,*33
$GPRMC,034746,A,4821.6617,N,430.1945,W,10.00,250.89,260915,,*34
$GPRMC,034746,A,4821.6605,N,430.1997,W,10.00,250.89,260915,,*38
$GPRMC,034746,A,4821.6593,N,430.2049,W,10.00,250.89,260915,,*3D
$GPRMC,034746,A,4821.6581,N,430.2101,W,10.00,250.89,260915,,*33
$GPRMC,034746,A,4821.6569,N,430.2152,W,10.00,250.89,260915,,*33
$GPRMC,034746,A,4821.6557,N,430.2204,W,10.00,250.89,260915,,*3E
$GPRMC,034746,A,4821.6546,N,430.2256,W,10.00,250.89,260915,,*39
$GPRMC,034746,A,4821.6534,N,430.2308,W,10.00,250.89,260915,,*36
$GPRMC,034746,A,4821.6522,N,430.2360,W,10.00,250.89,260915,,*3F
$GPRMC,034746,A,4821.6510,N,430.2411,W,10.00,250.89,260915,,*3F
$GPRMC,034746,A,4821.6498,N,430.2463,W,10.00,250.89,260915,,*3B
$GPRMC,034746,A,4821.6486,N,430.2515,W,10.00,250.89,260915,,*34
$GPRMC,034746,A,4821.6474,N,430.2567,W,10.00,250.89,260915,,*3C
$GPRMC,034746,A,4821.6462,N,430.2619,W,10.00,250.89,260915,,*31
$GPRMC,034746,A,4821.6450,N,430.2671,W,10.00,250.89,260915,,*3E
$GPRMC,034746,A,4821.6438,N,430.2722,W,10.00,250.89,260915,,*37
$GPRMC,034746,A,4821.6426,N,430.2774,W,10.00,250.89,260915,,*3B
$GPRMC,034746,A,4821.6414,N,430.2826,W,10.00,250.89,260915,,*32
$GPRMC,034746,A,4821.6402,N,430.2878,W,10.00,250.89,260915,,*3E
$GPRMC,034746,A,4821.6390,N,430.2930,W,10.00,250.89,260915,,*3F
$GPRMC,034746,A,4821.6378,N,430.2981,W,10.00,250.89,260915,,*33
$GPRMC,034746,A,4821.6366,N,430.3033,W,10.00,250.89,260915,,*3D
$GPRMC,034746,A,4821.6354,N,430.3085,W,10.00,250.89,260915,,*31
$GPRMC,034746,A,4821.6342,N,430.3137,W,10.00,250.89,260915,,*3E
$GPRMC,034746,A,4821.6330,N,430.3189,W,10.00,250.89,260915,,*3E
$GPRMC,034746,A,4821.6318,N,430.3240,W,10.00,250.89,260915,,*32
$GPRMC,034746,A,4821.6306,N,430.3292,W,10.00,250.89,260915,,*32
$GPRMC,034746,A,4821.6294,N,430.3344,W,10.00,250.89,260915,,*32
$GPRMC,034746,A,4821.6282,N,430.3396,W,10.00,250.89,260915,,*3A
$GPRMC,034746,A,4821.6270,N,430.3448,W,10.00,250.89,260915,,*33
$GPRMC,034746,A,4821.6258,N,430.3500,W,10.00,250.89,260915,,*34
$GPRMC,034746,A,4821.6246,N,430.3551,W,10.00,250.89,260915,,*3F
$GPRMC,034746,A,4821.6234,N,430.3603,W,10.00,250.89,260915,,*3E
$GPRMC,034746,A,4821.6222,N,430.3655,W,10.00,250.89,260915,,*3A
$GPRMC,034746,A,4821.6210,N,430.3707,W,10.00,250.89,260915,,*3D
$GPRMC,034746,A,4821.6198,N,430.3759,W,10.00,250.89,260915,,*35
$GPRMC,034746,A,4821.6186,N,430.3810,W,10.00,250.89,260915,,*38
$GPRMC,034746,A,4821.6174,N,430.3862,W,10.00,250.89,260915,,*30
$GPRMC,034746,A,4821.6162,N,430.3914,W,10.00,250.89,260915,,*37
$GPRMC,034746,A,4821.6150,N,430.3966,W,10.00,250.89,260915,,*33
$GPRMC,034746,A,4821.6138,N,430.4018,W,10.00,250.89,260915,,*3A
$GPRMC,034746,A,4821.6126,N,430.4069,W,10.00,250.89,260915,,*33
$GPRMC,034746,A,4821.6114,N,430.4121,W,10.00,250.89,260915,,*3F
$GPRMC,034746,A,4821.6102,N,430.4173,W,10.00,250.89,260915,,*3F
$GPRMC,034746,A,4821.6090,N,430.4225,W,10.00,250.89,260915,,*35
$GPRMC,034746,A,4821.6078,N,430.4277,W,10.00,250.89,260915,,*34
$GPRMC,034746,A,4821.6066,N,430.4328,W,10.00,250.89,260915,,*30
$GPRMC,034746,A,4821.6054,N,430.4380,W,10.00,250.89,260915,,*33
$GPRMC,034746,A,4821.6043,N,430.4432,W,10.00,250.89,260915,,*3B
$GPRMC,034746,A,4821.6031,N,430.4484,W,10.00,250.89,260915,,*33
$GPRMC,034746,A,4821.6019,N,430.4536,W,10.00,250.89,260915,,*31
$GPRMC,034746,A,4821.6007,N,430.4588,W,10.00,250.89,260915,,*3B
$GPRMC,034746,A,4821.5995,N,430.4639,W,10.00,250.89,260915,,*33
$GPRMC,034746,A,4821.5983,N,430.4691,W,10.00,250.89,260915,,*36
$GPRMC,034746,A,4821.5971,N,430.4743,W,10.00,250.89,260915,,*35
$GPRMC,034746,A,4821.5959,N,430.4795,W,10.00,250.89,260915,,*34
$GPRMC,034746,A,4821.5947,N,430.4847,W,10.00,250.89,260915,,*3B
$GPRMC,034746,A,4821.5935,N,430.4898,W,10.00,250.89,260915,,*3C
$GPRMC,034746,A,4821.5923,N,430.4950,W,10.00,250.89,260915,,*3E
$GPRMC,034746,A,4821.5911,N,430.5002,W,10.00,250.89,260915,,*30
$GPRMC,034746,A,4821.5899,N,430.5054,W,10.00,250.89,260915,,*32
$GPRMC,034746,A,4821.5887,N,430.5106,W,10.00,250.89,260915,,*3B
$GPRMC,034746,A,4821.5875,N,430.5157,W,10.00,250.89,260915,,*32
$GPRMC,034746,A,4821.5863,N,430.5209,W,10.00,250.89,260915,,*3D
$GPRMC,034746,A,4821.5851,N,430.5261,W,10.00,250.89,260915,,*32
$GPRMC,034746,A,4821.5839,N,430.5313,W,10.00,250.89,260915,,*38
$GPRMC,034746,A,4821.5827,N,430.5365,W,10.00,250.89,260915,,*36
$GPRMC,034746,A,4821.5815,N,430.5416,W,10.00,250.89,260915,,*34
$GPRMC,034746,A,4821.5803,N,430.5468,W,10.00,250.89,260915,,*3A
$GPRMC,034746,A,4821.5791,N,430.5520,W,10.00,250.89,260915,,*33
$GPRMC,034746,A,4821.5779,N,430.5572,W,10.00,250.89,260915,,*32
$GPRMC,034746,A,4821.5767,N,430.5624,W,10.00,250.89,260915,,*3D
$GPRMC,034746,A,4821.5755,N,430.5676,W,10.00,250.89,260915,,*3B
$GPRMC,034746,A,4821.5743,N,430.5727,W,10.00,250.89,260915,,*39
$GPRMC,034746,A,4821.5731,N,430.5779,W,10.00,250.89,260915,,*37
$GPRMC,034746,A,4821.5719,N,430.5831,W,10.00,250.89,260915,,*3E
$GPRMC,034746,A,4821.5707,N,430.5883,W,10.00,250.89,260915,,*38
$GPRMC,034746,A,4821.5695,N,430.5935,W,10.00,250.89,260915,,*3E
$GPRMC,034746,A,4821.5683,N,430.5986,W,10.00,250.89,260915,,*31
$GPRMC,034746,A,4821.5671,N,430.6038,W,10.00,250.89,260915,,*33
$GPRMC,034746,A,4821.5659,N,430.6090,W,10.00,250.89,260915,,*3B
$GPRMC,034746,A,4821.5647,N,430.6142,W,10.00,250.89,260915,,*3A
$GPRMC,034746,A,4821.5635,N,430.6194,W,10.00,250.89,260915,,*34
$GPRMC,034746,A,4821.5623,N,430.6245,W,10.00,250.89,260915,,*3C
$GPRMC,034746,A,4821.5611,N,430.6297,W,10.00,250.89,260915,,*32
$GPRMC,034746,A,4821.5599,N,430.6349,W,10.00,250.89,260915,,*33
$GPRMC,034746,A,4821.5587,N,430.6401,W,10.00,250.89,260915,,*37
$GPRMC,034746,A,4821.5575,N,430.6453,W,10.00,250.89,260915,,*3D
$GPRMC,034746,A,4821.5563,N,430.6504,W,10.00,250.89,260915,,*39
$GPRMC,034746,A,4821.5551,N,430.6556,W,10.00,250.89,260915,,*3F
$GPRMC,034746,A,4821.5539,N,430.6608,W,10.00,250.89,260915,,*39
$GPRMC,034746,A,4821.5527,N,430.6660,W,10.00,250.89,260915,,*38
$GPRMC,034746,A,4821.5515,N,430.6712,W,10.00,250.89,260915,,*3D
$GPRMC,034746,A,4821.5503,N,430.6764,W,10.00,250.89,260915,,*3B
$GPRMC,034746,A,4821.5492,N,430.6815,W,10.00,250.89,260915,,*3B
$GPRMC,034746,A,4821.5480,N,430.6867,W,10.00,250.89,260915,,*3D
$GPRMC,034746,A,4821.5468,N,430.6919,W,10.00,250.89,260915,,*33
$GPRMC,034746,A,4821.5456,N,430.6971,W,10.00,250.89,260915,,*30
$GPRMC,034746,A,4821.5444,N,430.7023,W,10.00,250.89,260915,,*3C
$GPRMC,034746,A,4821.5432,N,430.7074,W,10.00,250.89,260915,,*3F
$GPRMC,034746,A,4821.5420,N,430.7126,W,10.00,250.89,260915,,*3A
$GPRMC,034746,A,4821.5408,N,430.7178,W,10.00,250.89,260915,,*3B
$GPRMC,034746,A,4821.5396,N,430.7230,W,10.00,250.89,260915,,*34
$GPRMC,034746,A,4821.5384,N,430.7282,W,10.00,250.89,260915,,*3E
$GPRMC,034746,A,4821.5372,N,430.7333,W,10.00,250.89,260915,,*3C
$GPRMC,034746,A,4821.5360,N,430.7385,W,10.00,250.89,260915,,*32
$GPRMC,034746,A,4821.5348,N,430.7437,W,10.00,250.89,260915,,*36
$GPRMC,034746,A,4821.5336,N,430.7489,W,10.00,250.89,260915,,*3A
$GPRMC,034746,A,4821.5324,N,430.7541,W,10.00,250.89,260915,,*3C
$GPRMC,034746,A,4821.5312,N,430.7592,W,10.00,250.89,260915,,*37
$GPRMC,034746,A,4821.5300,N,430.7644,W,10.00,250.89,260915,,*3C
$GPRMC,034746,A,4821.5288,N,430.7696,W,10.00,250.89,260915,,*32
$GPRMC,034746,A,4821.5276,N,430.7748,W,10.00,250.89,260915,,*31
$GPRMC,034746,A,4821.5264,N,430.7800,W,10.00,250.89,260915,,*31
$GPRMC,034746,A,4821.5252,N,430.7851,W,10.00,250.89,260915,,*30
$GPRMC,034746,A,4821.5240,N,430.7903,W,10.00,250.89,260915,,*35
$GPRMC,034746,A,4821.5228,N,430.7955,W,10.00,250.89,260915,,*38
$GPRMC,034746,A,4821.5216,N,430.8007,W,10.00,250.89,260915,,*34
$GPRMC,034746,A,4821.5204,N,430.8059,W,10.00,250.89,260915,,*3C
$GPRMC,034746,A,4821.5192,N,430.8111,W,10.00,250.89,260915,,*3D
$GPRMC,034746,A,4821.5180,N,430.8162,W,10.00,250.89,260915,,*3A
$GPRMC,034746,A,4821.5168,N,430.8214,W,10.00,250.89,260915,,*3E
$GPRMC,034746,A,4821.5156,N,430.8266,W,10.00,250.89,260915,,*36
$GPRMC,034746,A,4821.5144,N,430.8318,W,10.00,250.89,260915,,*3D
$GPRMC,034746,A,4821.5132,N,430.8370,W,10.00,250.89,260915,,*32
$GPRMC,034746,A,4821.5120,N,430.8421,W,10.00,250.89,260915,,*32
$GPRMC,034746,A,4821.5108,N,430.8473,W,10.00,250.89,260915,,*3F
$GPRMC,034746,A,4821.5096,N,430.8525,W,10.00,250.89,260915,,*3B
$GPRMC,034746,A,4821.5084,N,430.8577,W,10.00,250.89,260915,,*3F
$GPRMC,034746,A,4821.5072,N,430.8629,W,10.00,250.89,260915,,*3E
$GPRMC,034746,A,4821.5060,N,430.8680,W,10.00,250.89,260915,,*3E
$GPRMC,034746,A,4821.5048,N,430.8732,W,10.00,250.89,260915,,*3C
$GPRMC,034746,A,4821.5036,N,430.8784,W,10.00,250.89,260915,,*38
$GPRMC,034746,A,4821.5024,N,430.8836,W,10.00,250.89,260915,,*3D
$GPRMC,034746,A,4821.5012,N,430.8888,W,10.00,250.89,260915,,*3D
$GPRMC,034746,A,4821.5000,N,430.8939,W,10.00,250.89,260915,,*35
$GPRMC,034746,A,4821.4988,N,430.8991,W,10.00,250.89,260915,,*3F
$GPRMC,034746,A,4821.4976,N,430.9043,W,10.00,250.89,260915,,*39
$GPRMC,034746,A,4821.4964,N,430.9095,W,10.00,250.89,260915,,*31
$GPRMC,034746,A,4821.4952,N,430.9147,W,10.00,250.89,260915,,*3A
$GPRMC,034746,A,4821.4940,N,430.9198,W,10.00,250.89,260915,,*3B
$GPRMC,034746,A,4821.4928,N,430.9250,W,10.00,250.89,260915,,*32
$GPRMC,034746,A,4821.4916,N,430.9302,W,10.00,250.89,260915,,*39
$GPRMC,034746,A,4821.4904,N,430.9354,W,10.00,250.89,260915,,*39
$GPRMC,034746,A,4821.4892,N,430.9406,W,10.00,250.89,260915,,*37
$GPRMC,034746,A,4821.4881,N,430.9458,W,10.00,250.89,260915,,*3E
$GPRMC,034746,A,4821.4869,N,430.9509,W,10.00,250.89,260915,,*3D
$GPRMC,034746,A,4821.4857,N,430.9561,W,10.00,250.89,260915,,*3E
$GPRMC,034746,A,4821.4845,N,430.9613,W,10.00,250.89,260915,,*3B
$GPRMC,034746,A,4821.4833,N,430.9665,W,10.00,250.89,260915,,*3B
$GPRMC,034746,A,4821.4821,N,430.9717,W,10.00,250.89,260915,,*3C
$GPRMC,034746,A,4821.4809,N,430.9768,W,10.00,250.89,260915,,*3E
$GPRMC,034746,A,4821.4797,N,430.9820,W,10.00,250.89,260915,,*35
$GPRMC,034746,A,4821.4785,N,430.9872,W,10.00,250.89,260915,,*31
$GPRMC,034746,A,4821.4773,N,430.9924,W,10.00,250.89,260915,,*3A
$GPRMC,034746,A,4821.4761,N,430.9976,W,10.00,250.89,260915,,*3E
$GPRMC,034746,A,4821.4749,N,431.0027,W,10.00,250.89,260915,,*31
$GPRMC,034746,A,4821.4737,N,431.0079,W,10.00,250.89,260915,,*33
$GPRMC,034746,A,4821.4725,N,431.0131,W,10.00,250.89,260915,,*3D
$GPRMC,034746,A,4821.4713,N,431.0183,W,10.00,250.89,260915,,*31
$GPRMC,034746,A,4821.4701,N,431.0235,W,10.00,250.89,260915,,*3C
$GPRMC,034746,A,4821.4689,N,431.0286,W,10.00,250.89,260915,,*35
$GPRMC,034746,A,4821.4677,N,431.0338,W,10.00,250.89,260915,,*30
$GPRMC,034746,A,4821.4665,N,431.0390,W,10.00,250.89,260915,,*31
$GPRMC,034746,A,4821.4653,N,431.0442,W,10.00,250.89,260915,,*3C
$GPRMC,034746,A,4821.4641,N,431.0494,W,10.00,250.89,260915,,*34
$GPRMC,034746,A,4821.4629,N,431.0545,W,10.00,250.89,260915,,*37
$GPRMC,034746,A,4821.4617,N,431.0597,W,10.00,250.89,260915,,*35
$GPRMC,034746,A,4821.4605,N,431.0649,W,10.00,250.89,260915,,*36
$GPRMC,034746,A,4821.4593,N,431.0701,W,10.00,250.89,260915,,*37
$GPRMC,034746,A,4821.4581,N,431.0753,W,10.00,250.89,260915,,*33
$GPRMC,034746,A,4821.4569,N,431.0804,W,10.00,250.89,260915,,*38
$GPRMC,034746,A,4821.4557,N,431.0856,W,10.00,250.89,260915,,*32
$GPRMC,034746,A,4821.4545,N,431.0908,W,10.00,250.89,260915,,*3B
$GPRMC,034746,A,4821.4533,N,431.0960,W,10.00,250.89,260915,,*34
$GPRMC,034746,A,4821.4521,N,431.1012,W,10.00,250.89,260915,,*3A
$GPRMC,034746,A,4821.4509,N,431.1063,W,10.00,250.89,260915,,*36
$GPRMC,034746,A,4821.4497,N,431.1115,W,10.00,250.89,260915,,*30
$GPRMC,034746,A,4821.4485,N,431.1167,W,10.00,250.89,260915,,*36
$GPRMC,034746,A,4821.4473,N,431.1219,W,10.00,250.89,260915,,*35
$GPRMC,034746,A,4821.4461,N,431.1271,W,10.00,250.89,260915,,*38
$GPRMC,034746,A,4821.4449,N,431.1323,W,10.00,250.89,260915,,*34
$GPRMC,034746,A,4821.4437,N,431.1374,W,10.00,250.89,260915,,*3F
$GPRMC,034746,A,4821.4425,N,431.1426,W,10.00,250.89,260915,,*3C
$GPRMC,034746,A,4821.4413,N,431.1478,W,10.00,250.89,260915,,*32
$GPRMC,034746,A,4821.4401,N,431.1530,W,10.00,250.89,260915,,*3C
$GPRMC,034746,A,4821.4389,N,431.1582,W,10.00,250.89,260915,,*32
$GPRMC,034746,A,4821.4377,N,431.1633,W,10.00,250.89,260915,,*3A
$GPRMC,034746,A,4821.4365,N,431.1685,W,10.00,250.89,260915,,*34
$GPRMC,034746,A,4821.4353,N,431.1737,W,10.00,250.89,260915,,*39
$GPRMC,034746,A,4821.4341,N,431.1789,W,10.00,250.89,260915,,*3F
$GPRMC,034746,A,4821.4329,N,431.1841,W,10.00,250.89,260915,,*3A
$GPRMC,034746,A,4821.4317,N,431.1892,W,10.00,250.89,260915,,*39
$GPRMC,034746,A,4821.4305,N,431.1944,W,10.00,250.89,260915,,*30
$GPRMC,034746,A,4821.4293,N,431.1996,W,10.00,250.89,260915,,*31
$GPRMC,034746,A,4821.4281,N,431.2048,W,10.00,250.89,260915,,*3B
$GPRMC,034746,A,4821.4269,N,431.2100,W,10.00,250.89,260915,,*30
$GPRMC,034746,A,4821.4257,N,431.2151,W,10.00,250.89,260915,,*39
$GPRMC,034746,A,4821.4245,N,431.2203,W,10.00,250.89,260915,,*3E
$GPRMC,034746,A,4821.4233,N,431.2255,W,10.00,250.89,260915,,*3C
$GPRMC,034746,A,4821.4221,N,431.2307,W,10.00,250.89,260915,,*39
$GPRMC,034746,A,4821.4210,N,431.2359,W,10.00,250.89,260915,,*30
$GPRMC,034746,A,4821.4198,N,431.2410,W,10.00,250.89,260915,,*39
$GPRMC,034746,A,4821.4186,N,431.2462,W,10.00,250.89,260915,,*33
$GPRMC,034746,A,4821.4174,N,431.2514,W,10.00,250.89,260915,,*3E
$GPRMC,034746,A,4821.4162,N,431.2566,W,10.00,250.89,260915,,*3C
$GPRMC,034746,A,4821.4150,N,431.2618,W,10.00,250.89,260915,,*37
$GPRMC,034746,A,4821.4138,N,431.2669,W,10.00,250.89,260915,,*3F
$GPRMC,034746,A,4821.4126,N,431.2721,W,10.00,250.89,260915,,*3D
$GPRMC,034746,A,4821.4114,N,431.2773,W,10.00,250.89,260915,,*3B
$GPRMC,034746,A,4821.4102,N,431.2825,W,10.00,250.89,260915,,*30
$GPRMC,034746,A,4821.4090,N,431.2877,W,10.00,250.89,260915,,*3D
$GPRMC,034746,A,4821.4078,N,431.2928,W,10.00,250.89,260915,,*30
$GPRMC,034746,A,4821.4066,N,431.2980,W,10.00,250.89,260915,,*3D
$GPRMC,034746,A,4821.4054,N,431.3032,W,10.00,250.89,260915,,*3D
$GPRMC,034746,A,4821.4042,N,431.3084,W,10.00,250.89,260915,,*37
$GPRMC,034746,A,4821.4030,N,431.3136,W,10.00,250.89,260915,,*3A
$GPRMC,034746,A,4821.4018,N,431.3187,W,10.00,250.89,260915,,*3A
$GPRMC,034746,A,4821.4006,N,431.3239,W,10.00,250.89,260915,,*33
$GPRMC,034746,A,4821.3994,N,431.3291,W,10.00,250.89,260915,,*34
$GPRMC,034746,A,4821.3982,N,431.3343,W,10.00,250.89,260915,,*3D
$GPRMC,034746,A,4821.3970,N,431.3395,W,10.00,250.89,260915,,*3B
$GPRMC,034746,A,4821.3958,N,431.3446,W,10.00,250.89,260915,,*38
$GPRMC,034746,A,4821.3946,N,431.3498,W,10.00,250.89,260915,,*34
$GPRMC,034746,A,4821.3934,N,431.3550,W,10.00,250.89,260915,,*34
$GPRMC,034746,A,4821.3922,N,431.3602,W,10.00,250.89,260915,,*37
$GPRMC,034746,A,4821.3910,N,431.3654,W,10.00,250.89,260915,,*35
$GPRMC,034746,A,4821.3898,N,431.3705,W,10.00,250.89,260915,,*31
$GPRMC,034746,A,4821.3886,N,431.3757,W,10.00,250.89,260915,,*39
$GPRMC,034746,A,4821.3874,N,431.3809,W,10.00,250.89,260915,,*30
$GPRMC,034746,A,4821.3862,N,431.3861,W,10.00,250.89,260915,,*39
$GPRMC,034746,A,4821.3850,N,431.3913,W,10.00,250.89,260915,,*3C
$GPRMC,034746,A,4821.3838,N,431.3964,W,10.00,250.89,260915,,*32
$GPRMC,034746,A,4821.3826,N,431.4016,W,10.00,250.89,260915,,*36
$GPRMC,034746,A,4821.3814,N,431.4068,W,10.00,250.89,260915,,*3E
$GPRMC,034746,A,4821.3802,N,431.4120,W,10.00,250.89,260915,,*34
$GPRMC,034746,A,4821.3790,N,431.4172,W,10.00,250.89,260915,,*37
$GPRMC,034746,A,4821.3778,N,431.4224,W,10.00,250.89,260915,,*31
$GPRMC,034746,A,4821.3766,N,431.4275,W,10.00,250.89,260915,,*3A
$GPRMC,034746,A,4821.3754,N,431.4327,W,10.00,250.89,260915,,*3D
$GPRMC,034746,A,4821.3742,N,431.4379,W,10.00,250.89,260915,,*31
$GPRMC,034746,A,4821.3730,N,431.4431,W,10.00,250.89,260915,,*3F
$GPRMC,034746,A,4821.3718,N,431.4483,W,10.00,250.89,260915,,*3C
$GPRMC,034746,A,4821.3706,N,431.4534,W,10.00,250.89,260915,,*3E
$GPRMC,034746,A,4821.3694,N,431.4586,W,10.00,250.89,260915,,*3D
$GPRMC,034746,A,4821.3682,N,431.4638,W,10.00,250.89,260915,,*3C
$GPRMC,034746,A,4821.3670,N,431.4690,W,10.00,250.89,260915,,*33
$GPRMC,034746,A,4821.3658,N,431.4742,W,10.00,250.89,260915,,*37
$GPRMC,034746,A,4821.3646,N,431.4793,W,10.00,250.89,260915,,*34
$GPRMC,034746,A,4821.3634,N,431.4845,W,10.00,250.89,260915,,*35
$GPRMC,034746,A,4821.3622,N,431.4897,W,10.00,250.89,260915,,*3D
$GPRMC,034746,A,4821.3610,N,431.4949,W,10.00,250.89,260915,,*3E
$GPRMC,034746,A,4821.3598,N,431.5001,W,10.00,250.89,260915,,*39
$GPRMC,034746,A,4821.3586,N,431.5052,W,10.00,250.89,260915,,*30
$GPRMC,034746,A,4821.3574,N,431.5104,W,10.00,250.89,260915,,*3F
$GPRMC,034746,A,4821.3562,N,431.5156,W,10.00,250.89,260915,,*3F
$GPRMC,034746,A,4821.3550,N,431.5208,W,10.00,250.89,260915,,*36
$GPRMC,034746,A,4821.3538,N,431.5260,W,10.00,250.89,260915,,*36
$GPRMC,034746,A,4821.3526,N,431.5311,W,10.00,250.89,260915,,*3E
$GPRMC,034746,A,4821.3514,N,431.5363,W,10.00,250.89,260915,,*3A
$GPRMC,034746,A,4821.3502,N,431.5415,W,10.00,250.89,260915,,*3B
$GPRMC,034746,A,4821.3490,N,431.5467,W,10.00,250.89,260915,,*34
$GPRMC,034746,A,4821.3478,N,431.5519,W,10.00,250.89,260915,,*3A
$GPRMC,034746,A,4821.3466,N,431.5570,W,10.00,250.89,260915,,*3A
$GPRMC,034746,A,4821.3454,N,431.5622,W,10.00,250.89,260915,,*3F
$GPRMC,034746,A,4821.3443,N,431.5674,W,10.00,250.89,260915,,*3A
$GPRMC,034746,A,4821.3431,N,431.5726,W,10.00,250.89,260915,,*39
$GPRMC,034746,A,4821.3419,N,431.5778,W,10.00,250.89,260915,,*38
$GPRMC,034746,A,4821.3407,N,431.5829,W,10.00,250.89,260915,,*3C
$GPRMC,034746,A,4821.3395,N,431.5881,W,10.00,250.89,260915,,*32
$GPRMC,034746,A,4821.3383,N,431.5933,W,10.00,250.89,260915,,*3D
$GPRMC,034746,A,4821.3371,N,431.5985,W,10.00,250.89,260915,,*3D
$GPRMC,034746,A,4821.3359,N,431.6037,W,10.00,250.89,260915,,*34
$GPRMC,034746,A,4821.3347,N,431.6088,W,10.00,250.89,260915,,*3F
$GPRMC,034746,A,4821.3335,N,431.6140,W,10.00,250.89,260915,,*3F
$GPRMC,034746,A,4821.3323,N,431.6192,W,10.00,250.89,260915,,*37
$GPRMC,034746,A,4821.3311,N,431.6244,W,10.00,250.89,260915,,*3E
$GPRMC,034746,A,4821.3299,N,431.6296,W,10.00,250.89,260915,,*30
$GPRMC,034746,A,4821.3287,N,431.6347,W,10.00,250.89,260915,,*32
$GPRMC,034746,A,4821.3275,N,431.6399,W,10.00,250.89,260915,,*3C
$GPRMC,034746,A,4821.3263,N,431.6451,W,10.00,250.89,260915,,*38
$GPRMC,034746,A,4821.3251,N,431.6503,W,10.00,250.89,260915,,*3F
$GPRMC,034746,A,4821.3239,N,431.6555,W,10.00,250.89,260915,,*32
$GPRMC,034746,A,4821.3227,N,431.6606,W,10.00,250.89,260915,,*38
$GPRMC,034746,A,4821.3215,N,431.6658,W,10.00,250.89,260915,,*32
$GPRMC,034746,A,4821.3203,N,431.6710,W,10.00,250.89,260915,,*38
$GPRMC,034746,A,4821.3191,N,431.6762,W,10.00,250.89,260915,,*35
$GPRMC,034746,A,4821.3179,N,431.6814,W,10.00,250.89,260915,,*3D
$GPRMC,034746,A,4821.3167,N,431.6865,W,10.00,250.89,260915,,*34
$GPRMC,034746,A,4821.3155,N,431.6917,W,10.00,250.89,260915,,*31
$GPRMC,034746,A,4821.3143,N,431.6969,W,10.00,250.89,260915,,*3F
$GPRMC,034746,A,4821.3131,N,431.7021,W,10.00,250.89,260915,,*3E
$GPRMC,034746,A,4821.3119,N,431.7073,W,10.00,250.89,260915,,*33
$GPRMC,034746,A,4821.3107,N,431.7124,W,10.00,250.89,260915,,*3F
$GPRMC,034746,A,4821.3095,N,431.7176,W,10.00,250.89,260915,,*32
$GPRMC,034746,A,4821.3083,N,431.7228,W,10.00,250.89,260915,,*3D
$GPRMC,034746,A,4821.3071,N,431.7280,W,10.00,250.89,260915,,*32
$GPRMC,034746,A,4821.3059,N,431.7332,W,10.00,250.89,260915,,*30
$GPRMC,034746,A,4821.3047,N,431.7383,W,10.00,250.89,260915,,*35
$GPRMC,034746,A,4821.3035,N,431.7435,W,10.00,250.89,260915,,*3A
$GPRMC,034746,A,4821.3023,N,431.7487,W,10.00,250.89,260915,,*34
$GPRMC,034746,A,4821.3011,N,431.7539,W,10.00,250.89,260915,,*31
$GPRMC,034746,A,4821.2999,N,431.7591,W,10.00,250.89,260915,,*3B
$GPRMC,034746,A,4821.2987,N,431.7642,W,10.00,250.89,260915,,*39
$GPRMC,034746,A,4821.2975,N,431.7694,W,10.00,250.89,260915,,*3F
$GPRMC,034746,A,4821.2963,N,431.7746,W,10.00,250.89,260915,,*36
$GPRMC,034746,A,4821.2951,N,431.7798,W,10.00,250.89,260915,,*34
$GPRMC,034746,A,4821.2939,N,431.7850,W,10.00,250.89,260915,,*31
$GPRMC,034746,A,4821.2927,N,431.7901,W,10.00,250.89,260915,,*3B
$GPRMC,034746,A,4821.2915,N,431.7953,W,10.00,250.89,260915,,*3D
$GPRMC,034746,A,4821.2903,N,431.8005,W,10.00,250.89,260915,,*3F
$GPRMC,034746,A,4821.2891,N,431.8057,W,10.00,250.89,260915,,*32
$GPRMC,034746,A,4821.2879,N,431.8109,W,10.00,250.89,260915,,*3E
$GPRMC,034746,A,4821.2867,N,431.8160,W,10.00,250.89,260915,,*3E
$GPRMC,034746,A,4821.2855,N,431.8212,W,10.00,250.89,260915,,*39
$GPRMC,034746,A,4821.2843,N,431.8264,W,10.00,250.89,260915,,*3F
$GPRMC,034746,A,4821.2831,N,431.8316,W,10.00,250.89,260915,,*3E
$GPRMC,034746,A,4821.2819,N,431.8368,W,10.00,250.89,260915,,*3D
$GPRMC,034746,A,4821.2807,N,431.8419,W,10.00,250.89,260915,,*33
$GPRMC,034746,A,4821.2795,N,431.8471,W,10.00,250.89,260915,,*39
$GPRMC,034746,A,4821.2783,N,431.8523,W,10.00,250.89,260915,,*38
$GPRMC,034746,A,4821.2771,N,431.8575,W,10.00,250.89,260915,,*36
$GPRMC,034746,A,4821.2759,N,431.8627,W,10.00,250.89,260915,,*38
$GPRMC,034746,A,4821.2747,N,431.8678,W,10.00,250.89,260915,,*3D
$GPRMC,034746,A,4821.2735,N,431.8730,W,10.00,250.89,260915,,*35
$GPRMC,034746,A,4821.2723,N,431.8782,W,10.00,250.89,260915,,*3B
$GPRMC,034746,A,4821.2711,N,431.8834,W,10.00,250.89,260915,,*38
$GPRMC,034746,A,4821.2699,N,431.8886,W,10.00,250.89,260915,,*30
$GPRMC,034746,A,4821.2687,N,431.8937,W,10.00,250.89,260915,,*34
$GPRMC,034746,A,4821.2675,N,431.8989,W,10.00,250.89,260915,,*3C
$GPRMC,034746,A,4821.2663,N,431.9041,W,10.00,250.89,260915,,*37
$GPRMC,034746,A,4821.2651,N,431.9093,W,10.00,250.89,260915,,*39
$GPRMC,034746,A,4821.2639,N,431.9145,W,10.00,250.89,260915,,*3D
$GPRMC,034746,A,4821.2627,N,431.9196,W,10.00,250.89,260915,,*3C
$GPRMC,034746,A,4821.2615,N,431.9248,W,10.00,250.89,260915,,*3D
$GPRMC,034746,A,4821.2603,N,431.9300,W,10.00,250.89,260915,,*37
$GPRMC,034746,A,4821.2591,N,431.9352,W,10.00,250.89,260915,,*38
$GPRMC,034746,A,4821.2579,N,431.9404,W,10.00,250.89,260915,,*3A
$GPRMC,034746,A,4821.2567,N,431.9455,W,10.00,250.89,260915,,*31
$GPRMC,034746,A,4821.2555,N,431.9507,W,10.00,250.89,260915,,*36
$GPRMC,034746,A,4821.2543,N,431.9559,W,10.00,250.89,260915,,*3A
$GPRMC,034746,A,4821.2531,N,431.9611,W,10.00,250.89,260915,,*30
$GPRMC,034746,A,4821.2519,N,431.9663,W,10.00,250.89,260915,,*3F
$GPRMC,034746,A,4821.2507,N,431.9714,W,10.00,250.89,260915,,*31
$GPRMC,034746,A,4821.2496,N,431.9766,W,10.00,250.89,260915,,*3D
$GPRMC,034746,A,4821.2484,N,431.9818,W,10.00,250.89,260915,,*38
$GPRMC,034746,A,4821.2472,N,431.9870,W,10.00,250.89,260915,,*3F
$GPRMC,034746,A,4821.2460,N,431.9922,W,10.00,250.89,260915,,*3A
$GPRMC,034746,A,4821.2448,N,431.9973,W,10.00,250.89,260915,,*34
$GPRMC,034746,A,4821.2436,N,432.0025,W,10.00,250.89,260915,,*3D
$GPRMC,034746,A,4821.2424,N,432.0077,W,10.00,250.89,260915,,*39
$GPRMC,034746,A,4821.2412,N,432.0129,W,10.00,250.89,260915,,*36
$GPRMC,034746,A,4821.2400,N,432.0181,W,10.00,250.89,260915,,*37
$GPRMC,034746,A,4821.2388,N,432.0232,W,10.00,250.89,260915,,*3B
$GPRMC,034746,A,4821.2376,N,432.0284,W,10.00,250.89,260915,,*37
$GPRMC,034746,A,4821.2364,N,432.0336,W,10.00,250.89,260915,,*3C
$GPRMC,034746,A,4821.2352,N,432.0388,W,10.00,250.89,260915,,*3C
$GPRMC,034746,A,4821.2340,N,432.0440,W,10.00,250.89,260915,,*3C
$GPRMC,034746,A,4821.2328,N,432.0491,W,10.00,250.89,260915,,*3E
$GPRMC,034746,A,4821.2316,N,432.0543,W,10.00,250.89,260915,,*3D
$GPRMC,034746,A,4821.2304,N,432.0595,W,10.00,250.89,260915,,*35
$GPRMC,034746,A,4821.2292,N,432.0647,W,10.00,250.89,260915,,*37
$GPRMC,034746,A,4821.2280,N,432.0699,W,10.00,250.89,260915,,*37
$GPRMC,034746,A,4821.2268,N,432.0750,W,10.00,250.89,260915,,*35
$GPRMC,034746,A,4821.2256,N,432.0802,W,10.00,250.89,260915,,*30
$GPRMC,034746,A,4821.2244,N,432.0854,W,10.00,250.89,260915,,*30
$GPRMC,034746,A,4821.2232,N,432.0906,W,10.00,250.89,260915,,*37
$GPRMC,034746,A,4821.2220,N,432.0957,W,10.00,250.89,260915,,*30
$GPRMC,034746,A,4821.2208,N,432.1009,W,10.00,250.89,260915,,*39
$GPRMC,034746,A,4821.2196,N,432.1061,W,10.00,250.89,260915,,*33
$GPRMC,034746,A,4821.2184,N,432.1113,W,10.00,250.89,260915,,*34
$GPRMC,034746,A,4821.2172,N,432.1165,W,10.00,250.89,260915,,*3C
$GPRMC,034746,A,4821.2160,N,432.1216,W,10.00,250.89,260915,,*38
$GPRMC,034746,A,4821.2148,N,432.1268,W,10.00,250.89,260915,,*3B
$GPRMC,034746,A,4821.2136,N,432.1320,W,10.00,250.89,260915,,*3F
$GPRMC,034746,A,4821.2124,N,432.1372,W,10.00,250.89,260915,,*3B
$GPRMC,034746,A,4821.2112,N,432.1424,W,10.00,250.89,260915,,*3A
$GPRMC,034746,A,4821.2100,N,432.1475,W,10.00,250.89,260915,,*3D
$GPRMC,034746,A,4821.2088,N,432.1527,W,10.00,250.89,260915,,*3A
$GPRMC,034746,A,4821.2076,N,432.1579,W,10.00,250.89,260915,,*30
$GPRMC,034746,A,4821.2064,N,432.1631,W,10.00,250.89,260915,,*3C
$GPRMC,034746,A,4821.2052,N,432.1683,W,10.00,250.89,260915,,*30
$GPRMC,034746,A,4821.2040,N,432.1734,W,10.00,250.89,260915,,*3E
$GPRMC,034746,A,4821.2028,N,432.1786,W,10.00,250.89,260915,,*39
$GPRMC,034746,A,4821.2016,N,432.1838,W,10.00,250.89,260915,,*3E
$GPRMC,034746,A,4821.2004,N,432.1890,W,10.00,250.89,260915,,*3F
$GPRMC,034746,A,4821.1992,N,432.1942,W,10.00,250.89,260915,,*34
$GPRMC,034746,A,4821.1980,N,432.1993,W,10.00,250.89,260915,,*3B
$GPRMC,034746,A,4821.1968,N,432.2045,W,10.00,250.89,260915,,*3C
$GPRMC,034746,A,4821.1956,N,432.2097,W,10.00,250.89,260915,,*3E
$GPRMC,034746,A,4821.1944,N,432.2149,W,10.00,250.89,260915,,*3F
$GPRMC,034746,A,4821.1932,N,432.2201,W,10.00,250.89,260915,,*31
$GPRMC,034746,A,4821.1920,N,432.2252,W,10.00,250.89,260915,,*34
$GPRMC,034746,A,4821.1908,N,432.2304,W,10.00,250.89,260915,,*3C
$GPRMC,034746,A,4821.1896,N,432.2356,W,10.00,250.89,260915,,*3D
$GPRMC,034746,A,4821.1884,N,432.2408,W,10.00,250.89,260915,,*32
$GPRMC,034746,A,4821.1872,N,432.2460,W,10.00,250.89,260915,,*35
$GPRMC,034746,A,4821.1860,N,432.2511,W,10.00,250.89,260915,,*31
$GPRMC,034746,A,4821.1848,N,432.2563,W,10.00,250.89,260915,,*3E
$GPRMC,034746,A,4821.1836,N,432.2615,W,10.00,250.89,260915,,*35
$GPRMC,034746,A,4821.1824,N,432.2667,W,10.00,250.89,260915,,*33
$GPRMC,034746,A,4821.1812,N,432.2719,W,10.00,250.89,260915,,*3E
$GPRMC,034746,A,4821.1800,N,432.2770,W,10.00,250.89,260915,,*32
$GPRMC,034746,A,4821.1788,N,432.2822,W,10.00,250.89,260915,,*35
$GPRMC,034746,A,4821.1776,N,432.2874,W,10.00,250.89,260915,,*37
$GPRMC,034746,A,4821.1764,N,432.2926,W,10.00,250.89,260915,,*32
$GPRMC,034746,A,4821.1752,N,432.2978,W,10.00,250.89,260915,,*3C
$GPRMC,034746,A,4821.1740,N,432.3029,W,10.00,250.89,260915,,*33
$GPRMC,034746,A,4821.1728,N,432.3081,W,10.00,250.89,260915,,*3F
$GPRMC,034746,A,4821.1716,N,432.3133,W,10.00,250.89,260915,,*3A
$GPRMC,034746,A,4821.1704,N,432.3185,W,10.00,250.89,260915,,*34
$GPRMC,034746,A,4821.1692,N,432.3237,W,10.00,250.89,260915,,*30
$GPRMC,034746,A,4821.1680,N,432.3288,W,10.00,250.89,260915,,*37
$GPRMC,034746,A,4821.1668,N,432.3340,W,10.00,250.89,260915,,*34
$GPRMC,034746,A,4821.1656,N,432.3392,W,10.00,250.89,260915,,*36
$GPRMC,034746,A,4821.1644,N,432.3444,W,10.00,250.89,260915,,*39
$GPRMC,034746,A,4821.1632,N,432.3496,W,10.00,250.89,260915,,*37
$GPRMC,034746,A,4821.1620,N,432.3547,W,10.00,250.89,260915,,*39
$GPRMC,034746,A,4821.1608,N,432.3599,W,10.00,250.89,260915,,*30
$GPRMC,034746,A,4821.1596,N,432.3651,W,10.00,250.89,260915,,*33
$GPRMC,034746,A,4821.1584,N,432.3703,W,10.00,250.89,260915,,*36
$GPRMC,034746,A,4821.1572,N,432.3754,W,10.00,250.89,260915,,*3D
$GPRMC,034746,A,4821.1560,N,432.3806,W,10.00,250.89,260915,,*36
$GPRMC,034746,A,4821.1548,N,432.3858,W,10.00,250.89,260915,,*37
$GPRMC,034746,A,4821.1536,N,432.3910,W,10.00,250.89,260915,,*33
$GPRMC,034746,A,4821.1524,N,432.3962,W,10.00,250.89,260915,,*35
$GPRMC,034746,A,4821.1512,N,432.4013,W,10.00,250.89,260915,,*38
$GPRMC,034746,A,4821.1500,N,432.4065,W,10.00,250.89,260915,,*3A
$GPRMC,034746,A,4821.1488,N,432.4117,W,10.00,250.89,260915,,*3F
$GPRMC,034746,A,4821.1476,N,432.4169,W,10.00,250.89,260915,,*37
$GPRMC,034746,A,4821.1464,N,432.4221,W,10.00,250.89,260915,,*3B
$GPRMC,034746,A,4821.1452,N,432.4272,W,10.00,250.89,260915,,*38
$GPRMC,034746,A,4821.1440,N,432.4324,W,10.00,250.89,260915,,*39
$GPRMC,034746,A,4821.1428,N,432.4376,W,10.00,250.89,260915,,*30
$GPRMC,034746,A,4821.1416,N,432.4428,W,10.00,250.89,260915,,*31
$GPRMC,034746,A,4821.1404,N,432.4480,W,10.00,250.89,260915,,*30
$GPRMC,034746,A,4821.1392,N,432.4531,W,10.00,250.89,260915,,*33
$GPRMC,034746,A,4821.1380,N,432.4583,W,10.00,250.89,260915,,*39
$GPRMC,034746,A,4821.1368,N,432.4635,W,10.00,250.89,260915,,*31
$GPRMC,034746,A,4821.1356,N,432.4687,W,10.00,250.89,260915,,*35
$GPRMC,034746,A,4821.1344,N,432.4739,W,10.00,250.89,260915,,*32
$GPRMC,034746,A,4821.1332,N,432.4790,W,10.00,250.89,260915,,*30
$GPRMC,034746,A,4821.1320,N,432.4842,W,10.00,250.89,260915,,*33
$GPRMC,034746,A,4821.1308,N,432.4894,W,10.00,250.89,260915,,*32
$GPRMC,034746,A,4821.1296,N,432.4946,W,10.00,250.89,260915,,*3A
$GPRMC,034746,A,4821.1284,N,432.4998,W,10.00,250.89,260915,,*3A
$GPRMC,034746,A,4821.1272,N,432.5049,W,10.00,250.89,260915,,*37
$GPRMC,034746,A,4821.1260,N,432.5101,W,10.00,250.89,260915,,*39
$GPRMC,034746,A,4821.1248,N,432.5153,W,10.00,250.89,260915,,*34
$GPRMC,034746,A,4821.1236,N,432.5205,W,10.00,250.89,260915,,*3D
$GPRMC,034746,A,4821.1224,N,432.5257,W,10.00,250.89,260915,,*39
$GPRMC,034746,A,4821.1212,N,432.5308,W,10.00,250.89,260915,,*37
$GPRMC,034746,A,4821.1200,N,432.5360,W,10.00,250.89,260915,,*3A
$GPRMC,034746,A,4821.1188,N,432.5412,W,10.00,250.89,260915,,*3B
$GPRMC,034746,A,4821.1176,N,432.5464,W,10.00,250.89,260915,,*3B
$GPRMC,034746,A,4821.1164,N,432.5515,W,10.00,250.89,260915,,*3F
$GPRMC,034746,A,4821.1153,N,432.5567,W,10.00,250.89,260915,,*3E
$GPRMC,034746,A,4821.1141,N,432.5619,W,10.00,250.89,260915,,*37
$GPRMC,034746,A,4821.1129,N,432.5671,W,10.00,250.89,260915,,*37
$GPRMC,034746,A,4821.1117,N,432.5723,W,10.00,250.89,260915,,*3C
$GPRMC,034746,A,4821.1105,N,432.5774,W,10.00,250.89,260915,,*3D
$GPRMC,034746,A,4821.1093,N,432.5826,W,10.00,250.89,260915,,*3B
$GPRMC,034746,A,4821.1081,N,432.5878,W,10.00,250.89,260915,,*33
$GPRMC,034746,A,4821.1069,N,432.5930,W,10.00,250.89,260915,,*38
$GPRMC,034746,A,4821.1057,N,432.5982,W,10.00,250.89,260915,,*3C
$GPRMC,034746,A,4821.1045,N,432.6033,W,10.00,250.89,260915,,*3F
$GPRMC,034746,A,4821.1033,N,432.6085,W,10.00,250.89,260915,,*33
$GPRMC,034746,A,4821.1021,N,432.6137,W,10.00,250.89,260915,,*38
$GPRMC,034746,A,4821.1009,N,432.6189,W,10.00,250.89,260915,,*37
$GPRMC,034746,A,4821.0997,N,432.6241,W,10.00,250.89,260915,,*3F
$GPRMC,034746,A,4821.0985,N,432.6292,W,10.00,250.89,260915,,*32
$GPRMC,034746,A,4821.0973,N,432.6344,W,10.00,250.89,260915,,*31
$GPRMC,034746,A,4821.0961,N,432.6396,W,10.00,250.89,260915,,*3D
$GPRMC,034746,A,4821.0949,N,432.6448,W,10.00,250.89,260915,,*33
$GPRMC,034746,A,4821.0937,N,432.6500,W,10.00,250.89,260915,,*37
$GPRMC,034746,A,4821.0925,N,432.6551,W,10.00,250.89,260915,,*30
$GPRMC,034746,A,4821.0913,N,432.6603,W,10.00,250.89,260915,,*31
$GPRMC,034746,A,4821.0901,N,432.6655,W,10.00,250.89,260915,,*31
$GPRMC,034746,A,4821.0889,N,432.6707,W,10.00,250.89,260915,,*36
$GPRMC,034746,A,4821.0877,N,432.6759,W,10.00,250.89,260915,,*3C
$GPRMC,034746,A,4821.0865,N,432.6810,W,10.00,250.89,260915,,*3D
$GPRMC,034746,A,4821.0853,N,432.6862,W,10.00,250.89,260915,,*3D
$GPRMC,034746,A,4821.0841,N,432.6914,W,10.00,250.89,260915,,*3E
$GPRMC,034746,A,4821.0829,N,432.6966,W,10.00,250.89,260915,,*35
$GPRMC,034746,A,4821.0817,N,432.7017,W,10.00,250.89,260915,,*36
$GPRMC,034746,A,4821.0805,N,432.7069,W,10.00,250.89,260915,,*3C
$GPRMC,034746,A,4821.0793,N,432.7121,W,10.00,250.89,260915,,*31
$GPRMC,034746,A,4821.0781,N,432.7173,W,10.00,250.89,260915,,*35
$GPRMC,034746,A,4821.0769,N,432.7225,W,10.00,250.89,260915,,*33
$GPRMC,034746,A,4821.0757,N,432.7276,W,10.00,250.89,260915,,*38
$GPRMC,034746,A,4821.0745,N,432.7328,W,10.00,250.89,260915,,*31
$GPRMC,034746,A,4821.0733,N,432.7380,W,10.00,250.89,260915,,*32
$GPRMC,034746,A,4821.0721,N,432.7432,W,10.00,250.89,260915,,*3F
$GPRMC,034746,A,4821.0709,N,432.7484,W,10.00,250.89,260915,,*38
$GPRMC,034746,A,4821.0697,N,432.7535,W,10.00,250.89,260915,,*35
$GPRMC,034746,A,4821.0685,N,432.7587,W,10.00,250.89,260915,,*3F
$GPRMC,034746,A,4821.0673,N,432.7639,W,10.00,250.89,260915,,*30
$GPRMC,034746,A,4821.0661,N,432.7691,W,10.00,250.89,260915,,*31
$GPRMC,034746,A,4821.0649,N,432.7743,W,10.00,250.89,260915,,*35
$GPRMC,034746,A,4821.0637,N,432.7794,W,10.00,250.89,260915,,*36
$GPRMC,034746,A,4821.0625,N,432.7846,W,10.00,250.89,260915,,*35
$GPRMC,034746,A,4821.0613,N,432.7898,W,10.00,250.89,260915,,*33
$GPRMC,034746,A,4821.0601,N,432.7950,W,10.00,250.89,260915,,*35
$GPRMC,034746,A,4821.0589,N,432.8002,W,10.00,250.89,260915,,*37
$GPRMC,034746,A,4821.0577,N,432.8053,W,10.00,250.89,260915,,*32
$GPRMC,034746,A,4821.0565,N,432.8105,W,10.00,250.89,260915,,*33
$GPRMC,034746,A,4821.0553,N,432.8157,W,10.00,250.89,260915,,*31
$GPRMC,034746,A,4821.0541,N,432.8209,W,10.00,250.89,260915,,*3A
$GPRMC,034746,A,4821.0529,N,432.8260,W,10.00,250.89,260915,,*3B
$GPRMC,034746,A,4821.0517,N,432.8312,W,10.00,250.89,260915,,*32
$GPRMC,034746,A,4821.0505,N,432.8364,W,10.00,250.89,260915,,*30
$GPRMC,034746,A,4821.0493,N,432.8416,W,10.00,250.89,260915,,*3C
$GPRMC,034746,A,4821.0481,N,432.8468,W,10.00,250.89,260915,,*36
$GPRMC,034746,A,4821.0469,N,432.8519,W,10.00,250.89,260915,,*37
$GPRMC,034746,A,4821.0457,N,432.8571,W,10.00,250.89,260915,,*34
$GPRMC,034746,A,4821.0445,N,432.8623,W,10.00,250.89,260915,,*33
$GPRMC,034746,A,4821.0433,N,432.8675,W,10.00,250.89,260915,,*31
$GPRMC,034746,A,4821.0421,N,432.8727,W,10.00,250.89,260915,,*34
$GPRMC,034746,A,4821.0409,N,432.8778,W,10.00,250.89,260915,,*34
$GPRMC,034746,A,4821.0397,N,432.8830,W,10.00,250.89,260915,,*37
$GPRMC,034746,A,4821.0385,N,432.8882,W,10.00,250.89,260915,,*3D
$GPRMC,034746,A,4821.0373,N,432.8934,W,10.00,250.89,260915,,*38
$GPRMC,034746,A,4821.0361,N,432.8986,W,10.00,250.89,260915,,*32
$GPRMC,034746,A,4821.0349,N,432.9037,W,10.00,250.89,260915,,*3A
$GPRMC,034746,A,4821.0337,N,432.9089,W,10.00,250.89,260915,,*36
$GPRMC,034746,A,4821.0325,N,432.9141,W,10.00,250.89,260915,,*30
$GPRMC,034746,A,4821.0313,N,432.9193,W,10.00,250.89,260915,,*3A
$GPRMC,034746,A,4821.0301,N,432.9245,W,10.00,250.89,260915,,*31
$GPRMC,034746,A,4821.0289,N,432.9296,W,10.00,250.89,260915,,*3E
$GPRMC,034746,A,4821.0277,N,432.9348,W,10.00,250.89,260915,,*3D
$GPRMC,034746,A,4821.0265,N,432.9400,W,10.00,250.89,260915,,*35
$GPRMC,034746,A,4821.0253,N,432.9452,W,10.00,250.89,260915,,*37
$GPRMC,034746,A,4821.0241,N,432.9503,W,10.00,250.89,260915,,*31
$GPRMC,034746,A,4821.0229,N,432.9555,W,10.00,250.89,260915,,*3C
$GPRMC,034746,A,4821.0217,N,432.9607,W,10.00,250.89,260915,,*35
$GPRMC,034746,A,4821.0205,N,432.9659,W,10.00,250.89,260915,,*3D
$GPRMC,034746,A,4821.0193,N,432.9711,W,10.00,250.89,260915,,*3C
$GPRMC,034746,A,4821.0181,N,432.9762,W,10.00,250.89,260915,,*3B
$GPRMC,034746,A,4821.0169,N,432.9814,W,10.00,250.89,260915,,*33
$GPRMC,034746,A,4821.0157,N,432.9866,W,10.00,250.89,260915,,*3B
$GPRMC,034746,A,4821.0145,N,432.9918,W,10.00,250.89,260915,,*30
$GPRMC,034746,A,4821.0133,N,432.9970,W,10.00,250.89,260915,,*3F
$GPRMC,034746,A,4821.0121,N,433.0021,W,10.00,250.89,260915,,*39
$GPRMC,034746,A,4821.0109,N,433.0073,W,10.00,250.89,260915,,*34
$GPRMC,034746,A,4821.0097,N,433.0125,W,10.00,250.89,260915,,*30
$GPRMC,034746,A,4821.0085,N,433.0177,W,10.00,250.89,260915,,*34
$GPRMC,034746,A,4821.0073,N,433.0229,W,10.00,250.89,260915,,*35
$GPRMC,034746,A,4821.0061,N,433.0280,W,10.00,250.89,260915,,*35
$GPRMC,034746,A,4821.0049,N,433.0332,W,10.00,250.89,260915,,*37
$GPRMC,034746,A,4821.0037,N,433.0384,W,10.00,250.89,260915,,*33
$GPRMC,034746,A,4821.0025,N,433.0436,W,10.00,250.89,260915,,*3E
$GPRMC,034746,A,4821.0013,N,433.0487,W,10.00,250.89,260915,,*31
$GPRMC,034746,A,4821.0001,N,433.0539,W,10.00,250.89,260915,,*36
$GPRMC,034746,A,4820.9989,N,433.0591,W,10.00,250.89,260915,,*35
$GPRMC,034746,A,4820.9977,N,433.0643,W,10.00,250.89,260915,,*38
$GPRMC,034746,A,4820.9965,N,433.0695,W,10.00,250.89,260915,,*30
$GPRMC,034746,A,4820.9953,N,433.0746,W,10.00,250.89,260915,,*3A
$GPRMC,034746,A,4820.9941,N,433.0798,W,10.00,250.89,260915,,*3A
$GPRMC,034746,A,4820.9929,N,433.0850,W,10.00,250.89,260915,,*3F
$GPRMC,034746,A,4820.9917,N,433.0902,W,10.00,250.89,260915,,*34
$GPRMC,034746,A,4820.9905,N,433.0954,W,10.00,250.89,260915,,*34
$GPRMC,034746,A,4820.9893,N,433.1005,W,10.00,250.89,260915,,*36
$GPRMC,034746,A,4820.9881,N,433.1057,W,10.00,250.89,260915,,*32
$GPRMC,034746,A,4820.9869,N,433.1109,W,10.00,250.89,260915,,*3E
$GPRMC,034746,A,4820.9857,N,433.1161,W,10.00,250.89,260915,,*3D
$GPRMC,034746,A,4820.9845,N,433.1213,W,10.00,250.89,260915,,*38
$GPRMC,034746,A,4820.9833,N,433.1264,W,10.00,250.89,260915,,*39
$GPRMC,034746,A,4820.9821,N,433.1316,W,10.00,250.89,260915,,*3E
$GPRMC,034746,A,4820.9809,N,433.1368,W,10.00,250.89,260915,,*3D
$GPRMC,034746,A,4820.9797,N,433.1420,W,10.00,250.89,260915,,*3E
$GPRMC,034746,A,4820.9785,N,433.1471,W,10.00,250.89,260915,,*39
$GPRMC,034746,A,4820.9773,N,433.1523,W,10.00,250.89,260915,,*36
$GPRMC,034746,A,4820.9761,N,433.1575,W,10.00,250.89,260915,,*36
$GPRMC,034746,A,4820.9749,N,433.1627,W,10.00,250.89,260915,,*38
$GPRMC,034746,A,4820.9737,N,433.1679,W,10.00,250.89,260915,,*3A
$GPRMC,034746,A,4820.9725,N,433.1730,W,10.00,250.89,260915,,*35
$GPRMC,034746,A,4820.9713,N,433.1782,W,10.00,250.89,260915,,*39
$GPRMC,034746,A,4820.9701,N,433.1834,W,10.00,250.89,260915,,*38
$GPRMC,034746,A,4820.9689,N,433.1886,W,10.00,250.89,260915,,*30
$GPRMC,034746,A,4820.9677,N,433.1938,W,10.00,250.89,260915,,*35
$GPRMC,034746,A,4820.9665,N,433.1989,W,10.00,250.89,260915,,*3C
$GPRMC,034746,A,4820.9653,N,433.2041,W,10.00,250.89,260915,,*37
$GPRMC,034746,A,4820.9641,N,433.2093,W,10.00,250.89,260915,,*3B
$GPRMC,034746,A,4820.9629,N,433.2145,W,10.00,250.89,260915,,*3F
$GPRMC,034746,A,4820.9617,N,433.2197,W,10.00,250.89,260915,,*3D
$GPRMC,034746,A,4820.9605,N,433.2248,W,10.00,250.89,260915,,*3F
$GPRMC,034746,A,4820.9593,N,433.2300,W,10.00,250.89,260915,,*3E
$GPRMC,034746,A,4820.9581,N,433.2352,W,10.00,250.89,260915,,*3A
$GPRMC,034746,A,4820.9569,N,433.2404,W,10.00,250.89,260915,,*38
$GPRMC,034746,A,4820.9557,N,433.2455,W,10.00,250.89,260915,,*31
$GPRMC,034746,A,4820.9545,N,433.2507,W,10.00,250.89,260915,,*34
$GPRMC,034746,A,4820.9533,N,433.2559,W,10.00,250.89,260915,,*3E
$GPRMC,034746,A,4820.9521,N,433.2611,W,10.00,250.89,260915,,*32
$GPRMC,034746,A,4820.9509,N,433.2663,W,10.00,250.89,260915,,*3D
$GPRMC,034746,A,4820.9497,N,433.2714,W,10.00,250.89,260915,,*3A
$GPRMC,034746,A,4820.9485,N,433.2766,W,10.00,250.89,260915,,*3C
$GPRMC,034746,A,4820.9473,N,433.2818,W,10.00,250.89,260915,,*33
$GPRMC,034746,A,4820.9461,N,433.2870,W,10.00,250.89,260915,,*3E
$GPRMC,034746,A,4820.9449,N,433.2922,W,10.00,250.89,260915,,*32
$GPRMC,034746,A,4820.9437,N,433.2973,W,10.00,250.89,260915,,*3F
$GPRMC,034746,A,4820.9425,N,433.3025,W,10.00,250.89,260915,,*37
$GPRMC,034746,A,4820.9413,N,433.3077,W,10.00,250.89,260915,,*35
$GPRMC,034746,A,4820.9401,N,433.3129,W,10.00,250.89,260915,,*3C
$GPRMC,034746,A,4820.9389,N,433.3181,W,10.00,250.89,260915,,*39
$GPRMC,034746,A,4820.9377,N,433.3232,W,10.00,250.89,260915,,*33
$GPRMC,034746,A,4820.9365,N,433.3284,W,10.00,250.89,260915,,*3D
$GPRMC,034746,A,4820.9353,N,433.3336,W,10.00,250.89,260915,,*30
$GPRMC,034746,A,4820.9341,N,433.3388,W,10.00,250.89,260915,,*36
$GPRMC,034746,A,4820.9329,N,433.3439,W,10.00,250.89,260915,,*35
$GPRMC,034746,A,4820.9317,N,433.3491,W,10.00,250.89,260915,,*3A
$GPRMC,034746,A,4820.9305,N,433.3543,W,10.00,250.89,260915,,*37
$GPRMC,034746,A,4820.9293,N,433.3595,W,10.00,250.89,260915,,*32
$GPRMC,034746,A,4820.9281,N,433.3647,W,10.00,250.89,260915,,*3D
$GPRMC,034746,A,4820.9269,N,433.3698,W,10.00,250.89,260915,,*39
$GPRMC,034746,A,4820.9257,N,433.3750,W,10.00,250.89,260915,,*31
$GPRMC,034746,A,4820.9245,N,433.3802,W,10.00,250.89,260915,,*3A
$GPRMC,034746,A,4820.9233,N,433.3854,W,10.00,250.89,260915,,*38
$GPRMC,034746,A,4820.9221,N,433.3906,W,10.00,250.89,260915,,*3D
$GPRMC,034746,A,4820.9209,N,433.3957,W,10.00,250.89,260915,,*33
$GPRMC,034746,A,4820.9197,N,433.4009,W,10.00,250.89,260915,,*32
$GPRMC,034746,A,4820.9185,N,433.4061,W,10.00,250.89,260915,,*3F
$GPRMC,034746,A,4820.9173,N,433.4113,W,10.00,250.89,260915,,*32
$GPRMC,034746,A,4820.9161,N,433.4164,W,10.00,250.89,260915,,*31
$GPRMC,034746,A,4820.9149,N,433.4216,W,10.00,250.89,260915,,*3D
$GPRMC,034746,A,4820.9137,N,433.4268,W,10.00,250.89,260915,,*3D
$GPRMC,034746,A,4820.9125,N,433.4320,W,10.00,250.89,260915,,*33
$GPRMC,034746,A,4820.9113,N,433.4372,W,10.00,250.89,260915,,*31
$GPRMC,034746,A,4820.9101,N,433.4423,W,10.00,250.89,260915,,*31
$GPRMC,034746,A,4820.9089,N,433.4475,W,10.00,250.89,260915,,*33
$GPRMC,034746,A,4820.9077,N,433.4527,W,10.00,250.89,260915,,*34
$GPRMC,034746,A,4820.9065,N,433.4579,W,10.00,250.89,260915,,*3C
$GPRMC,034746,A,4820.9053,N,433.4631,W,10.00,250.89,260915,,*36
$GPRMC,034746,A,4820.9041,N,433.4682,W,10.00,250.89,260915,,*3D
$GPRMC,034746,A,4820.9029,N,433.4734,W,10.00,250.89,260915,,*3F
$GPRMC,034746,A,4820.9017,N,433.4786,W,10.00,250.89,260915,,*3B
$GPRMC,034746,A,4820.9005,N,433.4838,W,10.00,250.89,260915,,*32
$GPRMC,034746,A,4820.8993,N,433.4889,W,10.00,250.89,260915,,*3F
$GPRMC,034746,A,4820.8981,N,433.4941,W,10.00,250.89,260915,,*39
$GPRMC,034746,A,4820.8969,N,433.4993,W,10.00,250.89,260915,,*30
$GPRMC,034746,A,4820.8957,N,433.5045,W,10.00,250.89,260915,,*3E
$GPRMC,034746,A,4820.8945,N,433.5097,W,10.00,250.89,260915,,*32
$GPRMC,034746,A,4820.8933,N,433.5148,W,10.00,250.89,260915,,*30
$GPRMC,034746,A,4820.8921,N,433.5200,W,10.00,250.89,260915,,*3C
$GPRMC,034746,A,4820.8909,N,433.5252,W,10.00,250.89,260915,,*31
$GPRMC,034746,A,4820.8897,N,433.5304,W,10.00,250.89,260915,,*35
$GPRMC,034746,A,4820.8885,N,433.5356,W,10.00,250.89,260915,,*31
$GPRMC,034746,A,4820.8873,N,433.5407,W,10.00,250.89,260915,,*3B
$GPRMC,034746,A,4820.8861,N,433.5459,W,10.00,250.89,260915,,*33
$GPRMC,034746,A,4820.8849,N,433.5511,W,10.00,250.89,260915,,*34
$GPRMC,034746,A,4820.8837,N,433.5563,W,10.00,250.89,260915,,*38
$GPRMC,034746,A,4820.8825,N,433.5614,W,10.00,250.89,260915,,*38
$GPRMC,034746,A,4820.8813,N,433.5666,W,10.00,250.89,260915,,*38
$GPRMC,034746,A,4820.8801,N,433.5718,W,10.00,250.89,260915,,*33
$GPRMC,034746,A,4820.8789,N,433.5770,W,10.00,250.89,260915,,*32
$GPRMC,034746,A,4820.8777,N,433.5822,W,10.00,250.89,260915,,*3B
$GPRMC,034746,A,4820.8765,N,433.5873,W,10.00,250.89,260915,,*3C
$GPRMC,034746,A,4820.8753,N,433.5925,W,10.00,250.89,260915,,*3B
$GPRMC,034746,A,4820.8741,N,433.5977,W,10.00,250.89,260915,,*3F
$GPRMC,034746,A,4820.8729,N,433.6029,W,10.00,250.89,260915,,*30
$GPRMC,034746,A,4820.8717,N,433.6081,W,10.00,250.89,260915,,*3F
$GPRMC,034746,A,4820.8705,N,433.6132,W,10.00,250.89,260915,,*35
$GPRMC,034746,A,4820.8693,N,433.6184,W,10.00,250.89,260915,,*36
$GPRMC,034746,A,4820.8681,N,433.6236,W,10.00,250.89,260915,,*3F
$GPRMC,034746,A,4820.8669,N,433.6288,W,10.00,250.89,260915,,*3C
$GPRMC,034746,A,4820.8657,N,433.6339,W,10.00,250.89,260915,,*3A
$GPRMC,034746,A,4820.8645,N,433.6391,W,10.00,250.89,260915,,*3B
$GPRMC,034746,A,4820.8633,N,433.6443,W,10.00,250.89,260915,,*32
$GPRMC,034746,A,4820.8621,N,433.6495,W,10.00,250.89,260915,,*3A
$GPRMC,034746,A,4820.8609,N,433.6547,W,10.00,250.89,260915,,*3E
$GPRMC,034746,A,4820.8597,N,433.6598,W,10.00,250.89,260915,,*38
$GPRMC,034746,A,4820.8585,N,433.6650,W,10.00,250.89,260915,,*3C
$GPRMC,034746,A,4820.8573,N,433.6702,W,10.00,250.89,260915,,*33
$GPRMC,034746,A,4820.8561,N,433.6754,W,10.00,250.89,260915,,*33
$GPRMC,034746,A,4820.8549,N,433.6806,W,10.00,250.89,260915,,*31
$GPRMC,034746,A,4820.8537,N,433.6857,W,10.00,250.89,260915,,*3C
$GPRMC,034746,A,4820.8525,N,433.6909,W,10.00,250.89,260915,,*35
$GPRMC,034746,A,4820.8513,N,433.6961,W,10.00,250.89,260915,,*3E
$GPRMC,034746,A,4820.8501,N,433.7013,W,10.00,250.89,260915,,*30
$GPRMC,034746,A,4820.8489,N,433.7064,W,10.00,250.89,260915,,*31
$GPRMC,034746,A,4820.8477,N,433.7116,W,10.00,250.89,260915,,*34
$GPRMC,034746,A,4820.8465,N,433.7168,W,10.00,250.89,260915,,*3E
$GPRMC,034746,A,4820.8453,N,433.7220,W,10.00,250.89,260915,,*34
$GPRMC,034746,A,4820.8441,N,433.7272,W,10.00,250.89,260915,,*30
$GPRMC,034746,A,4820.8429,N,433.7323,W,10.00,250.89,260915,,*3B
$GPRMC,034746,A,4820.8417,N,433.7375,W,10.00,250.89,260915,,*35
$GPRMC,034746,A,4820.8405,N,433.7427,W,10.00,250.89,260915,,*36
$GPRMC,034746,A,4820.8393,N,433.7479,W,10.00,250.89,260915,,*35
$GPRMC,034746,A,4820.8381,N,433.7531,W,10.00,250.89,260915,,*3B
$GPRMC,034746,A,4820.8369,N,433.7582,W,10.00,250.89,260915,,*35
$GPRMC,034746,A,4820.8357,N,433.7634,W,10.00,250.89,260915,,*36
$GPRMC,034746,A,4820.8345,N,433.7686,W,10.00,250.89,260915,,*3C
$GPRMC,034746,A,4820.8333,N,433.7738,W,10.00,250.89,260915,,*39
$GPRMC,034746,A,4820.8321,N,433.7789,W,10.00,250.89,260915,,*30
$GPRMC,034746,A,4820.8309,N,433.7841,W,10.00,250.89,260915,,*31
$GPRMC,034746,A,4820.8297,N,433.7893,W,10.00,250.89,260915,,*38
$GPRMC,034746,A,4820.8285,N,433.7945,W,10.00,250.89,260915,,*31
$GPRMC,034746,A,4820.8273,N,433.7997,W,10.00,250.89,260915,,*37
$GPRMC,034746,A,4820.8261,N,433.8048,W,10.00,250.89,260915,,*30
$GPRMC,034746,A,4820.8249,N,433.8100,W,10.00,250.89,260915,,*37
$GPRMC,034746,A,4820.8237,N,433.8152,W,10.00,250.89,260915,,*39
$GPRMC,034746,A,4820.8225,N,433.8204,W,10.00,250.89,260915,,*3A
$GPRMC,034746,A,4820.8213,N,433.8256,W,10.00,250.89,260915,,*38
$GPRMC,034746,A,4820.8201,N,433.8307,W,10.00,250.89,260915,,*3E
$GPRMC,034746,A,4820.8189,N,433.8359,W,10.00,250.89,260915,,*36
$GPRMC,034746,A,4820.8177,N,433.8411,W,10.00,250.89,260915,,*3C
$GPRMC,034746,A,4820.8165,N,433.8463,W,10.00,250.89,260915,,*3A
$GPRMC,034746,A,4820.8153,N,433.8514,W,10.00,250.89,260915,,*3E
$GPRMC,034746,A,4820.8141,N,433.8566,W,10.00,250.89,260915,,*38
$GPRMC,034746,A,4820.8129,N,433.8618,W,10.00,250.89,260915,,*3C
$GPRMC,034746,A,4820.8117,N,433.8670,W,10.00,250.89,260915,,*3F
$GPRMC,034746,A,4820.8105,N,433.8722,W,10.00,250.89,260915,,*3A
$GPRMC,034746,A,4820.8093,N,433.8773,W,10.00,250.89,260915,,*30
$GPRMC,034746,A,4820.8081,N,433.8825,W,10.00,250.89,260915,,*3F
$GPRMC,034746,A,4820.8069,N,433.8877,W,10.00,250.89,260915,,*3E
$GPRMC,034746,A,4820.8057,N,433.8929,W,10.00,250.89,260915,,*39
$GPRMC,034746,A,4820.8045,N,433.8980,W,10.00,250.89,260915,,*39
$GPRMC,034746,A,4820.8033,N,433.9032,W,10.00,250.89,260915,,*39
$GPRMC,034746,A,4820.8021,N,433.9084,W,10.00,250.89,260915,,*37
$GPRMC,034746,A,4820.8009,N,433.9136,W,10.00,250.89,260915,,*35
$GPRMC,034746,A,4820.7997,N,433.9188,W,10.00,250.89,260915,,*31
$GPRMC,034746,A,4820.7985,N,433.9239,W,10.00,250.89,260915,,*3B
$GPRMC,034746,A,4820.7973,N,433.9291,W,10.00,250.89,260915,,*30
$GPRMC,034746,A,4820.7961,N,433.9343,W,10.00,250.89,260915,,*3D
$GPRMC,034746,A,4820.7949,N,433.9395,W,10.00,250.89,260915,,*3C
$GPRMC,034746,A,4820.7937,N,433.9447,W,10.00,250.89,260915,,*3D
$GPRMC,034746,A,4820.7925,N,433.9498,W,10.00,250.89,260915,,*3C
$GPRMC,034746,A,4820.7913,N,433.9550,W,10.00,250.89,260915,,*3C
$GPRMC,034746,A,4820.7901,N,433.9602,W,10.00,250.89,260915,,*3B
$GPRMC,034746,A,4820.7889,N,433.9654,W,10.00,250.89,260915,,*39
