$GPRMC,063407,A,4821.5076,N,429.5683,W,10.00,203.21,161015,,*34
$GPRMC,063407,A,4821.4889,N,429.5803,W,10.00,203.21,161015,,*3B
$GPRMC,063407,A,4821.4702,N,429.5924,W,10.00,203.21,161015,,*33
$GPRMC,063407,A,4821.4514,N,429.6044,W,10.00,203.21,161015,,*3A
$GPRMC,063407,A,4821.4327,N,429.6165,W,10.00,203.21,161015,,*3E
$GPRMC,063407,A,4821.4140,N,429.6285,W,10.00,203.21,161015,,*30
$GPRMC,063407,A,4821.3952,N,429.6406,W,10.00,203.21,161015,,*31
$GPRMC,063407,A,4821.3765,N,429.6526,W,10.00,203.21,161015,,*38
$GPRMC,063407,A,4821.3578,N,429.6647,W,10.00,203.21,161015,,*32
$GPRMC,063407,A,4821.3391,N,429.6767,W,10.00,203.21,161015,,*30
$GPRMC,063407,A,4821.3203,N,429.6887,W,10.00,203.21,161015,,*3B
$GPRMC,063407,A,4821.3016,N,429.7008,W,10.00,203.21,161015,,*33
$GPRMC,063407,A,4821.2829,N,429.7128,W,10.00,203.21,161015,,*35
$GPRMC,063407,A,4821.2641,N,429.7249,W,10.00,203.21,161015,,*31
$GPRMC,063407,A,4821.2454,N,429.7369,W,10.00,203.21,161015,,*34
$GPRMC,063407,A,4821.2267,N,429.7490,W,10.00,203.21,161015,,*33
$GPRMC,063407,A,4821.2079,N,429.7610,W,10.00,203.21,161015,,*34
$GPRMC,063407,A,4821.1892,N,429.7731,W,10.00,203.21,161015,,*38
$GPRMC,063407,A,4821.1705,N,429.7851,W,10.00,203.21,161015,,*30
$GPRMC,063407,A,4821.1517,N,429.7972,W,10.00,203.21,161015,,*31
$GPRMC,063407,A,4821.1330,N,429.8092,W,10.00,203.21,161015,,*3A
$GPRMC,063407,A,4821.1143,N,429.8213,W,10.00,203.21,161015,,*37
$GPRMC,063407,A,4821.0956,N,429.8333,W,10.00,203.21,161015,,*39
$GPRMC,063407,A,4821.0768,N,429.8454,W,10.00,203.21,161015,,*3C
$GPRMC,063407,A,4821.0581,N,429.8574,W,10.00,203.21,161015,,*3A
$GPRMC,063407,A,4821.0394,N,429.8694,W,10.00,203.21,161015,,*35
$GPRMC,063407,A,4821.0206,N,429.8815,W,10.00,203.21,161015,,*38
$GPRMC,063407,A,4821.0019,N,429.8935,W,10.00,203.21,161015,,*37
$GPRMC,063407,A,4820.9832,N,429.9056,W,10.00,203.21,161015,,*33
$GPRMC,063407,A,4820.9644,N,429.9176,W,10.00,203.21,161015,,*3F
$GPRMC,063407,A,4820.9457,N,429.9297,W,10.00,203.21,161015,,*33
$GPRMC,063407,A,4820.9270,N,429.9417,W,10.00,203.21,161015,,*3E
$GPRMC,063407,A,4820.9082,N,429.9538,W,10.00,203.21,161015,,*3D
$GPRMC,063407,A,4820.8895,N,429.9658,W,10.00,203.21,161015,,*37
$GPRMC,063407,A,4820.8708,N,429.9779,W,10.00,203.21,161015,,*3E
$GPRMC,063407,A,4820.8521,N,429.9899,W,10.00,203.21,161015,,*36
$GPRMC,063407,A,4820.8511,N,429.9905,W,10.00,257.35,161015,,*35
$GPRMC,063407,A,4820.8498,N,429.9991,W,10.00,257.35,161015,,*38
$GPRMC,063407,A,4820.8485,N,430.0077,W,10.00,257.35,161015,,*34
$GPRMC,063407,A,4820.8472,N,430.0163,W,10.00,257.35,161015,,*38
$GPRMC,063407,A,4820.8460,N,430.0248,W,10.00,257.35,161015,,*31
$GPRMC,063407,A,4820.8447,N,430.0334,W,10.00,257.35,161015,,*3E
$GPRMC,063407,A,4820.8434,N,430.0420,W,10.00,257.35,161015,,*38
$GPRMC,063407,A,4820.8421,N,430.0506,W,10.00,257.35,161015,,*39
$GPRMC,063407,A,4820.8408,N,430.0592,W,10.00,257.35,161015,,*3F
$GPRMC,063407,A,4820.8395,N,430.0678,W,10.00,257.35,161015,,*3B
$GPRMC,063407,A,4820.8382,N,430.0763,W,10.00,257.35,161015,,*36
$GPRMC,063407,A,4820.8370,N,430.0849,W,10.00,257.35,161015,,*3C
$GPRMC,063407,A,4820.8357,N,430.0935,W,10.00,257.35,161015,,*33
$GPRMC,063407,A,4820.8344,N,430.1021,W,10.00,257.35,161015,,*3C
$GPRMC,063407,A,4820.8331,N,430.1107,W,10.00,257.35,161015,,*3B
$GPRMC,063407,A,4820.8318,N,430.1193,W,10.00,257.35,161015,,*3D
$GPRMC,063407,A,4820.8305,N,430.1278,W,10.00,257.35,161015,,*37
$GPRMC,063407,A,4820.8293,N,430.1364,W,10.00,257.35,161015,,*35
$GPRMC,063407,A,4820.8280,N,430.1450,W,10.00,257.35,161015,,*37
$GPRMC,063407,A,4820.8267,N,430.1536,W,10.00,257.35,161015,,*3F
$GPRMC,063407,A,4820.8254,N,430.1622,W,10.00,257.35,161015,,*39
$GPRMC,063407,A,4820.8241,N,430.1708,W,10.00,257.35,161015,,*34
$GPRMC,063407,A,4820.8228,N,430.1793,W,10.00,257.35,161015,,*39
$GPRMC,063407,A,4820.8216,N,430.1879,W,10.00,257.35,161015,,*3F
$GPRMC,063407,A,4820.8203,N,430.1965,W,10.00,257.35,161015,,*37
$GPRMC,063407,A,4820.8190,N,430.2051,W,10.00,257.35,161015,,*33
$GPRMC,063407,A,4820.8177,N,430.2137,W,10.00,257.35,161015,,*3B
$GPRMC,063407,A,4820.8164,N,430.2222,W,10.00,257.35,161015,,*3E
$GPRMC,063407,A,4820.8151,N,430.2308,W,10.00,257.35,161015,,*31
$GPRMC,063407,A,4820.8138,N,430.2394,W,10.00,257.35,161015,,*3B
$GPRMC,063407,A,4820.8126,N,430.2480,W,10.00,257.35,161015,,*36
$GPRMC,063407,A,4820.8113,N,430.2566,W,10.00,257.35,161015,,*39
$GPRMC,063407,A,4820.8100,N,430.2652,W,10.00,257.35,161015,,*3F
$GPRMC,063407,A,4820.8087,N,430.2737,W,10.00,257.35,161015,,*33
$GPRMC,063407,A,4820.8074,N,430.2823,W,10.00,257.35,161015,,*35
$GPRMC,063407,A,4820.8061,N,430.2909,W,10.00,257.35,161015,,*38
$GPRMC,063407,A,4820.8049,N,430.2995,W,10.00,257.35,161015,,*37
$GPRMC,063407,A,4820.8036,N,430.3081,W,10.00,257.35,161015,,*32
$GPRMC,063407,A,4820.8023,N,430.3167,W,10.00,257.35,161015,,*3F
$GPRMC,063407,A,4820.8010,N,430.3252,W,10.00,257.35,161015,,*3A
$GPRMC,063407,A,4820.7997,N,430.3338,W,10.00,257.35,161015,,*3E
$GPRMC,063407,A,4820.7984,N,430.3424,W,10.00,257.35,161015,,*36
$GPRMC,063407,A,4820.7971,N,430.3510,W,10.00,257.35,161015,,*3A
$GPRMC,063407,A,4820.7959,N,430.3596,W,10.00,257.35,161015,,*3E
$GPRMC,063407,A,4820.7946,N,430.3681,W,10.00,257.35,161015,,*35
$GPRMC,063407,A,4820.7933,N,430.3767,W,10.00,257.35,161015,,*3E
$GPRMC,063407,A,4820.7920,N,430.3853,W,10.00,257.35,161015,,*34
$GPRMC,063407,A,4820.7907,N,430.3939,W,10.00,257.35,161015,,*3C
$GPRMC,063407,A,4820.7894,N,430.4025,W,10.00,257.35,161015,,*34
$GPRMC,063407,A,4820.7882,N,430.4111,W,10.00,257.35,161015,,*35
$GPRMC,063407,A,4820.7869,N,430.4196,W,10.00,257.35,161015,,*3F
$GPRMC,063407,A,4820.7856,N,430.4282,W,10.00,257.35,161015,,*35
$GPRMC,063407,A,4820.7843,N,430.4368,W,10.00,257.35,161015,,*34
$GPRMC,063407,A,4820.7830,N,430.4454,W,10.00,257.35,161015,,*38
$GPRMC,063407,A,4820.7817,N,430.4540,W,10.00,257.35,161015,,*39
$GPRMC,063407,A,4820.7804,N,430.4626,W,10.00,257.35,161015,,*38
$GPRMC,063407,A,4820.7792,N,430.4711,W,10.00,257.35,161015,,*3D
$GPRMC,063407,A,4820.7779,N,430.4797,W,10.00,257.35,161015,,*36
$GPRMC,063407,A,4820.7766,N,430.4883,W,10.00,257.35,161015,,*32
$GPRMC,063407,A,4820.7753,N,430.4969,W,10.00,257.35,161015,,*31
$GPRMC,063407,A,4820.7740,N,430.5055,W,10.00,257.35,161015,,*34
$GPRMC,063407,A,4820.7727,N,430.5140,W,10.00,257.35,161015,,*30
$GPRMC,063407,A,4820.7715,N,430.5226,W,10.00,257.35,161015,,*32
$GPRMC,063407,A,4820.7702,N,430.5312,W,10.00,257.35,161015,,*32
$GPRMC,063407,A,4820.7689,N,430.5398,W,10.00,257.35,161015,,*32
$GPRMC,063407,A,4820.7676,N,430.5484,W,10.00,257.35,161015,,*38
$GPRMC,063407,A,4820.7663,N,430.5570,W,10.00,257.35,161015,,*36
$GPRMC,063407,A,4820.7650,N,430.5655,W,10.00,257.35,161015,,*32
$GPRMC,063407,A,4820.7637,N,430.5741,W,10.00,257.35,161015,,*37
$GPRMC,063407,A,4820.7625,N,430.5827,W,10.00,257.35,161015,,*3B
$GPRMC,063407,A,4820.7612,N,430.5913,W,10.00,257.35,161015,,*39
$GPRMC,063407,A,4820.7599,N,430.5999,W,10.00,257.35,161015,,*3B
$GPRMC,063407,A,4820.7586,N,430.6085,W,10.00,257.35,161015,,*32
$GPRMC,063407,A,4820.7573,N,430.6170,W,10.00,257.35,161015,,*33
$GPRMC,063407,A,4820.7560,N,430.6256,W,10.00,257.35,161015,,*36
$GPRMC,063407,A,4820.7548,N,430.6342,W,10.00,257.35,161015,,*38
$GPRMC,063407,A,4820.7535,N,430.6428,W,10.00,257.35,161015,,*39
$GPRMC,063407,A,4820.7522,N,430.6514,W,10.00,257.35,161015,,*31
$GPRMC,063407,A,4820.7509,N,430.6599,W,10.00,257.35,161015,,*3D
$GPRMC,063407,A,4820.7496,N,430.6685,W,10.00,257.35,161015,,*34
$GPRMC,063407,A,4820.7483,N,430.6771,W,10.00,257.35,161015,,*3A
$GPRMC,063407,A,4820.7470,N,430.6857,W,10.00,257.35,161015,,*3D
$GPRMC,063407,A,4820.7458,N,430.6943,W,10.00,257.35,161015,,*33
$GPRMC,063407,A,4820.7445,N,430.7029,W,10.00,257.35,161015,,*3B
$GPRMC,063407,A,4820.7432,N,430.7114,W,10.00,257.35,161015,,*34
$GPRMC,063407,A,4820.7419,N,430.7200,W,10.00,257.35,161015,,*3B
$GPRMC,063407,A,4820.7406,N,430.7286,W,10.00,257.35,161015,,*3B
$GPRMC,063407,A,4820.7393,N,430.7372,W,10.00,257.35,161015,,*3A
$GPRMC,063407,A,4820.7380,N,430.7458,W,10.00,257.35,161015,,*37
$GPRMC,063407,A,4820.7368,N,430.7543,W,10.00,257.35,161015,,*3A
$GPRMC,063407,A,4820.7355,N,430.7629,W,10.00,257.35,161015,,*3B
$GPRMC,063407,A,4820.7342,N,430.7715,W,10.00,257.35,161015,,*33
$GPRMC,063407,A,4820.7329,N,430.7801,W,10.00,257.35,161015,,*34
$GPRMC,063407,A,4820.7316,N,430.7887,W,10.00,257.35,161015,,*36
$GPRMC,063407,A,4820.7303,N,430.7973,W,10.00,257.35,161015,,*38
$GPRMC,063407,A,4820.7290,N,430.8058,W,10.00,257.35,161015,,*3C
$GPRMC,063407,A,4820.7278,N,430.8144,W,10.00,257.35,161015,,*36
$GPRMC,063407,A,4820.7265,N,430.8230,W,10.00,257.35,161015,,*3A
$GPRMC,063407,A,4820.7252,N,430.8316,W,10.00,257.35,161015,,*3B
$GPRMC,063407,A,4820.7239,N,430.8402,W,10.00,257.35,161015,,*34
$GPRMC,063407,A,4820.7226,N,430.8487,W,10.00,257.35,161015,,*37
$GPRMC,063407,A,4820.7213,N,430.8573,W,10.00,257.35,161015,,*3B
$GPRMC,063407,A,4820.7201,N,430.8659,W,10.00,257.35,161015,,*33
$GPRMC,063407,A,4820.7188,N,430.8745,W,10.00,257.35,161015,,*3D
$GPRMC,063407,A,4820.7175,N,430.8831,W,10.00,257.35,161015,,*33
$GPRMC,063407,A,4820.7162,N,430.8917,W,10.00,257.35,161015,,*30
$GPRMC,063407,A,4820.7149,N,430.9002,W,10.00,257.35,161015,,*35
$GPRMC,063407,A,4820.7136,N,430.9088,W,10.00,257.35,161015,,*3F
$GPRMC,063407,A,4820.7123,N,430.9174,W,10.00,257.35,161015,,*39
$GPRMC,063407,A,4820.7111,N,430.9260,W,10.00,257.35,161015,,*3E
$GPRMC,063407,A,4820.7098,N,430.9346,W,10.00,257.35,161015,,*3B
$GPRMC,063407,A,4820.7085,N,430.9432,W,10.00,257.35,161015,,*33
$GPRMC,063407,A,4820.7072,N,430.9517,W,10.00,257.35,161015,,*3D
$GPRMC,063407,A,4820.7059,N,430.9603,W,10.00,257.35,161015,,*32
$GPRMC,063407,A,4820.7046,N,430.9689,W,10.00,257.35,161015,,*3E
$GPRMC,063407,A,4820.7033,N,430.9775,W,10.00,257.35,161015,,*3E
$GPRMC,063407,A,4820.7021,N,430.9861,W,10.00,257.35,161015,,*37
$GPRMC,063407,A,4820.7008,N,430.9946,W,10.00,257.35,161015,,*38
$GPRMC,063407,A,4820.6995,N,431.0032,W,10.00,257.35,161015,,*36
$GPRMC,063407,A,4820.6982,N,431.0118,W,10.00,257.35,161015,,*39
$GPRMC,063407,A,4820.6969,N,431.0204,W,10.00,257.35,161015,,*32
$GPRMC,063407,A,4820.6956,N,431.0290,W,10.00,257.35,161015,,*33
$GPRMC,063407,A,4820.6943,N,431.0376,W,10.00,257.35,161015,,*3E
$GPRMC,063407,A,4820.6931,N,431.0461,W,10.00,257.35,161015,,*3A
$GPRMC,063407,A,4820.6918,N,431.0547,W,10.00,257.35,161015,,*34
$GPRMC,063407,A,4820.6905,N,431.0633,W,10.00,257.35,161015,,*38
$GPRMC,063407,A,4820.6892,N,431.0719,W,10.00,257.35,161015,,*3E
$GPRMC,063407,A,4820.6879,N,431.0805,W,10.00,257.35,161015,,*39
$GPRMC,063407,A,4820.6866,N,431.0890,W,10.00,257.35,161015,,*3B
$GPRMC,063407,A,4820.6853,N,431.0976,W,10.00,257.35,161015,,*34
$GPRMC,063407,A,4820.6841,N,431.1062,W,10.00,257.35,161015,,*3A
$GPRMC,063407,A,4820.6828,N,431.1148,W,10.00,257.35,161015,,*3C
$GPRMC,063407,A,4820.6815,N,431.1234,W,10.00,257.35,161015,,*3A
$GPRMC,063407,A,4820.6802,N,431.1320,W,10.00,257.35,161015,,*38
$GPRMC,063407,A,4820.6789,N,431.1405,W,10.00,257.35,161015,,*34
$GPRMC,063407,A,4820.6776,N,431.1491,W,10.00,257.35,161015,,*39
$GPRMC,063407,A,4820.6764,N,431.1577,W,10.00,257.35,161015,,*33
$GPRMC,063407,A,4820.6751,N,431.1663,W,10.00,257.35,161015,,*33
$GPRMC,063407,A,4820.6738,N,431.1749,W,10.00,257.35,161015,,*35
$GPRMC,063407,A,4820.6725,N,431.1834,W,10.00,257.35,161015,,*3C
$GPRMC,063407,A,4820.6712,N,431.1920,W,10.00,257.35,161015,,*3C
$GPRMC,063407,A,4820.6699,N,431.2006,W,10.00,257.35,161015,,*30
$GPRMC,063407,A,4820.6686,N,431.2092,W,10.00,257.35,161015,,*33
$GPRMC,063407,A,4820.6674,N,431.2178,W,10.00,257.35,161015,,*3B
$GPRMC,063407,A,4820.6661,N,431.2263,W,10.00,257.35,161015,,*36
$GPRMC,063407,A,4820.6648,N,431.2349,W,10.00,257.35,161015,,*34
$GPRMC,063407,A,4820.6635,N,431.2435,W,10.00,257.35,161015,,*32
$GPRMC,063407,A,4820.6622,N,431.2521,W,10.00,257.35,161015,,*30
$GPRMC,063407,A,4820.6609,N,431.2607,W,10.00,257.35,161015,,*3E
$GPRMC,063407,A,4820.6596,N,431.2693,W,10.00,257.35,161015,,*36
$GPRMC,063407,A,4820.6584,N,431.2778,W,10.00,257.35,161015,,*31
$GPRMC,063407,A,4820.6571,N,431.2864,W,10.00,257.35,161015,,*39
$GPRMC,063407,A,4820.6558,N,431.2950,W,10.00,257.35,161015,,*34
$GPRMC,063407,A,4820.6545,N,431.3036,W,10.00,257.35,161015,,*30
$GPRMC,063407,A,4820.6532,N,431.3122,W,10.00,257.35,161015,,*34
$GPRMC,063407,A,4820.6519,N,431.3207,W,10.00,257.35,161015,,*39
$GPRMC,063407,A,4820.6506,N,431.3293,W,10.00,257.35,161015,,*3A
$GPRMC,063407,A,4820.6494,N,431.3379,W,10.00,257.35,161015,,*35
$GPRMC,063407,A,4820.6481,N,431.3465,W,10.00,257.35,161015,,*3B
$GPRMC,063407,A,4820.6468,N,431.3551,W,10.00,257.35,161015,,*3A
$GPRMC,063407,A,4820.6455,N,431.3637,W,10.00,257.35,161015,,*37
$GPRMC,063407,A,4820.6442,N,431.3722,W,10.00,257.35,161015,,*34
$GPRMC,063407,A,4820.6429,N,431.3808,W,10.00,257.35,161015,,*3E
$GPRMC,063407,A,4820.6416,N,431.3894,W,10.00,257.35,161015,,*37
$GPRMC,063407,A,4820.6403,N,431.3980,W,10.00,257.35,161015,,*37
$GPRMC,063407,A,4820.6391,N,431.4066,W,10.00,257.35,161015,,*3D
$GPRMC,063407,A,4820.6378,N,431.4151,W,10.00,257.35,161015,,*3F
$GPRMC,063407,A,4820.6365,N,431.4237,W,10.00,257.35,161015,,*30
$GPRMC,063407,A,4820.6352,N,431.4323,W,10.00,257.35,161015,,*30
$GPRMC,063407,A,4820.6339,N,431.4409,W,10.00,257.35,161015,,*32
$GPRMC,063407,A,4820.6326,N,431.4495,W,10.00,257.35,161015,,*39
$GPRMC,063407,A,4820.6313,N,431.4581,W,10.00,257.35,161015,,*3B
$GPRMC,063407,A,4820.6301,N,431.4666,W,10.00,257.35,161015,,*32
$GPRMC,063407,A,4820.6288,N,431.4752,W,10.00,257.35,161015,,*34
$GPRMC,063407,A,4820.6275,N,431.4838,W,10.00,257.35,161015,,*35
$GPRMC,063407,A,4820.6262,N,431.4924,W,10.00,257.35,161015,,*3F
$GPRMC,063407,A,4820.6249,N,431.5010,W,10.00,257.35,161015,,*39
$GPRMC,063407,A,4820.6236,N,431.5095,W,10.00,257.35,161015,,*3C
$GPRMC,063407,A,4820.6223,N,431.5181,W,10.00,257.35,161015,,*3C
$GPRMC,063407,A,4820.6211,N,431.5267,W,10.00,257.35,161015,,*36
$GPRMC,063407,A,4820.6198,N,431.5353,W,10.00,257.35,161015,,*32
$GPRMC,063407,A,4820.6185,N,431.5439,W,10.00,257.35,161015,,*35
$GPRMC,063407,A,4820.6172,N,431.5524,W,10.00,257.35,161015,,*30
$GPRMC,063407,A,4820.6159,N,431.5610,W,10.00,257.35,161015,,*3D
$GPRMC,063407,A,4820.6146,N,431.5696,W,10.00,257.35,161015,,*3D
$GPRMC,063407,A,4820.6133,N,431.5782,W,10.00,257.35,161015,,*3B
$GPRMC,063407,A,4820.6121,N,431.5868,W,10.00,257.35,161015,,*33
$GPRMC,063407,A,4820.6108,N,431.5954,W,10.00,257.35,161015,,*36
$GPRMC,063407,A,4820.6095,N,431.6039,W,10.00,257.35,161015,,*32
$GPRMC,063407,A,4820.6082,N,431.6125,W,10.00,257.35,161015,,*38
$GPRMC,063407,A,4820.6069,N,431.6211,W,10.00,257.35,161015,,*39
$GPRMC,063407,A,4820.6056,N,431.6297,W,10.00,257.35,161015,,*3B
$GPRMC,063407,A,4820.6043,N,431.6383,W,10.00,257.35,161015,,*3B
$GPRMC,063407,A,4820.6031,N,431.6468,W,10.00,257.35,161015,,*3C
$GPRMC,063407,A,4820.6018,N,431.6554,W,10.00,257.35,161015,,*39
$GPRMC,063407,A,4820.6005,N,431.6640,W,10.00,257.35,161015,,*33
$GPRMC,063407,A,4820.5992,N,431.6726,W,10.00,257.35,161015,,*36
$GPRMC,063407,A,4820.5979,N,431.6812,W,10.00,257.35,161015,,*3B
$GPRMC,063407,A,4820.5966,N,431.6897,W,10.00,257.35,161015,,*38
$GPRMC,063407,A,4820.5953,N,431.6983,W,10.00,257.35,161015,,*3A
$GPRMC,063407,A,4820.5941,N,431.7069,W,10.00,257.35,161015,,*35
$GPRMC,063407,A,4820.5928,N,431.7155,W,10.00,257.35,161015,,*34
$GPRMC,063407,A,4820.5915,N,431.7241,W,10.00,257.35,161015,,*3C
$GPRMC,063407,A,4820.5902,N,431.7327,W,10.00,257.35,161015,,*3B
$GPRMC,063407,A,4820.5889,N,431.7412,W,10.00,257.35,161015,,*38
$GPRMC,063407,A,4820.5876,N,431.7498,W,10.00,257.35,161015,,*3A
$GPRMC,063407,A,4820.5863,N,431.7584,W,10.00,257.35,161015,,*32
$GPRMC,063407,A,4820.5850,N,431.7670,W,10.00,257.35,161015,,*3A
$GPRMC,063407,A,4820.5838,N,431.7756,W,10.00,257.35,161015,,*31
$GPRMC,063407,A,4820.5825,N,431.7841,W,10.00,257.35,161015,,*34
$GPRMC,063407,A,4820.5812,N,431.7927,W,10.00,257.35,161015,,*31
$GPRMC,063407,A,4820.5799,N,431.8013,W,10.00,257.35,161015,,*3C
$GPRMC,063407,A,4820.5786,N,431.8099,W,10.00,257.35,161015,,*30
$GPRMC,063407,A,4820.5773,N,431.8185,W,10.00,257.35,161015,,*36
$GPRMC,063407,A,4820.5760,N,431.8270,W,10.00,257.35,161015,,*3D
$GPRMC,063407,A,4820.5748,N,431.8356,W,10.00,257.35,161015,,*32
$GPRMC,063407,A,4820.5735,N,431.8442,W,10.00,257.35,161015,,*3A
$GPRMC,063407,A,4820.5722,N,431.8528,W,10.00,257.35,161015,,*31
$GPRMC,063407,A,4820.5709,N,431.8614,W,10.00,257.35,161015,,*34
$GPRMC,063407,A,4820.5696,N,431.8700,W,10.00,257.35,161015,,*37
$GPRMC,063407,A,4820.5683,N,431.8785,W,10.00,257.35,161015,,*3E
$GPRMC,063407,A,4820.5670,N,431.8871,W,10.00,257.35,161015,,*36
$GPRMC,063407,A,4820.5658,N,431.8957,W,10.00,257.35,161015,,*39
$GPRMC,063407,A,4820.5645,N,431.9043,W,10.00,257.35,161015,,*38
$GPRMC,063407,A,4820.5632,N,431.9129,W,10.00,257.35,161015,,*35
$GPRMC,063407,A,4820.5619,N,431.9214,W,10.00,257.35,161015,,*31
$GPRMC,063407,A,4820.5606,N,431.9300,W,10.00,257.35,161015,,*3B
$GPRMC,063407,A,4820.5593,N,431.9386,W,10.00,257.35,161015,,*3A
$GPRMC,063407,A,4820.5580,N,431.9472,W,10.00,257.35,161015,,*34
$GPRMC,063407,A,4820.5567,N,431.9558,W,10.00,257.35,161015,,*34
$GPRMC,063407,A,4820.5555,N,431.9643,W,10.00,257.35,161015,,*3C
$GPRMC,063407,A,4820.5542,N,431.9729,W,10.00,257.35,161015,,*37
$GPRMC,063407,A,4820.5529,N,431.9815,W,10.00,257.35,161015,,*3A
$GPRMC,063407,A,4820.5516,N,431.9901,W,10.00,257.35,161015,,*32
$GPRMC,063407,A,4820.5503,N,431.9987,W,10.00,257.35,161015,,*38
$GPRMC,063407,A,4820.5490,N,432.0072,W,10.00,257.35,161015,,*3A
$GPRMC,063407,A,4820.5477,N,432.0158,W,10.00,257.35,161015,,*3A
$GPRMC,063407,A,4820.5465,N,432.0244,W,10.00,257.35,161015,,*37
$GPRMC,063407,A,4820.5452,N,432.0330,W,10.00,257.35,161015,,*31
$GPRMC,063407,A,4820.5439,N,432.0416,W,10.00,257.35,161015,,*3F
$GPRMC,063407,A,4820.5426,N,432.0502,W,10.00,257.35,161015,,*35
$GPRMC,063407,A,4820.5413,N,432.0587,W,10.00,257.35,161015,,*3E
$GPRMC,063407,A,4820.5400,N,432.0673,W,10.00,257.35,161015,,*34
$GPRMC,063407,A,4820.5387,N,432.0759,W,10.00,257.35,161015,,*35
$GPRMC,063407,A,4820.5374,N,432.0845,W,10.00,257.35,161015,,*3B
$GPRMC,063407,A,4820.5362,N,432.0931,W,10.00,257.35,161015,,*3E
$GPRMC,063407,A,4820.5349,N,432.1016,W,10.00,257.35,161015,,*3A
$GPRMC,063407,A,4820.5336,N,432.1102,W,10.00,257.35,161015,,*36
$GPRMC,063407,A,4820.5323,N,432.1188,W,10.00,257.35,161015,,*30
$GPRMC,063407,A,4820.5310,N,432.1274,W,10.00,257.35,161015,,*30
$GPRMC,063407,A,4820.5297,N,432.1360,W,10.00,257.35,161015,,*3A
$GPRMC,063407,A,4820.5284,N,432.1445,W,10.00,257.35,161015,,*38
$GPRMC,063407,A,4820.5272,N,432.1531,W,10.00,257.35,161015,,*33
$GPRMC,063407,A,4820.5259,N,432.1617,W,10.00,257.35,161015,,*3D
$GPRMC,063407,A,4820.5246,N,432.1703,W,10.00,257.35,161015,,*37
$GPRMC,063407,A,4820.5233,N,432.1789,W,10.00,257.35,161015,,*37
$GPRMC,063407,A,4820.5220,N,432.1874,W,10.00,257.35,161015,,*38
$GPRMC,063407,A,4820.5207,N,432.1960,W,10.00,257.35,161015,,*39
$GPRMC,063407,A,4820.5194,N,432.2046,W,10.00,257.35,161015,,*3E
$GPRMC,063407,A,4820.5181,N,432.2132,W,10.00,257.35,161015,,*38
$GPRMC,063407,A,4820.5169,N,432.2218,W,10.00,257.35,161015,,*35
$GPRMC,063407,A,4820.5156,N,432.2304,W,10.00,257.35,161015,,*35
$GPRMC,063407,A,4820.5143,N,432.2389,W,10.00,257.35,161015,,*34
$GPRMC,063407,A,4820.5130,N,432.2475,W,10.00,257.35,161015,,*34
$GPRMC,063407,A,4820.5117,N,432.2561,W,10.00,257.35,161015,,*35
$GPRMC,063407,A,4820.5104,N,432.2647,W,10.00,257.35,161015,,*30
$GPRMC,063407,A,4820.5091,N,432.2733,W,10.00,257.35,161015,,*3F
$GPRMC,063407,A,4820.5078,N,432.2818,W,10.00,257.35,161015,,*3E
$GPRMC,063407,A,4820.5066,N,432.2904,W,10.00,257.35,161015,,*3D
$GPRMC,063407,A,4820.5053,N,432.2990,W,10.00,257.35,161015,,*36
$GPRMC,063407,A,4820.5040,N,432.3076,W,10.00,257.35,161015,,*34
$GPRMC,063407,A,4820.5027,N,432.3162,W,10.00,257.35,161015,,*31
$GPRMC,063407,A,4820.5014,N,432.3247,W,10.00,257.35,161015,,*35
$GPRMC,063407,A,4820.5001,N,432.3333,W,10.00,257.35,161015,,*33
$GPRMC,063407,A,4820.4988,N,432.3419,W,10.00,257.35,161015,,*35
$GPRMC,063407,A,4820.4976,N,432.3505,W,10.00,257.35,161015,,*38
$GPRMC,063407,A,4820.4963,N,432.3591,W,10.00,257.35,161015,,*31
$GPRMC,063407,A,4820.4950,N,432.3676,W,10.00,257.35,161015,,*3B
$GPRMC,063407,A,4820.4937,N,432.3762,W,10.00,257.35,161015,,*3E
$GPRMC,063407,A,4820.4924,N,432.3848,W,10.00,257.35,161015,,*3B
$GPRMC,063407,A,4820.4911,N,432.3934,W,10.00,257.35,161015,,*37
$GPRMC,063407,A,4820.4898,N,432.4020,W,10.00,257.35,161015,,*3C
$GPRMC,063407,A,4820.4885,N,432.4105,W,10.00,257.35,161015,,*36
$GPRMC,063407,A,4820.4873,N,432.4191,W,10.00,257.35,161015,,*32
$GPRMC,063407,A,4820.4860,N,432.4277,W,10.00,257.35,161015,,*3B
$GPRMC,063407,A,4820.4847,N,432.4363,W,10.00,257.35,161015,,*3A
$GPRMC,063407,A,4820.4834,N,432.4449,W,10.00,257.35,161015,,*31
$GPRMC,063407,A,4820.4821,N,432.4535,W,10.00,257.35,161015,,*3F
$GPRMC,063407,A,4820.4808,N,432.4620,W,10.00,257.35,161015,,*33
$GPRMC,063407,A,4820.4795,N,432.4706,W,10.00,257.35,161015,,*3D
$GPRMC,063407,A,4820.4782,N,432.4792,W,10.00,257.35,161015,,*36
$GPRMC,063407,A,4820.4770,N,432.4878,W,10.00,257.35,161015,,*30
$GPRMC,063407,A,4820.4757,N,432.4964,W,10.00,257.35,161015,,*39
$GPRMC,063407,A,4820.4744,N,432.5049,W,10.00,257.35,161015,,*3C
$GPRMC,063407,A,4820.4731,N,432.5135,W,10.00,257.35,161015,,*34
$GPRMC,063407,A,4820.4718,N,432.5221,W,10.00,257.35,161015,,*39
$GPRMC,063407,A,4820.4705,N,432.5307,W,10.00,257.35,161015,,*30
$GPRMC,063407,A,4820.4692,N,432.5393,W,10.00,257.35,161015,,*32
$GPRMC,063407,A,4820.4679,N,432.5478,W,10.00,257.35,161015,,*35
$GPRMC,063407,A,4820.4667,N,432.5564,W,10.00,257.35,161015,,*36
$GPRMC,063407,A,4820.4654,N,432.5650,W,10.00,257.35,161015,,*32
$GPRMC,063407,A,4820.4641,N,432.5736,W,10.00,257.35,161015,,*37
$GPRMC,063407,A,4820.4628,N,432.5822,W,10.00,257.35,161015,,*32
$GPRMC,063407,A,4820.4615,N,432.5907,W,10.00,257.35,161015,,*3A
$GPRMC,063407,A,4820.4602,N,432.5993,W,10.00,257.35,161015,,*31
$GPRMC,063407,A,4820.4589,N,432.6079,W,10.00,257.35,161015,,*3F
$GPRMC,063407,A,4820.4576,N,432.6165,W,10.00,257.35,161015,,*33
$GPRMC,063407,A,4820.4564,N,432.6251,W,10.00,257.35,161015,,*34
$GPRMC,063407,A,4820.4551,N,432.6336,W,10.00,257.35,161015,,*32
$GPRMC,063407,A,4820.4538,N,432.6422,W,10.00,257.35,161015,,*3F
$GPRMC,063407,A,4820.4525,N,432.6508,W,10.00,257.35,161015,,*3A
$GPRMC,063407,A,4820.4512,N,432.6594,W,10.00,257.35,161015,,*3B
$GPRMC,063407,A,4820.4499,N,432.6680,W,10.00,257.35,161015,,*3F
$GPRMC,063407,A,4820.4486,N,432.6765,W,10.00,257.35,161015,,*3B
$GPRMC,063407,A,4820.4473,N,432.6851,W,10.00,257.35,161015,,*39
$GPRMC,063407,A,4820.4461,N,432.6937,W,10.00,257.35,161015,,*3B
$GPRMC,063407,A,4820.4448,N,432.7023,W,10.00,257.35,161015,,*3D
$GPRMC,063407,A,4820.4435,N,432.7109,W,10.00,257.35,161015,,*3E
$GPRMC,063407,A,4820.4422,N,432.7194,W,10.00,257.35,161015,,*3C
$GPRMC,063407,A,4820.4409,N,432.7280,W,10.00,257.35,161015,,*33
$GPRMC,063407,A,4820.4396,N,432.7366,W,10.00,257.35,161015,,*3B
$GPRMC,063407,A,4820.4383,N,432.7452,W,10.00,257.35,161015,,*3F
$GPRMC,063407,A,4820.4370,N,432.7538,W,10.00,257.35,161015,,*3E
$GPRMC,063407,A,4820.4358,N,432.7623,W,10.00,257.35,161015,,*3D
$GPRMC,063407,A,4820.4345,N,432.7709,W,10.00,257.35,161015,,*38
$GPRMC,063407,A,4820.4332,N,432.7795,W,10.00,257.35,161015,,*3D
$GPRMC,063407,A,4820.4319,N,432.7881,W,10.00,257.35,161015,,*3E
$GPRMC,063407,A,4820.4306,N,432.7967,W,10.00,257.35,161015,,*39
$GPRMC,063407,A,4820.4293,N,432.8053,W,10.00,257.35,161015,,*35
$GPRMC,063407,A,4820.4280,N,432.8138,W,10.00,257.35,161015,,*3B
$GPRMC,063407,A,4820.4267,N,432.8224,W,10.00,257.35,161015,,*3C
$GPRMC,063407,A,4820.4255,N,432.8310,W,10.00,257.35,161015,,*3B
$GPRMC,063407,A,4820.4242,N,432.8396,W,10.00,257.35,161015,,*33
$GPRMC,063407,A,4820.4229,N,432.8482,W,10.00,257.35,161015,,*3C
$GPRMC,063407,A,4820.4216,N,432.8567,W,10.00,257.35,161015,,*3A
$GPRMC,063407,A,4820.4203,N,432.8653,W,10.00,257.35,161015,,*3A
$GPRMC,063407,A,4820.4190,N,432.8739,W,10.00,257.35,161015,,*3E
$GPRMC,063407,A,4820.4177,N,432.8825,W,10.00,257.35,161015,,*35
$GPRMC,063407,A,4820.4164,N,432.8911,W,10.00,257.35,161015,,*31
$GPRMC,063407,A,4820.4152,N,432.8996,W,10.00,257.35,161015,,*3B
$GPRMC,063407,A,4820.4139,N,432.9082,W,10.00,257.35,161015,,*3B
$GPRMC,063407,A,4820.4126,N,432.9168,W,10.00,257.35,161015,,*30
$GPRMC,063407,A,4820.4113,N,432.9254,W,10.00,257.35,161015,,*3A
$GPRMC,063407,A,4820.4100,N,432.9340,W,10.00,257.35,161015,,*3C
$GPRMC,063407,A,4820.4087,N,432.9425,W,10.00,257.35,161015,,*36
$GPRMC,063407,A,4820.4074,N,432.9511,W,10.00,257.35,161015,,*3C
$GPRMC,063407,A,4820.4061,N,432.9597,W,10.00,257.35,161015,,*36
$GPRMC,063407,A,4820.4049,N,432.9683,W,10.00,257.35,161015,,*3A
$GPRMC,063407,A,4820.4036,N,432.9769,W,10.00,257.35,161015,,*37
$GPRMC,063407,A,4820.4023,N,432.9854,W,10.00,257.35,161015,,*32
$GPRMC,063407,A,4820.4010,N,432.9940,W,10.00,257.35,161015,,*36
$GPRMC,063407,A,4820.3997,N,433.0026,W,10.00,257.35,161015,,*36
$GPRMC,063407,A,4820.3984,N,433.0112,W,10.00,257.35,161015,,*32
$GPRMC,063407,A,4820.3971,N,433.0198,W,10.00,257.35,161015,,*3A
$GPRMC,063407,A,4820.3958,N,433.0283,W,10.00,257.35,161015,,*38
$GPRMC,063407,A,4820.3946,N,433.0369,W,10.00,257.35,161015,,*32
$GPRMC,063407,A,4820.3933,N,433.0455,W,10.00,257.35,161015,,*38
$GPRMC,063407,A,4820.3920,N,433.0541,W,10.00,257.35,161015,,*3E
$GPRMC,063407,A,4820.3907,N,433.0627,W,10.00,257.35,161015,,*38
$GPRMC,063407,A,4820.3894,N,433.0712,W,10.00,257.35,161015,,*34
$GPRMC,063407,A,4820.3881,N,433.0798,W,10.00,257.35,161015,,*32
$GPRMC,063407,A,4820.3868,N,433.0884,W,10.00,257.35,161015,,*37
$GPRMC,063407,A,4820.3855,N,433.0970,W,10.00,257.35,161015,,*33
$GPRMC,063407,A,4820.3842,N,433.1056,W,10.00,257.35,161015,,*39
$GPRMC,063407,A,4820.3830,N,433.1141,W,10.00,257.35,161015,,*3B
$GPRMC,063407,A,4820.3817,N,433.1227,W,10.00,257.35,161015,,*3D
$GPRMC,063407,A,4820.3804,N,433.1313,W,10.00,257.35,161015,,*39
$GPRMC,063407,A,4820.3791,N,433.1399,W,10.00,257.35,161015,,*38
$GPRMC,063407,A,4820.3778,N,433.1485,W,10.00,257.35,161015,,*35
$GPRMC,063407,A,4820.3765,N,433.1570,W,10.00,257.35,161015,,*32
$GPRMC,063407,A,4820.3752,N,433.1656,W,10.00,257.35,161015,,*31
$GPRMC,063407,A,4820.3739,N,433.1742,W,10.00,257.35,161015,,*38
$GPRMC,063407,A,4820.3727,N,433.1828,W,10.00,257.35,161015,,*34
$GPRMC,063407,A,4820.3714,N,433.1914,W,10.00,257.35,161015,,*3A
$GPRMC,063407,A,4820.3701,N,433.1999,W,10.00,257.35,161015,,*3B
$GPRMC,063407,A,4820.3688,N,433.2085,W,10.00,257.35,161015,,*3C
$GPRMC,063407,A,4820.3675,N,433.2171,W,10.00,257.35,161015,,*34
$GPRMC,063407,A,4820.3662,N,433.2257,W,10.00,257.35,161015,,*35
$GPRMC,063407,A,4820.3649,N,433.2343,W,10.00,257.35,161015,,*38
$GPRMC,063407,A,4820.3636,N,433.2428,W,10.00,257.35,161015,,*3A
$GPRMC,063407,A,4820.3624,N,433.2514,W,10.00,257.35,161015,,*37
$GPRMC,063407,A,4820.3611,N,433.2600,W,10.00,257.35,161015,,*37
$GPRMC,063407,A,4820.3598,N,433.2686,W,10.00,257.35,161015,,*3B
$GPRMC,063407,A,4820.3585,N,433.2772,W,10.00,257.35,161015,,*3D
$GPRMC,063407,A,4820.3572,N,433.2857,W,10.00,257.35,161015,,*3D
$GPRMC,063407,A,4820.3559,N,433.2943,W,10.00,257.35,161015,,*30
$GPRMC,063407,A,4820.3546,N,433.3029,W,10.00,257.35,161015,,*3A
$GPRMC,063407,A,4820.3533,N,433.3115,W,10.00,257.35,161015,,*36
$GPRMC,063407,A,4820.3520,N,433.3201,W,10.00,257.35,161015,,*32
$GPRMC,063407,A,4820.3508,N,433.3286,W,10.00,257.35,161015,,*37
$GPRMC,063407,A,4820.3495,N,433.3372,W,10.00,257.35,161015,,*38
$GPRMC,063407,A,4820.3482,N,433.3458,W,10.00,257.35,161015,,*31
$GPRMC,063407,A,4820.3469,N,433.3544,W,10.00,257.35,161015,,*38
$GPRMC,063407,A,4820.3456,N,433.3630,W,10.00,257.35,161015,,*34
$GPRMC,063407,A,4820.3443,N,433.3715,W,10.00,257.35,161015,,*36
$GPRMC,063407,A,4820.3430,N,433.3801,W,10.00,257.35,161015,,*38
$GPRMC,063407,A,4820.3417,N,433.3887,W,10.00,257.35,161015,,*33
$GPRMC,063407,A,4820.3405,N,433.3973,W,10.00,257.35,161015,,*3A
$GPRMC,063407,A,4820.3392,N,433.4059,W,10.00,257.35,161015,,*35
$GPRMC,063407,A,4820.3379,N,433.4144,W,10.00,257.35,161015,,*3D
$GPRMC,063407,A,4820.3366,N,433.4230,W,10.00,257.35,161015,,*33
$GPRMC,063407,A,4820.3353,N,433.4316,W,10.00,257.35,161015,,*30
$GPRMC,063407,A,4820.3340,N,433.4402,W,10.00,257.35,161015,,*30
$GPRMC,063407,A,4820.3327,N,433.4488,W,10.00,257.35,161015,,*33
$GPRMC,063407,A,4820.3314,N,433.4573,W,10.00,257.35,161015,,*36
$GPRMC,063407,A,4820.3301,N,433.4659,W,10.00,257.35,161015,,*39
$GPRMC,063407,A,4820.3289,N,433.4745,W,10.00,257.35,161015,,*34
$GPRMC,063407,A,4820.3276,N,433.4831,W,10.00,257.35,161015,,*38
$GPRMC,063407,A,4820.3263,N,433.4917,W,10.00,257.35,161015,,*39
$GPRMC,063407,A,4820.3250,N,433.5002,W,10.00,257.35,161015,,*35
$GPRMC,063407,A,4820.3237,N,433.5088,W,10.00,257.35,161015,,*36
$GPRMC,063407,A,4820.3224,N,433.5174,W,10.00,257.35,161015,,*36
$GPRMC,063407,A,4820.3211,N,433.5260,W,10.00,257.35,161015,,*36
$GPRMC,063407,A,4820.3198,N,433.5346,W,10.00,257.35,161015,,*31
$GPRMC,063407,A,4820.3185,N,433.5431,W,10.00,257.35,161015,,*3A
$GPRMC,063407,A,4820.3173,N,433.5517,W,10.00,257.35,161015,,*36
$GPRMC,063407,A,4820.3160,N,433.5603,W,10.00,257.35,161015,,*32
$GPRMC,063407,A,4820.3147,N,433.5689,W,10.00,257.35,161015,,*35
$GPRMC,063407,A,4820.3134,N,433.5775,W,10.00,257.35,161015,,*33
$GPRMC,063407,A,4820.3121,N,433.5860,W,10.00,257.35,161015,,*3C
$GPRMC,063407,A,4820.3108,N,433.5946,W,10.00,257.35,161015,,*32
$GPRMC,063407,A,4820.3095,N,433.6032,W,10.00,257.35,161015,,*3E
$GPRMC,063407,A,4820.3082,N,433.6118,W,10.00,257.35,161015,,*31
$GPRMC,063407,A,4820.3069,N,433.6203,W,10.00,257.35,161015,,*3D
$GPRMC,063407,A,4820.3064,N,433.6240,W,10.00,266.42,161015,,*35
$GPRMC,063407,A,4820.3058,N,433.6383,W,10.00,266.42,161015,,*34
$GPRMC,063407,A,4820.3052,N,433.6527,W,10.00,266.42,161015,,*36
$GPRMC,063407,A,4820.3046,N,433.6670,W,10.00,266.42,161015,,*32
$GPRMC,063407,A,4820.3040,N,433.6814,W,10.00,266.42,161015,,*38
$GPRMC,063407,A,4820.3034,N,433.6957,W,10.00,266.42,161015,,*3D
$GPRMC,063407,A,4820.3028,N,433.7100,W,10.00,266.42,161015,,*3B
$GPRMC,063407,A,4820.3022,N,433.7244,W,10.00,266.42,161015,,*32
$GPRMC,063407,A,4820.3016,N,433.7387,W,10.00,266.42,161015,,*3B
$GPRMC,063407,A,4820.3010,N,433.7531,W,10.00,266.42,161015,,*36
$GPRMC,063407,A,4820.3004,N,433.7674,W,10.00,266.42,161015,,*31
$GPRMC,063407,A,4820.2998,N,433.7818,W,10.00,266.42,161015,,*38
$GPRMC,063407,A,4820.2992,N,433.7961,W,10.00,266.42,161015,,*3D
$GPRMC,063407,A,4820.2986,N,433.8104,W,10.00,266.42,161015,,*3C
$GPRMC,063407,A,4820.2980,N,433.8248,W,10.00,266.42,161015,,*31
$GPRMC,063407,A,4820.2974,N,433.8391,W,10.00,266.42,161015,,*3F
$GPRMC,063407,A,4820.2968,N,433.8535,W,10.00,266.42,161015,,*3A
$GPRMC,063407,A,4820.2962,N,433.8678,W,10.00,266.42,161015,,*3A
$GPRMC,063407,A,4820.2956,N,433.8821,W,10.00,266.42,161015,,*3F
$GPRMC,063407,A,4820.2950,N,433.8965,W,10.00,266.42,161015,,*38
$GPRMC,063407,A,4820.2944,N,433.9108,W,10.00,266.42,161015,,*3F
$GPRMC,063407,A,4820.2938,N,433.9252,W,10.00,266.42,161015,,*38
$GPRMC,063407,A,4820.2932,N,433.9395,W,10.00,266.42,161015,,*38
$GPRMC,063407,A,4820.2926,N,433.9538,W,10.00,266.42,161015,,*3C
$GPRMC,063407,A,4820.2920,N,433.9682,W,10.00,266.42,161015,,*38
$GPRMC,063407,A,4820.2914,N,433.9825,W,10.00,266.42,161015,,*3C
$GPRMC,063407,A,4820.2908,N,433.9969,W,10.00,266.42,161015,,*38
$GPRMC,063407,A,4820.2902,N,434.0112,W,10.00,266.42,161015,,*38
$GPRMC,063407,A,4820.2896,N,434.0256,W,10.00,266.42,161015,,*37
$GPRMC,063407,A,4820.2890,N,434.0399,W,10.00,266.42,161015,,*33
$GPRMC,063407,A,4820.2884,N,434.0542,W,10.00,266.42,161015,,*36
$GPRMC,063407,A,4820.2878,N,434.0686,W,10.00,266.42,161015,,*3E
$GPRMC,063407,A,4820.2872,N,434.0829,W,10.00,266.42,161015,,*3F
$GPRMC,063407,A,4820.2866,N,434.0973,W,10.00,266.42,161015,,*34
$GPRMC,063407,A,4820.2860,N,434.1116,W,10.00,266.42,161015,,*38
$GPRMC,063407,A,4820.2854,N,434.1259,W,10.00,266.42,161015,,*37
$GPRMC,063407,A,4820.2848,N,434.1403,W,10.00,266.42,161015,,*33
$GPRMC,063407,A,4820.2842,N,434.1546,W,10.00,266.42,161015,,*39
$GPRMC,063407,A,4820.2836,N,434.1690,W,10.00,266.42,161015,,*32
$GPRMC,063407,A,4820.2830,N,434.1833,W,10.00,266.42,161015,,*33
$GPRMC,063407,A,4820.2824,N,434.1976,W,10.00,266.42,161015,,*36
$GPRMC,063407,A,4820.2818,N,434.2120,W,10.00,266.42,161015,,*31
$GPRMC,063407,A,4820.2812,N,434.2263,W,10.00,266.42,161015,,*3F
$GPRMC,063407,A,4820.2806,N,434.2407,W,10.00,266.42,161015,,*3E
$GPRMC,063407,A,4820.2800,N,434.2550,W,10.00,266.42,161015,,*3B
$GPRMC,063407,A,4820.2794,N,434.2694,W,10.00,266.42,161015,,*32
$GPRMC,063407,A,4820.2788,N,434.2837,W,10.00,266.42,161015,,*38
$GPRMC,063407,A,4820.2782,N,434.2980,W,10.00,266.42,161015,,*3F
$GPRMC,063407,A,4820.2776,N,434.3124,W,10.00,266.42,161015,,*33
$GPRMC,063407,A,4820.2770,N,434.3267,W,10.00,266.42,161015,,*31
$GPRMC,063407,A,4820.2764,N,434.3411,W,10.00,266.42,161015,,*33
$GPRMC,063407,A,4820.2758,N,434.3554,W,10.00,266.42,161015,,*3C
$GPRMC,063407,A,4820.2752,N,434.3697,W,10.00,266.42,161015,,*3A
$GPRMC,063407,A,4820.2746,N,434.3841,W,10.00,266.42,161015,,*3A
$GPRMC,063407,A,4820.2740,N,434.3984,W,10.00,266.42,161015,,*34
$GPRMC,063407,A,4820.2734,N,434.4128,W,10.00,266.42,161015,,*3E
$GPRMC,063407,A,4820.2728,N,434.4271,W,10.00,266.42,161015,,*3C
$GPRMC,063407,A,4820.2722,N,434.4414,W,10.00,266.42,161015,,*33
$GPRMC,063407,A,4820.2716,N,434.4558,W,10.00,266.42,161015,,*3D
$GPRMC,063407,A,4820.2710,N,434.4701,W,10.00,266.42,161015,,*35
$GPRMC,063407,A,4820.2704,N,434.4845,W,10.00,266.42,161015,,*3F
$GPRMC,063407,A,4820.2698,N,434.4988,W,10.00,266.42,161015,,*3B
$GPRMC,063407,A,4820.2692,N,434.5132,W,10.00,266.42,161015,,*39
$GPRMC,063407,A,4820.2686,N,434.5275,W,10.00,266.42,161015,,*3C
$GPRMC,063407,A,4820.2680,N,434.5418,W,10.00,266.42,161015,,*37
$GPRMC,063407,A,4820.2674,N,434.5562,W,10.00,266.42,161015,,*30
$GPRMC,063407,A,4820.2668,N,434.5705,W,10.00,266.42,161015,,*3E
$GPRMC,063407,A,4820.2662,N,434.5849,W,10.00,266.42,161015,,*33
$GPRMC,063407,A,4820.2656,N,434.5992,W,10.00,266.42,161015,,*33
$GPRMC,063407,A,4820.2650,N,434.6135,W,10.00,266.42,161015,,*33
$GPRMC,063407,A,4820.2644,N,434.6279,W,10.00,266.42,161015,,*3D
$GPRMC,063407,A,4820.2638,N,434.6422,W,10.00,266.42,161015,,*3E
$GPRMC,063407,A,4820.2632,N,434.6566,W,10.00,266.42,161015,,*35
$GPRMC,063407,A,4820.2626,N,434.6709,W,10.00,266.42,161015,,*3B
$GPRMC,063407,A,4820.2620,N,434.6852,W,10.00,266.42,161015,,*3C
$GPRMC,063407,A,4820.2614,N,434.6996,W,10.00,266.42,161015,,*32
$GPRMC,063407,A,4820.2608,N,434.7139,W,10.00,266.42,161015,,*33
$GPRMC,063407,A,4820.2602,N,434.7283,W,10.00,266.42,161015,,*3B
$GPRMC,063407,A,4820.2596,N,434.7426,W,10.00,266.42,161015,,*3C
$GPRMC,063407,A,4820.2590,N,434.7570,W,10.00,266.42,161015,,*38
$GPRMC,063407,A,4820.2584,N,434.7713,W,10.00,266.42,161015,,*3A
$GPRMC,063407,A,4820.2578,N,434.7856,W,10.00,266.42,161015,,*37
$GPRMC,063407,A,4820.2572,N,434.8000,W,10.00,266.42,161015,,*39
$GPRMC,063407,A,4820.2566,N,434.8143,W,10.00,266.42,161015,,*3A
$GPRMC,063407,A,4820.2560,N,434.8287,W,10.00,266.42,161015,,*37
$GPRMC,063407,A,4820.2554,N,434.8430,W,10.00,266.42,161015,,*3A
$GPRMC,063407,A,4820.2548,N,434.8573,W,10.00,266.42,161015,,*31
$GPRMC,063407,A,4820.2542,N,434.8717,W,10.00,266.42,161015,,*3B
$GPRMC,063407,A,4820.2536,N,434.8860,W,10.00,266.42,161015,,*37
$GPRMC,063407,A,4820.2530,N,434.9004,W,10.00,266.42,161015,,*3A
$GPRMC,063407,A,4820.2524,N,434.9147,W,10.00,266.42,161015,,*39
$GPRMC,063407,A,4820.2518,N,434.9290,W,10.00,266.42,161015,,*3F
$GPRMC,063407,A,4820.2512,N,434.9434,W,10.00,266.42,161015,,*3D
$GPRMC,063407,A,4820.2506,N,434.9577,W,10.00,266.42,161015,,*3E
$GPRMC,063407,A,4820.2500,N,434.9721,W,10.00,266.42,161015,,*39
$GPRMC,063407,A,4820.2494,N,434.9864,W,10.00,266.42,161015,,*3B
$GPRMC,063407,A,4820.2488,N,435.0007,W,10.00,266.42,161015,,*33
$GPRMC,063407,A,4820.2482,N,435.0151,W,10.00,266.42,161015,,*3B
$GPRMC,063407,A,4820.2476,N,435.0294,W,10.00,266.42,161015,,*3A
$GPRMC,063407,A,4820.2470,N,435.0438,W,10.00,266.42,161015,,*3C
$GPRMC,063407,A,4820.2464,N,435.0581,W,10.00,266.42,161015,,*3A
$GPRMC,063407,A,4820.2458,N,435.0725,W,10.00,266.42,161015,,*39
$GPRMC,063407,A,4820.2452,N,435.0868,W,10.00,266.42,161015,,*35
$GPRMC,063407,A,4820.2446,N,435.1011,W,10.00,266.42,161015,,*37
$GPRMC,063407,A,4820.2440,N,435.1155,W,10.00,266.42,161015,,*30
$GPRMC,063407,A,4820.2434,N,435.1298,W,10.00,266.42,161015,,*31
$GPRMC,063407,A,4820.2428,N,435.1442,W,10.00,266.42,161015,,*3D
$GPRMC,063407,A,4820.2422,N,435.1585,W,10.00,266.42,161015,,*3D
$GPRMC,063407,A,4820.2416,N,435.1728,W,10.00,266.42,161015,,*3F
$GPRMC,063407,A,4820.2410,N,435.1872,W,10.00,266.42,161015,,*39
$GPRMC,063407,A,4820.2404,N,435.2015,W,10.00,266.42,161015,,*36
$GPRMC,063407,A,4820.2398,N,435.2159,W,10.00,266.42,161015,,*3D
$GPRMC,063407,A,4820.2392,N,435.2302,W,10.00,266.42,161015,,*3B
$GPRMC,063407,A,4820.2386,N,435.2445,W,10.00,266.42,161015,,*3A
$GPRMC,063407,A,4820.2380,N,435.2589,W,10.00,266.42,161015,,*3D
$GPRMC,063407,A,4820.2373,N,435.2732,W,10.00,266.42,161015,,*33
$GPRMC,063407,A,4820.2367,N,435.2876,W,10.00,266.42,161015,,*39
$GPRMC,063407,A,4820.2361,N,435.3019,W,10.00,266.42,161015,,*3F
$GPRMC,063407,A,4820.2355,N,435.3162,W,10.00,266.42,161015,,*35
$GPRMC,063407,A,4820.2349,N,435.3306,W,10.00,266.42,161015,,*38
$GPRMC,063407,A,4820.2343,N,435.3449,W,10.00,266.42,161015,,*3E
$GPRMC,063407,A,4820.2337,N,435.3593,W,10.00,266.42,161015,,*3B
$GPRMC,063407,A,4820.2331,N,435.3736,W,10.00,266.42,161015,,*30
$GPRMC,063407,A,4820.2325,N,435.3879,W,10.00,266.42,161015,,*31
$GPRMC,063407,A,4820.2319,N,435.4023,W,10.00,266.42,161015,,*3E
$GPRMC,063407,A,4820.2313,N,435.4166,W,10.00,266.42,161015,,*34
$GPRMC,063407,A,4820.2307,N,435.4310,W,10.00,266.42,161015,,*32
$GPRMC,063407,A,4820.2301,N,435.4453,W,10.00,266.42,161015,,*34
$GPRMC,063407,A,4820.2295,N,435.4597,W,10.00,266.42,161015,,*31
$GPRMC,063407,A,4820.2289,N,435.4740,W,10.00,266.42,161015,,*34
$GPRMC,063407,A,4820.2283,N,435.4883,W,10.00,266.42,161015,,*3E
$GPRMC,063407,A,4820.2277,N,435.5027,W,10.00,266.42,161015,,*32
$GPRMC,063407,A,4820.2271,N,435.5170,W,10.00,266.42,161015,,*37
$GPRMC,063407,A,4820.2265,N,435.5314,W,10.00,266.42,161015,,*32
$GPRMC,063407,A,4820.2259,N,435.5457,W,10.00,266.42,161015,,*3D
$GPRMC,063407,A,4820.2253,N,435.5600,W,10.00,266.42,161015,,*37
$GPRMC,063407,A,4820.2247,N,435.5744,W,10.00,266.42,161015,,*33
$GPRMC,063407,A,4820.2241,N,435.5887,W,10.00,266.42,161015,,*35
$GPRMC,063407,A,4820.2235,N,435.6031,W,10.00,266.42,161015,,*30
$GPRMC,063407,A,4820.2229,N,435.6174,W,10.00,266.42,161015,,*3D
$GPRMC,063407,A,4820.2223,N,435.6317,W,10.00,266.42,161015,,*30
$GPRMC,063407,A,4820.2217,N,435.6461,W,10.00,266.42,161015,,*31
$GPRMC,063407,A,4820.2211,N,435.6604,W,10.00,266.42,161015,,*36
$GPRMC,063407,A,4820.2205,N,435.6748,W,10.00,266.42,161015,,*3A
$GPRMC,063407,A,4820.2199,N,435.6891,W,10.00,266.42,161015,,*37
$GPRMC,063407,A,4820.2193,N,435.7034,W,10.00,266.42,161015,,*3B
$GPRMC,063407,A,4820.2187,N,435.7178,W,10.00,266.42,161015,,*37
$GPRMC,063407,A,4820.2181,N,435.7321,W,10.00,266.42,161015,,*3F
$GPRMC,063407,A,4820.2175,N,435.7465,W,10.00,266.42,161015,,*33
$GPRMC,063407,A,4820.2169,N,435.7608,W,10.00,266.42,161015,,*37
$GPRMC,063407,A,4820.2163,N,435.7751,W,10.00,266.42,161015,,*30
$GPRMC,063407,A,4820.2157,N,435.7895,W,10.00,266.42,161015,,*30
$GPRMC,063407,A,4820.2150,N,435.8038,W,10.00,266.42,161015,,*37
$GPRMC,063407,A,4820.2144,N,435.8182,W,10.00,266.42,161015,,*32
$GPRMC,063407,A,4820.2138,N,435.8325,W,10.00,266.42,161015,,*36
$GPRMC,063407,A,4820.2132,N,435.8469,W,10.00,266.42,161015,,*33
$GPRMC,063407,A,4820.2126,N,435.8612,W,10.00,266.42,161015,,*38
$GPRMC,063407,A,4820.2120,N,435.8755,W,10.00,266.42,161015,,*3C
$GPRMC,063407,A,4820.2114,N,435.8899,W,10.00,266.42,161015,,*34
$GPRMC,063407,A,4820.2111,N,435.8986,W,10.00,233.19,161015,,*30
$GPRMC,063407,A,4820.2063,N,435.9081,W,10.00,233.19,161015,,*3B
$GPRMC,063407,A,4820.2016,N,435.9175,W,10.00,233.19,161015,,*33
$GPRMC,063407,A,4820.1969,N,435.9269,W,10.00,233.19,161015,,*3F
$GPRMC,063407,A,4820.1922,N,435.9364,W,10.00,233.19,161015,,*3C
$GPRMC,063407,A,4820.1875,N,435.9458,W,10.00,233.19,161015,,*37
$GPRMC,063407,A,4820.1828,N,435.9553,W,10.00,233.19,161015,,*35
$GPRMC,063407,A,4820.1781,N,435.9647,W,10.00,233.19,161015,,*3F
$GPRMC,063407,A,4820.1734,N,435.9741,W,10.00,233.19,161015,,*36
$GPRMC,063407,A,4820.1687,N,435.9836,W,10.00,233.19,161015,,*30
$GPRMC,063407,A,4820.1639,N,435.9930,W,10.00,233.19,161015,,*32
$GPRMC,063407,A,4820.1592,N,436.0025,W,10.00,233.19,161015,,*37
$GPRMC,063407,A,4820.1545,N,436.0119,W,10.00,233.19,161015,,*33
$GPRMC,063407,A,4820.1498,N,436.0213,W,10.00,233.19,161015,,*3B
$GPRMC,063407,A,4820.1451,N,436.0308,W,10.00,233.19,161015,,*35
$GPRMC,063407,A,4820.1404,N,436.0402,W,10.00,233.19,161015,,*38
$GPRMC,063407,A,4820.1357,N,436.0497,W,10.00,233.19,161015,,*35
$GPRMC,063407,A,4820.1310,N,436.0591,W,10.00,233.19,161015,,*31
$GPRMC,063407,A,4820.1263,N,436.0686,W,10.00,233.19,161015,,*31
$GPRMC,063407,A,4820.1215,N,436.0780,W,10.00,233.19,161015,,*37
$GPRMC,063407,A,4820.1168,N,436.0874,W,10.00,233.19,161015,,*3A
$GPRMC,063407,A,4820.1121,N,436.0969,W,10.00,233.19,161015,,*3A
$GPRMC,063407,A,4820.1074,N,436.1063,W,10.00,233.19,161015,,*39
$GPRMC,063407,A,4820.1027,N,436.1158,W,10.00,233.19,161015,,*36
$GPRMC,063407,A,4820.0980,N,436.1252,W,10.00,233.19,161015,,*3A
$GPRMC,063407,A,4820.0933,N,436.1346,W,10.00,233.19,161015,,*36
$GPRMC,063407,A,4820.0886,N,436.1441,W,10.00,233.19,161015,,*39
$GPRMC,063407,A,4820.0838,N,436.1535,W,10.00,233.19,161015,,*3E
$GPRMC,063407,A,4820.0791,N,436.1630,W,10.00,233.19,161015,,*34
$GPRMC,063407,A,4820.0744,N,436.1724,W,10.00,233.19,161015,,*38
$GPRMC,063407,A,4820.0697,N,436.1818,W,10.00,233.19,161015,,*37
$GPRMC,063407,A,4820.0650,N,436.1913,W,10.00,233.19,161015,,*36
$GPRMC,063407,A,4820.0603,N,436.2007,W,10.00,233.19,161015,,*3F
$GPRMC,063407,A,4820.0556,N,436.2102,W,10.00,233.19,161015,,*38
$GPRMC,063407,A,4820.0509,N,436.2196,W,10.00,233.19,161015,,*3F
$GPRMC,063407,A,4820.0462,N,436.2290,W,10.00,233.19,161015,,*36
$GPRMC,063407,A,4820.0414,N,436.2385,W,10.00,233.19,161015,,*32
$GPRMC,063407,A,4820.0367,N,436.2479,W,10.00,233.19,161015,,*35
$GPRMC,063407,A,4820.0320,N,436.2574,W,10.00,233.19,161015,,*3A
$GPRMC,063407,A,4820.0273,N,436.2668,W,10.00,233.19,161015,,*33
$GPRMC,063407,A,4820.0226,N,436.2762,W,10.00,233.19,161015,,*38
$GPRMC,063407,A,4820.0179,N,436.2857,W,10.00,233.19,161015,,*38
$GPRMC,063407,A,4820.0132,N,436.2951,W,10.00,233.19,161015,,*30
$GPRMC,063407,A,4820.0085,N,436.3046,W,10.00,233.19,161015,,*33
$GPRMC,063407,A,4820.0037,N,436.3140,W,10.00,233.19,161015,,*3D
$GPRMC,063407,A,4819.9990,N,436.3234,W,10.00,233.19,161015,,*3A
$GPRMC,063407,A,4819.9943,N,436.3329,W,10.00,233.19,161015,,*39
$GPRMC,063407,A,4819.9896,N,436.3423,W,10.00,233.19,161015,,*3D
$GPRMC,063407,A,4819.9849,N,436.3518,W,10.00,233.19,161015,,*36
$GPRMC,063407,A,4819.9802,N,436.3612,W,10.00,233.19,161015,,*30
$GPRMC,063407,A,4819.9755,N,436.3706,W,10.00,233.19,161015,,*39
$GPRMC,063407,A,4819.9708,N,436.3801,W,10.00,233.19,161015,,*39
$GPRMC,063407,A,4819.9661,N,436.3895,W,10.00,233.19,161015,,*3A
$GPRMC,063407,A,4819.9613,N,436.3989,W,10.00,233.19,161015,,*33
$GPRMC,063407,A,4819.9566,N,436.4084,W,10.00,233.19,161015,,*31
$GPRMC,063407,A,4819.9519,N,436.4178,W,10.00,233.19,161015,,*3B
$GPRMC,063407,A,4819.9472,N,436.4273,W,10.00,233.19,161015,,*3F
$GPRMC,063407,A,4819.9425,N,436.4367,W,10.00,233.19,161015,,*39
$GPRMC,063407,A,4819.9378,N,436.4461,W,10.00,233.19,161015,,*37
$GPRMC,063407,A,4819.9331,N,436.4556,W,10.00,233.19,161015,,*3F
$GPRMC,063407,A,4819.9284,N,436.4650,W,10.00,233.19,161015,,*35
$GPRMC,063407,A,4819.9236,N,436.4745,W,10.00,233.19,161015,,*39
$GPRMC,063407,A,4819.9189,N,436.4839,W,10.00,233.19,161015,,*3A
$GPRMC,063407,A,4819.9142,N,436.4933,W,10.00,233.19,161015,,*36
$GPRMC,063407,A,4819.9095,N,436.5028,W,10.00,233.19,161015,,*3F
$GPRMC,063407,A,4819.9048,N,436.5122,W,10.00,233.19,161015,,*34
$GPRMC,063407,A,4819.9001,N,436.5217,W,10.00,233.19,161015,,*3C
$GPRMC,063407,A,4819.8954,N,436.5311,W,10.00,233.19,161015,,*33
$GPRMC,063407,A,4819.8907,N,436.5405,W,10.00,233.19,161015,,*37
$GPRMC,063407,A,4819.8859,N,436.5500,W,10.00,233.19,161015,,*39
$GPRMC,063407,A,4819.8812,N,436.5594,W,10.00,233.19,161015,,*3B
$GPRMC,063407,A,4819.8765,N,436.5689,W,10.00,233.19,161015,,*3B
$GPRMC,063407,A,4819.8718,N,436.5783,W,10.00,233.19,161015,,*3A
$GPRMC,063407,A,4819.8671,N,436.5877,W,10.00,233.19,161015,,*30
$GPRMC,063407,A,4819.8624,N,436.5972,W,10.00,233.19,161015,,*34
$GPRMC,063407,A,4819.8577,N,436.6066,W,10.00,233.19,161015,,*3E
$GPRMC,063407,A,4819.8530,N,436.6160,W,10.00,233.19,161015,,*3A
$GPRMC,063407,A,4819.8482,N,436.6255,W,10.00,233.19,161015,,*37
$GPRMC,063407,A,4819.8435,N,436.6349,W,10.00,233.19,161015,,*37
$GPRMC,063407,A,4819.8388,N,436.6444,W,10.00,233.19,161015,,*3C
$GPRMC,063407,A,4819.8341,N,436.6538,W,10.00,233.19,161015,,*33
$GPRMC,063407,A,4819.8294,N,436.6632,W,10.00,233.19,161015,,*33
$GPRMC,063407,A,4819.8247,N,436.6727,W,10.00,233.19,161015,,*38
$GPRMC,063407,A,4819.8200,N,436.6821,W,10.00,233.19,161015,,*32
$GPRMC,063407,A,4819.8153,N,436.6916,W,10.00,233.19,161015,,*32
$GPRMC,063407,A,4819.8105,N,436.7010,W,10.00,233.19,161015,,*3F
$GPRMC,063407,A,4819.8058,N,436.7104,W,10.00,233.19,161015,,*32
$GPRMC,063407,A,4819.8011,N,436.7199,W,10.00,233.19,161015,,*3B
$GPRMC,063407,A,4819.7964,N,436.7293,W,10.00,233.19,161015,,*36
$GPRMC,063407,A,4819.7917,N,436.7387,W,10.00,233.19,161015,,*36
$GPRMC,063407,A,4819.7870,N,436.7482,W,10.00,233.19,161015,,*34
$GPRMC,063407,A,4819.7823,N,436.7576,W,10.00,233.19,161015,,*38
$GPRMC,063407,A,4819.7776,N,436.7671,W,10.00,233.19,161015,,*33
$GPRMC,063407,A,4819.7728,N,436.7765,W,10.00,233.19,161015,,*3C
$GPRMC,063407,A,4819.7681,N,436.7859,W,10.00,233.19,161015,,*3E
$GPRMC,063407,A,4819.7634,N,436.7954,W,10.00,233.19,161015,,*3C
$GPRMC,063407,A,4819.7587,N,436.8048,W,10.00,233.19,161015,,*3C
$GPRMC,063407,A,4819.7540,N,436.8143,W,10.00,233.19,161015,,*3D
$GPRMC,063407,A,4819.7493,N,436.8237,W,10.00,233.19,161015,,*32
$GPRMC,063407,A,4819.7446,N,436.8331,W,10.00,233.19,161015,,*3D
$GPRMC,063407,A,4819.7399,N,436.8426,W,10.00,233.19,161015,,*39
$GPRMC,063407,A,4819.7351,N,436.8520,W,10.00,233.19,161015,,*3A
$GPRMC,063407,A,4819.7304,N,436.8614,W,10.00,233.19,161015,,*3E
$GPRMC,063407,A,4819.7257,N,436.8709,W,10.00,233.19,161015,,*34
$GPRMC,063407,A,4819.7210,N,436.8803,W,10.00,233.19,161015,,*32
$GPRMC,063407,A,4819.7163,N,436.8898,W,10.00,233.19,161015,,*37
$GPRMC,063407,A,4819.7116,N,436.8992,W,10.00,233.19,161015,,*3E
$GPRMC,063407,A,4819.7069,N,436.9086,W,10.00,233.19,161015,,*3A
$GPRMC,063407,A,4819.7022,N,436.9181,W,10.00,233.19,161015,,*33
$GPRMC,063407,A,4819.6974,N,436.9275,W,10.00,233.19,161015,,*30
$GPRMC,063407,A,4819.6927,N,436.9369,W,10.00,233.19,161015,,*3A
$GPRMC,063407,A,4819.6880,N,436.9464,W,10.00,233.19,161015,,*3C
$GPRMC,063407,A,4819.6833,N,436.9558,W,10.00,233.19,161015,,*3A
$GPRMC,063407,A,4819.6786,N,436.9653,W,10.00,233.19,161015,,*33
$GPRMC,063407,A,4819.6739,N,436.9747,W,10.00,233.19,161015,,*33
$GPRMC,063407,A,4819.6692,N,436.9841,W,10.00,233.19,161015,,*3A
$GPRMC,063407,A,4819.6645,N,436.9936,W,10.00,233.19,161015,,*31
$GPRMC,063407,A,4819.6597,N,437.0030,W,10.00,233.19,161015,,*3A
$GPRMC,063407,A,4819.6550,N,437.0124,W,10.00,233.19,161015,,*35
$GPRMC,063407,A,4819.6503,N,437.0219,W,10.00,233.19,161015,,*3E
$GPRMC,063407,A,4819.6456,N,437.0313,W,10.00,233.19,161015,,*34
$GPRMC,063407,A,4819.6409,N,437.0408,W,10.00,233.19,161015,,*33
$GPRMC,063407,A,4819.6362,N,437.0502,W,10.00,233.19,161015,,*32
$GPRMC,063407,A,4819.6315,N,437.0596,W,10.00,233.19,161015,,*3F
$GPRMC,063407,A,4819.6268,N,437.0691,W,10.00,233.19,161015,,*30
$GPRMC,063407,A,4819.6220,N,437.0785,W,10.00,233.19,161015,,*38
$GPRMC,063407,A,4819.6173,N,437.0879,W,10.00,233.19,161015,,*31
$GPRMC,063407,A,4819.6126,N,437.0974,W,10.00,233.19,161015,,*3D
$GPRMC,063407,A,4819.6079,N,437.1068,W,10.00,233.19,161015,,*33
$GPRMC,063407,A,4819.6032,N,437.1163,W,10.00,233.19,161015,,*36
$GPRMC,063407,A,4819.5985,N,437.1257,W,10.00,233.19,161015,,*34
$GPRMC,063407,A,4819.5938,N,437.1351,W,10.00,233.19,161015,,*35
$GPRMC,063407,A,4819.5890,N,437.1446,W,10.00,233.19,161015,,*37
$GPRMC,063407,A,4819.5843,N,437.1540,W,10.00,233.19,161015,,*3E
$GPRMC,063407,A,4819.5796,N,437.1634,W,10.00,233.19,161015,,*39
$GPRMC,063407,A,4819.5749,N,437.1729,W,10.00,233.19,161015,,*36
$GPRMC,063407,A,4819.5702,N,437.1823,W,10.00,233.19,161015,,*3C
$GPRMC,063407,A,4819.5655,N,437.1918,W,10.00,233.19,161015,,*36
$GPRMC,063407,A,4819.5608,N,437.2012,W,10.00,233.19,161015,,*3E
$GPRMC,063407,A,4819.5561,N,437.2106,W,10.00,233.19,161015,,*36
$GPRMC,063407,A,4819.5513,N,437.2201,W,10.00,233.19,161015,,*37
$GPRMC,063407,A,4819.5466,N,437.2295,W,10.00,233.19,161015,,*39
$GPRMC,063407,A,4819.5419,N,437.2389,W,10.00,233.19,161015,,*3D
$GPRMC,063407,A,4819.5372,N,437.2484,W,10.00,233.19,161015,,*3D
$GPRMC,063407,A,4819.5325,N,437.2578,W,10.00,233.19,161015,,*3D
$GPRMC,063407,A,4819.5278,N,437.2673,W,10.00,233.19,161015,,*3C
$GPRMC,063407,A,4819.5231,N,437.2767,W,10.00,233.19,161015,,*35
$GPRMC,063407,A,4819.5184,N,437.2861,W,10.00,233.19,161015,,*31
$GPRMC,063407,A,4819.5136,N,437.2956,W,10.00,233.19,161015,,*3D
$GPRMC,063407,A,4819.5089,N,437.3050,W,10.00,233.19,161015,,*36
$GPRMC,063407,A,4819.5042,N,437.3144,W,10.00,233.19,161015,,*35
$GPRMC,063407,A,4819.4995,N,437.3239,W,10.00,233.19,161015,,*3E
$GPRMC,063407,A,4819.4948,N,437.3333,W,10.00,233.19,161015,,*35
$GPRMC,063407,A,4819.4901,N,437.3427,W,10.00,233.19,161015,,*3A
$GPRMC,063407,A,4819.4854,N,437.3522,W,10.00,233.19,161015,,*3F
$GPRMC,063407,A,4819.4806,N,437.3616,W,10.00,233.19,161015,,*3C
$GPRMC,063407,A,4819.4759,N,437.3711,W,10.00,233.19,161015,,*3F
$GPRMC,063407,A,4819.4712,N,437.3805,W,10.00,233.19,161015,,*3A
$GPRMC,063407,A,4819.4665,N,437.3899,W,10.00,233.19,161015,,*3E
$GPRMC,063407,A,4819.4618,N,437.3994,W,10.00,233.19,161015,,*38
$GPRMC,063407,A,4819.4571,N,437.4088,W,10.00,233.19,161015,,*37
$GPRMC,063407,A,4819.4524,N,437.4182,W,10.00,233.19,161015,,*3C
$GPRMC,063407,A,4819.4477,N,437.4277,W,10.00,233.19,161015,,*32
$GPRMC,063407,A,4819.4429,N,437.4371,W,10.00,233.19,161015,,*3E
$GPRMC,063407,A,4819.4382,N,437.4465,W,10.00,233.19,161015,,*3A
$GPRMC,063407,A,4819.4335,N,437.4560,W,10.00,233.19,161015,,*32
$GPRMC,063407,A,4819.4288,N,437.4654,W,10.00,233.19,161015,,*31
$GPRMC,063407,A,4819.4241,N,437.4749,W,10.00,233.19,161015,,*39
$GPRMC,063407,A,4819.4194,N,437.4843,W,10.00,233.19,161015,,*37
$GPRMC,063407,A,4819.4147,N,437.4937,W,10.00,233.19,161015,,*3B
$GPRMC,063407,A,4819.4099,N,437.5032,W,10.00,233.19,161015,,*34
$GPRMC,063407,A,4819.4052,N,437.5126,W,10.00,233.19,161015,,*37
$GPRMC,063407,A,4819.4005,N,437.5220,W,10.00,233.19,161015,,*30
$GPRMC,063407,A,4819.3958,N,437.5315,W,10.00,233.19,161015,,*31
$GPRMC,063407,A,4819.3911,N,437.5409,W,10.00,233.19,161015,,*36
$GPRMC,063407,A,4819.3864,N,437.5503,W,10.00,233.19,161015,,*3E
$GPRMC,063407,A,4819.3817,N,437.5598,W,10.00,233.19,161015,,*38
$GPRMC,063407,A,4819.3769,N,437.5692,W,10.00,233.19,161015,,*37
$GPRMC,063407,A,4819.3722,N,437.5786,W,10.00,233.19,161015,,*3C
$GPRMC,063407,A,4819.3675,N,437.5881,W,10.00,233.19,161015,,*37
$GPRMC,063407,A,4819.3628,N,437.5975,W,10.00,233.19,161015,,*35
$GPRMC,063407,A,4819.3581,N,437.6070,W,10.00,233.19,161015,,*3A
$GPRMC,063407,A,4819.3534,N,437.6164,W,10.00,233.19,161015,,*30
$GPRMC,063407,A,4819.3487,N,437.6258,W,10.00,233.19,161015,,*35
$GPRMC,063407,A,4819.3440,N,437.6353,W,10.00,233.19,161015,,*34
$GPRMC,063407,A,4819.3392,N,437.6447,W,10.00,233.19,161015,,*3E
$GPRMC,063407,A,4819.3345,N,437.6541,W,10.00,233.19,161015,,*33
$GPRMC,063407,A,4819.3298,N,437.6636,W,10.00,233.19,161015,,*31
$GPRMC,063407,A,4819.3251,N,437.6730,W,10.00,233.19,161015,,*33
$GPRMC,063407,A,4819.3204,N,437.6824,W,10.00,233.19,161015,,*39
$GPRMC,063407,A,4819.3157,N,437.6919,W,10.00,233.19,161015,,*33
$GPRMC,063407,A,4819.3110,N,437.7013,W,10.00,233.19,161015,,*32
$GPRMC,063407,A,4819.3062,N,437.7107,W,10.00,233.19,161015,,*32
$GPRMC,063407,A,4819.3015,N,437.7202,W,10.00,233.19,161015,,*34
$GPRMC,063407,A,4819.2968,N,437.7296,W,10.00,233.19,161015,,*3B
$GPRMC,063407,A,4819.2921,N,437.7391,W,10.00,233.19,161015,,*30
$GPRMC,063407,A,4819.2874,N,437.7485,W,10.00,233.19,161015,,*33
$GPRMC,063407,A,4819.2827,N,437.7579,W,10.00,233.19,161015,,*37
$GPRMC,063407,A,4819.2780,N,437.7674,W,10.00,233.19,161015,,*3B
$GPRMC,063407,A,4819.2732,N,437.7768,W,10.00,233.19,161015,,*3E
$GPRMC,063407,A,4819.2685,N,437.7862,W,10.00,233.19,161015,,*36
$GPRMC,063407,A,4819.2638,N,437.7957,W,10.00,233.19,161015,,*37
$GPRMC,063407,A,4819.2591,N,437.8051,W,10.00,233.19,161015,,*37
$GPRMC,063407,A,4819.2544,N,437.8145,W,10.00,233.19,161015,,*3B
$GPRMC,063407,A,4819.2497,N,437.8240,W,10.00,233.19,161015,,*32
$GPRMC,063407,A,4819.2450,N,437.8334,W,10.00,233.19,161015,,*3B
$GPRMC,063407,A,4819.2402,N,437.8428,W,10.00,233.19,161015,,*36
$GPRMC,063407,A,4819.2355,N,437.8523,W,10.00,233.19,161015,,*39
$GPRMC,063407,A,4819.2308,N,437.8617,W,10.00,233.19,161015,,*35
$GPRMC,063407,A,4819.2261,N,437.8711,W,10.00,233.19,161015,,*3C
$GPRMC,063407,A,4819.2214,N,437.8806,W,10.00,233.19,161015,,*37
$GPRMC,063407,A,4819.2167,N,437.8900,W,10.00,233.19,161015,,*37
$GPRMC,063407,A,4819.2120,N,437.8994,W,10.00,233.19,161015,,*39
$GPRMC,063407,A,4819.2072,N,437.9089,W,10.00,233.19,161015,,*3B
$GPRMC,063407,A,4819.2025,N,437.9183,W,10.00,233.19,161015,,*32
$GPRMC,063407,A,4819.1978,N,437.9278,W,10.00,233.19,161015,,*37
$GPRMC,063407,A,4819.1931,N,437.9372,W,10.00,233.19,161015,,*31
$GPRMC,063407,A,4819.1884,N,437.9466,W,10.00,233.19,161015,,*3C
$GPRMC,063407,A,4819.1837,N,437.9561,W,10.00,233.19,161015,,*32
$GPRMC,063407,A,4819.1790,N,437.9655,W,10.00,233.19,161015,,*34
$GPRMC,063407,A,4819.1743,N,437.9749,W,10.00,233.19,161015,,*36
$GPRMC,063407,A,4819.1695,N,437.9844,W,10.00,233.19,161015,,*3E
$GPRMC,063407,A,4819.1648,N,437.9938,W,10.00,233.19,161015,,*34
$GPRMC,063407,A,4819.1601,N,438.0032,W,10.00,233.19,161015,,*3C
$GPRMC,063407,A,4819.1554,N,438.0127,W,10.00,233.19,161015,,*3A
$GPRMC,063407,A,4819.1507,N,438.0221,W,10.00,233.19,161015,,*39
$GPRMC,063407,A,4819.1460,N,438.0315,W,10.00,233.19,161015,,*3F
$GPRMC,063407,A,4819.1413,N,438.0410,W,10.00,233.19,161015,,*39
$GPRMC,063407,A,4819.1365,N,438.0504,W,10.00,233.19,161015,,*3B
$GPRMC,063407,A,4819.1318,N,438.0598,W,10.00,233.19,161015,,*34
$GPRMC,063407,A,4819.1271,N,438.0693,W,10.00,233.19,161015,,*32
$GPRMC,063407,A,4819.1224,N,438.0787,W,10.00,233.19,161015,,*36
$GPRMC,063407,A,4819.1177,N,438.0881,W,10.00,233.19,161015,,*3A
$GPRMC,063407,A,4819.1130,N,438.0976,W,10.00,233.19,161015,,*30
$GPRMC,063407,A,4819.1083,N,438.1070,W,10.00,233.19,161015,,*37
$GPRMC,063407,A,4819.1035,N,438.1164,W,10.00,233.19,161015,,*3E
$GPRMC,063407,A,4819.1012,N,438.1211,W,10.00,230.40,161015,,*35
$GPRMC,063407,A,4819.0945,N,438.1332,W,10.00,230.40,161015,,*3F
$GPRMC,063407,A,4819.0879,N,438.1453,W,10.00,230.40,161015,,*31
$GPRMC,063407,A,4819.0812,N,438.1574,W,10.00,230.40,161015,,*38
$GPRMC,063407,A,4819.0745,N,438.1696,W,10.00,230.40,161015,,*3A
$GPRMC,063407,A,4819.0678,N,438.1817,W,10.00,230.40,161015,,*32
$GPRMC,063407,A,4819.0611,N,438.1938,W,10.00,230.40,161015,,*31
$GPRMC,063407,A,4819.0544,N,438.2059,W,10.00,230.40,161015,,*3F
$GPRMC,063407,A,4819.0477,N,438.2180,W,10.00,230.40,161015,,*3B
$GPRMC,063407,A,4819.0410,N,438.2302,W,10.00,230.40,161015,,*32
$GPRMC,063407,A,4819.0343,N,438.2423,W,10.00,230.40,161015,,*37
$GPRMC,063407,A,4819.0276,N,438.2544,W,10.00,230.40,161015,,*30
$GPRMC,063407,A,4819.0210,N,438.2665,W,10.00,230.40,161015,,*30
$GPRMC,063407,A,4819.0143,N,438.2787,W,10.00,230.40,161015,,*38
$GPRMC,063407,A,4819.0076,N,438.2908,W,10.00,230.40,161015,,*36
$GPRMC,063407,A,4819.0009,N,438.3029,W,10.00,230.40,161015,,*35
$GPRMC,063407,A,4818.9942,N,438.3150,W,10.00,230.40,161015,,*34
$GPRMC,063407,A,4818.9875,N,438.3271,W,10.00,230.40,161015,,*31
$GPRMC,063407,A,4818.9808,N,438.3393,W,10.00,230.40,161015,,*36
$GPRMC,063407,A,4818.9741,N,438.3514,W,10.00,230.40,161015,,*3D
$GPRMC,063407,A,4818.9674,N,438.3635,W,10.00,230.40,161015,,*3A
$GPRMC,063407,A,4818.9608,N,438.3756,W,10.00,230.40,161015,,*35
$GPRMC,063407,A,4818.9541,N,438.3878,W,10.00,230.40,161015,,*38
$GPRMC,063407,A,4818.9474,N,438.3999,W,10.00,230.40,161015,,*31
$GPRMC,063407,A,4818.9407,N,438.4120,W,10.00,230.40,161015,,*38
$GPRMC,063407,A,4818.9340,N,438.4241,W,10.00,230.40,161015,,*38
$GPRMC,063407,A,4818.9273,N,438.4362,W,10.00,230.40,161015,,*39
$GPRMC,063407,A,4818.9206,N,438.4484,W,10.00,230.40,161015,,*34
$GPRMC,063407,A,4818.9139,N,438.4605,W,10.00,230.40,161015,,*30
$GPRMC,063407,A,4818.9072,N,438.4726,W,10.00,230.40,161015,,*3E
$GPRMC,063407,A,4818.9005,N,438.4847,W,10.00,230.40,161015,,*36
$GPRMC,063407,A,4818.8939,N,438.4969,W,10.00,230.40,161015,,*3C
$GPRMC,063407,A,4818.8872,N,438.5090,W,10.00,230.40,161015,,*3C
$GPRMC,063407,A,4818.8805,N,438.5211,W,10.00,230.40,161015,,*37
$GPRMC,063407,A,4818.8738,N,438.5332,W,10.00,230.40,161015,,*36
$GPRMC,063407,A,4818.8671,N,438.5453,W,10.00,230.40,161015,,*3A
$GPRMC,063407,A,4818.8604,N,438.5575,W,10.00,230.40,161015,,*3D
$GPRMC,063407,A,4818.8537,N,438.5696,W,10.00,230.40,161015,,*30
$GPRMC,063407,A,4818.8470,N,438.5817,W,10.00,230.40,161015,,*35
$GPRMC,063407,A,4818.8403,N,438.5938,W,10.00,230.40,161015,,*3D
$GPRMC,063407,A,4818.8337,N,438.6059,W,10.00,230.40,161015,,*30
$GPRMC,063407,A,4818.8270,N,438.6181,W,10.00,230.40,161015,,*36
$GPRMC,063407,A,4818.8203,N,438.6302,W,10.00,230.40,161015,,*3B
$GPRMC,063407,A,4818.8136,N,438.6423,W,10.00,230.40,161015,,*3A
$GPRMC,063407,A,4818.8069,N,438.6544,W,10.00,230.40,161015,,*31
$GPRMC,063407,A,4818.8002,N,438.6665,W,10.00,230.40,161015,,*3C
$GPRMC,063407,A,4818.7935,N,438.6787,W,10.00,230.40,161015,,*33
$GPRMC,063407,A,4818.7868,N,438.6908,W,10.00,230.40,161015,,*33
$GPRMC,063407,A,4818.7801,N,438.7029,W,10.00,230.40,161015,,*37
$GPRMC,063407,A,4818.7734,N,438.7150,W,10.00,230.40,161015,,*31
$GPRMC,063407,A,4818.7668,N,438.7271,W,10.00,230.40,161015,,*39
$GPRMC,063407,A,4818.7601,N,438.7393,W,10.00,230.40,161015,,*3B
$GPRMC,063407,A,4818.7534,N,438.7514,W,10.00,230.40,161015,,*37
$GPRMC,063407,A,4818.7467,N,438.7635,W,10.00,230.40,161015,,*30
$GPRMC,063407,A,4818.7400,N,438.7756,W,10.00,230.40,161015,,*35
$GPRMC,063407,A,4818.7333,N,438.7878,W,10.00,230.40,161015,,*31
$GPRMC,063407,A,4818.7266,N,438.7999,W,10.00,230.40,161015,,*3E
$GPRMC,063407,A,4818.7199,N,438.8120,W,10.00,230.40,161015,,*38
$GPRMC,063407,A,4818.7132,N,438.8241,W,10.00,230.40,161015,,*3D
$GPRMC,063407,A,4818.7065,N,438.8362,W,10.00,230.40,161015,,*3E
$GPRMC,063407,A,4818.6999,N,438.8484,W,10.00,230.40,161015,,*3A
$GPRMC,063407,A,4818.6932,N,438.8605,W,10.00,230.40,161015,,*30
$GPRMC,063407,A,4818.6865,N,438.8726,W,10.00,230.40,161015,,*33
$GPRMC,063407,A,4818.6798,N,438.8847,W,10.00,230.40,161015,,*36
$GPRMC,063407,A,4818.6731,N,438.8968,W,10.00,230.40,161015,,*39
$GPRMC,063407,A,4818.6664,N,438.9090,W,10.00,230.40,161015,,*37
$GPRMC,063407,A,4818.6597,N,438.9211,W,10.00,230.40,161015,,*33
$GPRMC,063407,A,4818.6530,N,438.9332,W,10.00,230.40,161015,,*3E
$GPRMC,063407,A,4818.6463,N,438.9453,W,10.00,230.40,161015,,*39
$GPRMC,063407,A,4818.6396,N,438.9574,W,10.00,230.40,161015,,*30
$GPRMC,063407,A,4818.6329,N,438.9695,W,10.00,230.40,161015,,*38
$GPRMC,063407,A,4818.6263,N,438.9817,W,10.00,230.40,161015,,*33
$GPRMC,063407,A,4818.6196,N,438.9938,W,10.00,230.40,161015,,*36
$GPRMC,063407,A,4818.6129,N,439.0059,W,10.00,230.40,161015,,*34
$GPRMC,063407,A,4818.6062,N,439.0180,W,10.00,230.40,161015,,*3F
$GPRMC,063407,A,4818.5995,N,439.0301,W,10.00,230.40,161015,,*36
$GPRMC,063407,A,4818.5928,N,439.0423,W,10.00,230.40,161015,,*37
$GPRMC,063407,A,4818.5861,N,439.0544,W,10.00,230.40,161015,,*3B
$GPRMC,063407,A,4818.5794,N,439.0665,W,10.00,230.40,161015,,*3E
$GPRMC,063407,A,4818.5727,N,439.0786,W,10.00,230.40,161015,,*3A
$GPRMC,063407,A,4818.5660,N,439.0907,W,10.00,230.40,161015,,*3F
$GPRMC,063407,A,4818.5594,N,439.1029,W,10.00,230.40,161015,,*33
