$GPRMC,030809,A,4821.9139,N,428.9307,W,10.00,241.42,261015,,*32
$GPRMC,030809,A,4821.9086,N,428.9453,W,10.00,241.42,261015,,*31
$GPRMC,030809,A,4821.9033,N,428.9599,W,10.00,241.42,261015,,*38
$GPRMC,030809,A,4821.8980,N,428.9745,W,10.00,241.42,261015,,*3B
$GPRMC,030809,A,4821.8927,N,428.9891,W,10.00,241.42,261015,,*30
$GPRMC,030809,A,4821.8874,N,429.0037,W,10.00,241.42,261015,,*3B
$GPRMC,030809,A,4821.8821,N,429.0183,W,10.00,241.42,261015,,*35
$GPRMC,030809,A,4821.8768,N,429.0330,W,10.00,241.42,261015,,*3D
$GPRMC,030809,A,4821.8715,N,429.0476,W,10.00,241.42,261015,,*32
$GPRMC,030809,A,4821.8662,N,429.0622,W,10.00,241.42,261015,,*30
$GPRMC,030809,A,4821.8609,N,429.0768,W,10.00,241.42,261015,,*32
$GPRMC,030809,A,4821.8556,N,429.0914,W,10.00,241.42,261015,,*3E
$GPRMC,030809,A,4821.8502,N,429.1060,W,10.00,241.42,261015,,*34
$GPRMC,030809,A,4821.8449,N,429.1206,W,10.00,241.42,261015,,*38
$GPRMC,030809,A,4821.8396,N,429.1352,W,10.00,241.42,261015,,*3D
$GPRMC,030809,A,4821.8343,N,429.1499,W,10.00,241.42,261015,,*35
$GPRMC,030809,A,4821.8290,N,429.1645,W,10.00,241.42,261015,,*39
$GPRMC,030809,A,4821.8237,N,429.1791,W,10.00,241.42,261015,,*3C
$GPRMC,030809,A,4821.8184,N,429.1937,W,10.00,241.42,261015,,*35
$GPRMC,030809,A,4821.8131,N,429.2083,W,10.00,241.42,261015,,*3E
$GPRMC,030809,A,4821.8078,N,429.2229,W,10.00,241.42,261015,,*30
$GPRMC,030809,A,4821.8025,N,429.2375,W,10.00,241.42,261015,,*30
$GPRMC,030809,A,4821.7972,N,429.2521,W,10.00,241.42,261015,,*33
$GPRMC,030809,A,4821.7919,N,429.2668,W,10.00,241.42,261015,,*30
$GPRMC,030809,A,4821.7866,N,429.2814,W,10.00,241.42,261015,,*3C
$GPRMC,030809,A,4821.7813,N,429.2960,W,10.00,241.42,261015,,*3C
$GPRMC,030809,A,4821.7760,N,429.3106,W,10.00,241.42,261015,,*3E
$GPRMC,030809,A,4821.7707,N,429.3252,W,10.00,241.42,261015,,*3D
$GPRMC,030809,A,4821.7654,N,429.3398,W,10.00,241.42,261015,,*3D
$GPRMC,030809,A,4821.7601,N,429.3544,W,10.00,241.42,261015,,*3A
$GPRMC,030809,A,4821.7548,N,429.3690,W,10.00,241.42,261015,,*3E
$GPRMC,030809,A,4821.7495,N,429.3837,W,10.00,241.42,261015,,*3C
$GPRMC,030809,A,4821.7441,N,429.3983,W,10.00,241.42,261015,,*3B
$GPRMC,030809,A,4821.7388,N,429.4129,W,10.00,241.42,261015,,*36
$GPRMC,030809,A,4821.7335,N,429.4275,W,10.00,241.42,261015,,*3A
$GPRMC,030809,A,4821.7282,N,429.4421,W,10.00,241.42,261015,,*30
$GPRMC,030809,A,4821.7229,N,429.4567,W,10.00,241.42,261015,,*32
$GPRMC,030809,A,4821.7176,N,429.4713,W,10.00,241.42,261015,,*3A
$GPRMC,030809,A,4821.7123,N,429.4859,W,10.00,241.42,261015,,*3B
$GPRMC,030809,A,4821.7070,N,429.5006,W,10.00,241.42,261015,,*3F
$GPRMC,030809,A,4821.7017,N,429.5152,W,10.00,241.42,261015,,*3E
$GPRMC,030809,A,4821.6964,N,429.5298,W,10.00,241.42,261015,,*37
$GPRMC,030809,A,4821.6911,N,429.5444,W,10.00,241.42,261015,,*32
$GPRMC,030809,A,4821.6858,N,429.5590,W,10.00,241.42,261015,,*36
$GPRMC,030809,A,4821.6805,N,429.5736,W,10.00,241.42,261015,,*30
$GPRMC,030809,A,4821.6752,N,429.5882,W,10.00,241.42,261015,,*3D
$GPRMC,030809,A,4821.6699,N,429.6028,W,10.00,241.42,261015,,*30
$GPRMC,030809,A,4821.6646,N,429.6174,W,10.00,241.42,261015,,*3A
$GPRMC,030809,A,4821.6593,N,429.6321,W,10.00,241.42,261015,,*33
$GPRMC,030809,A,4821.6539,N,429.6467,W,10.00,241.42,261015,,*36
$GPRMC,030809,A,4821.6486,N,429.6613,W,10.00,241.42,261015,,*32
$GPRMC,030809,A,4821.6433,N,429.6759,W,10.00,241.42,261015,,*33
$GPRMC,030809,A,4821.6380,N,429.6905,W,10.00,241.42,261015,,*3B
$GPRMC,030809,A,4821.6327,N,429.7051,W,10.00,241.42,261015,,*3F
$GPRMC,030809,A,4821.6274,N,429.7197,W,10.00,241.42,261015,,*33
$GPRMC,030809,A,4821.6221,N,429.7343,W,10.00,241.42,261015,,*38
$GPRMC,030809,A,4821.6168,N,429.7489,W,10.00,241.42,261015,,*37
$GPRMC,030809,A,4821.6115,N,429.7636,W,10.00,241.42,261015,,*3B
$GPRMC,030809,A,4821.6062,N,429.7782,W,10.00,241.42,261015,,*34
$GPRMC,030809,A,4821.6009,N,429.7928,W,10.00,241.42,261015,,*37
$GPRMC,030809,A,4821.5956,N,429.8074,W,10.00,241.42,261015,,*38
$GPRMC,030809,A,4821.5903,N,429.8220,W,10.00,241.42,261015,,*3B
$GPRMC,030809,A,4821.5850,N,429.8366,W,10.00,241.42,261015,,*3F
$GPRMC,030809,A,4821.5797,N,429.8512,W,10.00,241.42,261015,,*3E
$GPRMC,030809,A,4821.5744,N,429.8658,W,10.00,241.42,261015,,*3D
$GPRMC,030809,A,4821.5691,N,429.8804,W,10.00,241.42,261015,,*33
$GPRMC,030809,A,4821.5637,N,429.8951,W,10.00,241.42,261015,,*3E
$GPRMC,030809,A,4821.5584,N,429.9097,W,10.00,241.42,261015,,*37
$GPRMC,030809,A,4821.5531,N,429.9243,W,10.00,241.42,261015,,*32
$GPRMC,030809,A,4821.5478,N,429.9389,W,10.00,241.42,261015,,*39
$GPRMC,030809,A,4821.5425,N,429.9535,W,10.00,241.42,261015,,*30
$GPRMC,030809,A,4821.5372,N,429.9681,W,10.00,241.42,261015,,*39
$GPRMC,030809,A,4821.5319,N,429.9827,W,10.00,241.42,261015,,*36
$GPRMC,030809,A,4821.5266,N,429.9973,W,10.00,241.42,261015,,*3F
$GPRMC,030809,A,4821.5213,N,430.0119,W,10.00,241.42,261015,,*38
$GPRMC,030809,A,4821.5160,N,430.0265,W,10.00,241.42,261015,,*37
$GPRMC,030809,A,4821.5107,N,430.0412,W,10.00,241.42,261015,,*30
$GPRMC,030809,A,4821.5054,N,430.0558,W,10.00,241.42,261015,,*38
$GPRMC,030809,A,4821.5001,N,430.0704,W,10.00,241.42,261015,,*33
$GPRMC,030809,A,4821.4948,N,430.0850,W,10.00,241.42,261015,,*38
$GPRMC,030809,A,4821.4895,N,430.0996,W,10.00,241.42,261015,,*32
$GPRMC,030809,A,4821.4841,N,430.1142,W,10.00,241.42,261015,,*3B
$GPRMC,030809,A,4821.4788,N,430.1288,W,10.00,241.42,261015,,*34
$GPRMC,030809,A,4821.4735,N,430.1434,W,10.00,241.42,261015,,*33
$GPRMC,030809,A,4821.4682,N,430.1580,W,10.00,241.42,261015,,*30
$GPRMC,030809,A,4821.4629,N,430.1726,W,10.00,241.42,261015,,*3F
$GPRMC,030809,A,4821.4576,N,430.1873,W,10.00,241.42,261015,,*39
$GPRMC,030809,A,4821.4523,N,430.2019,W,10.00,241.42,261015,,*3E
$GPRMC,030809,A,4821.4470,N,430.2165,W,10.00,241.42,261015,,*33
$GPRMC,030809,A,4821.4417,N,430.2311,W,10.00,241.42,261015,,*33
$GPRMC,030809,A,4821.4364,N,430.2457,W,10.00,241.42,261015,,*35
$GPRMC,030809,A,4821.4311,N,430.2603,W,10.00,241.42,261015,,*34
$GPRMC,030809,A,4821.4258,N,430.2749,W,10.00,241.42,261015,,*37
$GPRMC,030809,A,4821.4205,N,430.2895,W,10.00,241.42,261015,,*31
$GPRMC,030809,A,4821.4152,N,430.3041,W,10.00,241.42,261015,,*30
$GPRMC,030809,A,4821.4098,N,430.3187,W,10.00,241.42,261015,,*3C
$GPRMC,030809,A,4821.4045,N,430.3333,W,10.00,241.42,261015,,*31
$GPRMC,030809,A,4821.3992,N,430.3480,W,10.00,241.42,261015,,*3A
$GPRMC,030809,A,4821.3939,N,430.3626,W,10.00,241.42,261015,,*35
$GPRMC,030809,A,4821.3886,N,430.3772,W,10.00,241.42,261015,,*30
$GPRMC,030809,A,4821.3833,N,430.3918,W,10.00,241.42,261015,,*3C
$GPRMC,030809,A,4821.3780,N,430.4064,W,10.00,241.42,261015,,*3E
$GPRMC,030809,A,4821.3727,N,430.4210,W,10.00,241.42,261015,,*32
$GPRMC,030809,A,4821.3674,N,430.4356,W,10.00,241.42,261015,,*36
$GPRMC,030809,A,4821.3621,N,430.4502,W,10.00,241.42,261015,,*31
$GPRMC,030809,A,4821.3568,N,430.4648,W,10.00,241.42,261015,,*32
$GPRMC,030809,A,4821.3515,N,430.4794,W,10.00,241.42,261015,,*38
$GPRMC,030809,A,4821.3462,N,430.4940,W,10.00,241.42,261015,,*3E
$GPRMC,030809,A,4821.3408,N,430.5086,W,10.00,241.42,261015,,*30
$GPRMC,030809,A,4821.3355,N,430.5233,W,10.00,241.42,261015,,*33
$GPRMC,030809,A,4821.3302,N,430.5379,W,10.00,241.42,261015,,*3E
$GPRMC,030809,A,4821.3249,N,430.5525,W,10.00,241.42,261015,,*3F
$GPRMC,030809,A,4821.3196,N,430.5671,W,10.00,241.42,261015,,*3C
$GPRMC,030809,A,4821.3143,N,430.5817,W,10.00,241.42,261015,,*3A
$GPRMC,030809,A,4821.3090,N,430.5963,W,10.00,241.42,261015,,*37
$GPRMC,030809,A,4821.3037,N,430.6109,W,10.00,241.42,261015,,*3D
$GPRMC,030809,A,4821.2984,N,430.6255,W,10.00,241.42,261015,,*37
$GPRMC,030809,A,4821.2931,N,430.6401,W,10.00,241.42,261015,,*3E
$GPRMC,030809,A,4821.2878,N,430.6547,W,10.00,241.42,261015,,*31
$GPRMC,030809,A,4821.2857,N,430.6604,W,10.00,256.24,261015,,*3E
$GPRMC,030809,A,4821.2838,N,430.6720,W,10.00,256.24,261015,,*30
$GPRMC,030809,A,4821.2819,N,430.6835,W,10.00,256.24,261015,,*38
$GPRMC,030809,A,4821.2800,N,430.6951,W,10.00,256.24,261015,,*33
$GPRMC,030809,A,4821.2782,N,430.7067,W,10.00,256.24,261015,,*3B
$GPRMC,030809,A,4821.2763,N,430.7182,W,10.00,256.24,261015,,*3E
$GPRMC,030809,A,4821.2744,N,430.7298,W,10.00,256.24,261015,,*33
$GPRMC,030809,A,4821.2725,N,430.7414,W,10.00,256.24,261015,,*36
$GPRMC,030809,A,4821.2706,N,430.7529,W,10.00,256.24,261015,,*38
$GPRMC,030809,A,4821.2687,N,430.7645,W,10.00,256.24,261015,,*39
$GPRMC,030809,A,4821.2668,N,430.7761,W,10.00,256.24,261015,,*3F
$GPRMC,030809,A,4821.2649,N,430.7877,W,10.00,256.24,261015,,*34
$GPRMC,030809,A,4821.2631,N,430.7992,W,10.00,256.24,261015,,*31
$GPRMC,030809,A,4821.2612,N,430.8108,W,10.00,256.24,261015,,*34
$GPRMC,030809,A,4821.2593,N,430.8224,W,10.00,256.24,261015,,*33
$GPRMC,030809,A,4821.2574,N,430.8339,W,10.00,256.24,261015,,*37
$GPRMC,030809,A,4821.2555,N,430.8455,W,10.00,256.24,261015,,*39
$GPRMC,030809,A,4821.2536,N,430.8571,W,10.00,256.24,261015,,*3B
$GPRMC,030809,A,4821.2517,N,430.8686,W,10.00,256.24,261015,,*33
$GPRMC,030809,A,4821.2498,N,430.8802,W,10.00,256.24,261015,,*37
$GPRMC,030809,A,4821.2479,N,430.8918,W,10.00,256.24,261015,,*32
$GPRMC,030809,A,4821.2461,N,430.9033,W,10.00,256.24,261015,,*3A
$GPRMC,030809,A,4821.2442,N,430.9149,W,10.00,256.24,261015,,*37
$GPRMC,030809,A,4821.2423,N,430.9265,W,10.00,256.24,261015,,*3D
$GPRMC,030809,A,4821.2404,N,430.9381,W,10.00,256.24,261015,,*33
$GPRMC,030809,A,4821.2385,N,430.9496,W,10.00,256.24,261015,,*3C
$GPRMC,030809,A,4821.2366,N,430.9612,W,10.00,256.24,261015,,*3F
$GPRMC,030809,A,4821.2347,N,430.9728,W,10.00,256.24,261015,,*34
$GPRMC,030809,A,4821.2328,N,430.9843,W,10.00,256.24,261015,,*3F
$GPRMC,030809,A,4821.2309,N,430.9959,W,10.00,256.24,261015,,*36
$GPRMC,030809,A,4821.2291,N,431.0075,W,10.00,256.24,261015,,*39
$GPRMC,030809,A,4821.2272,N,431.0190,W,10.00,256.24,261015,,*3E
$GPRMC,030809,A,4821.2253,N,431.0306,W,10.00,256.24,261015,,*30
$GPRMC,030809,A,4821.2234,N,431.0422,W,10.00,256.24,261015,,*30
$GPRMC,030809,A,4821.2215,N,431.0538,W,10.00,256.24,261015,,*39
$GPRMC,030809,A,4821.2196,N,431.0653,W,10.00,256.24,261015,,*3F
$GPRMC,030809,A,4821.2177,N,431.0769,W,10.00,256.24,261015,,*38
$GPRMC,030809,A,4821.2158,N,431.0885,W,10.00,256.24,261015,,*38
$GPRMC,030809,A,4821.2139,N,431.1000,W,10.00,256.24,261015,,*3B
$GPRMC,030809,A,4821.2121,N,431.1116,W,10.00,256.24,261015,,*34
$GPRMC,030809,A,4821.2102,N,431.1232,W,10.00,256.24,261015,,*30
$GPRMC,030809,A,4821.2083,N,431.1347,W,10.00,256.24,261015,,*3B
$GPRMC,030809,A,4821.2064,N,431.1463,W,10.00,256.24,261015,,*33
$GPRMC,030809,A,4821.2045,N,431.1579,W,10.00,256.24,261015,,*3A
$GPRMC,030809,A,4821.2026,N,431.1694,W,10.00,256.24,261015,,*3F
$GPRMC,030809,A,4821.2007,N,431.1810,W,10.00,256.24,261015,,*3E
$GPRMC,030809,A,4821.1988,N,431.1926,W,10.00,256.24,261015,,*37
$GPRMC,030809,A,4821.1969,N,431.2042,W,10.00,256.24,261015,,*30
$GPRMC,030809,A,4821.1951,N,431.2157,W,10.00,256.24,261015,,*3E
$GPRMC,030809,A,4821.1932,N,431.2273,W,10.00,256.24,261015,,*3E
$GPRMC,030809,A,4821.1913,N,431.2389,W,10.00,256.24,261015,,*39
$GPRMC,030809,A,4821.1894,N,431.2504,W,10.00,256.24,261015,,*34
$GPRMC,030809,A,4821.1875,N,431.2620,W,10.00,256.24,261015,,*3E
$GPRMC,030809,A,4821.1856,N,431.2736,W,10.00,256.24,261015,,*39
$GPRMC,030809,A,4821.1837,N,431.2851,W,10.00,256.24,261015,,*30
$GPRMC,030809,A,4821.1818,N,431.2967,W,10.00,256.24,261015,,*39
$GPRMC,030809,A,4821.1799,N,431.3083,W,10.00,256.24,261015,,*3D
$GPRMC,030809,A,4821.1780,N,431.3199,W,10.00,256.24,261015,,*3F
$GPRMC,030809,A,4821.1762,N,431.3314,W,10.00,256.24,261015,,*34
$GPRMC,030809,A,4821.1743,N,431.3430,W,10.00,256.24,261015,,*36
$GPRMC,030809,A,4821.1724,N,431.3546,W,10.00,256.24,261015,,*37
$GPRMC,030809,A,4821.1705,N,431.3661,W,10.00,256.24,261015,,*32
$GPRMC,030809,A,4821.1686,N,431.3777,W,10.00,256.24,261015,,*3E
$GPRMC,030809,A,4821.1667,N,431.3893,W,10.00,256.24,261015,,*34
$GPRMC,030809,A,4821.1648,N,431.4008,W,10.00,256.24,261015,,*34
$GPRMC,030809,A,4821.1629,N,431.4124,W,10.00,256.24,261015,,*3C
$GPRMC,030809,A,4821.1610,N,431.4240,W,10.00,256.24,261015,,*37
$GPRMC,030809,A,4821.1592,N,431.4355,W,10.00,256.24,261015,,*3B
$GPRMC,030809,A,4821.1573,N,431.4471,W,10.00,256.24,261015,,*35
$GPRMC,030809,A,4821.1554,N,431.4587,W,10.00,256.24,261015,,*38
$GPRMC,030809,A,4821.1535,N,431.4702,W,10.00,256.24,261015,,*30
$GPRMC,030809,A,4821.1516,N,431.4818,W,10.00,256.24,261015,,*35
$GPRMC,030809,A,4821.1497,N,431.4934,W,10.00,256.24,261015,,*32
$GPRMC,030809,A,4821.1478,N,431.5050,W,10.00,256.24,261015,,*39
$GPRMC,030809,A,4821.1459,N,431.5165,W,10.00,256.24,261015,,*3D
$GPRMC,030809,A,4821.1440,N,431.5281,W,10.00,256.24,261015,,*3C
$GPRMC,030809,A,4821.1421,N,431.5397,W,10.00,256.24,261015,,*3D
$GPRMC,030809,A,4821.1403,N,431.5512,W,10.00,256.24,261015,,*36
$GPRMC,030809,A,4821.1384,N,431.5628,W,10.00,256.24,261015,,*34
$GPRMC,030809,A,4821.1365,N,431.5744,W,10.00,256.24,261015,,*30
$GPRMC,030809,A,4821.1346,N,431.5859,W,10.00,256.24,261015,,*32
$GPRMC,030809,A,4821.1327,N,431.5975,W,10.00,256.24,261015,,*3A
$GPRMC,030809,A,4821.1308,N,431.6091,W,10.00,256.24,261015,,*37
$GPRMC,030809,A,4821.1289,N,431.6206,W,10.00,256.24,261015,,*33
$GPRMC,030809,A,4821.1270,N,431.6322,W,10.00,256.24,261015,,*32
$GPRMC,030809,A,4821.1251,N,431.6438,W,10.00,256.24,261015,,*3D
$GPRMC,030809,A,4821.1232,N,431.6554,W,10.00,256.24,261015,,*33
$GPRMC,030809,A,4821.1214,N,431.6669,W,10.00,256.24,261015,,*3A
$GPRMC,030809,A,4821.1195,N,431.6785,W,10.00,256.24,261015,,*33
$GPRMC,030809,A,4821.1176,N,431.6901,W,10.00,256.24,261015,,*3C
$GPRMC,030809,A,4821.1157,N,431.7016,W,10.00,256.24,261015,,*31
$GPRMC,030809,A,4821.1138,N,431.7132,W,10.00,256.24,261015,,*3F
$GPRMC,030809,A,4821.1119,N,431.7248,W,10.00,256.24,261015,,*32
$GPRMC,030809,A,4821.1100,N,431.7363,W,10.00,256.24,261015,,*32
$GPRMC,030809,A,4821.1081,N,431.7479,W,10.00,256.24,261015,,*36
$GPRMC,030809,A,4821.1062,N,431.7595,W,10.00,256.24,261015,,*38
$GPRMC,030809,A,4821.1043,N,431.7710,W,10.00,256.24,261015,,*34
$GPRMC,030809,A,4821.1025,N,431.7826,W,10.00,256.24,261015,,*3E
$GPRMC,030809,A,4821.1006,N,431.7942,W,10.00,256.24,261015,,*3C
$GPRMC,030809,A,4821.0987,N,431.8057,W,10.00,256.24,261015,,*3F
$GPRMC,030809,A,4821.0968,N,431.8173,W,10.00,256.24,261015,,*39
$GPRMC,030809,A,4821.0949,N,431.8289,W,10.00,256.24,261015,,*3C
$GPRMC,030809,A,4821.0930,N,431.8404,W,10.00,256.24,261015,,*31
$GPRMC,030809,A,4821.0911,N,431.8520,W,10.00,256.24,261015,,*35
$GPRMC,030809,A,4821.0892,N,431.8636,W,10.00,256.24,261015,,*3B
$GPRMC,030809,A,4821.0873,N,431.8752,W,10.00,256.24,261015,,*37
$GPRMC,030809,A,4821.0854,N,431.8867,W,10.00,256.24,261015,,*3B
$GPRMC,030809,A,4821.0835,N,431.8983,W,10.00,256.24,261015,,*37
$GPRMC,030809,A,4821.0817,N,431.9099,W,10.00,256.24,261015,,*34
$GPRMC,030809,A,4821.0798,N,431.9214,W,10.00,256.24,261015,,*3B
$GPRMC,030809,A,4821.0779,N,431.9330,W,10.00,256.24,261015,,*33
$GPRMC,030809,A,4821.0760,N,431.9446,W,10.00,256.24,261015,,*3D
$GPRMC,030809,A,4821.0741,N,431.9561,W,10.00,256.24,261015,,*3A
$GPRMC,030809,A,4821.0722,N,431.9677,W,10.00,256.24,261015,,*3B
$GPRMC,030809,A,4821.0703,N,431.9793,W,10.00,256.24,261015,,*33
$GPRMC,030809,A,4821.0684,N,431.9908,W,10.00,256.24,261015,,*31
$GPRMC,030809,A,4821.0665,N,432.0024,W,10.00,256.24,261015,,*33
$GPRMC,030809,A,4821.0646,N,432.0140,W,10.00,256.24,261015,,*31
$GPRMC,030809,A,4821.0628,N,432.0255,W,10.00,256.24,261015,,*3E
$GPRMC,030809,A,4821.0609,N,432.0371,W,10.00,256.24,261015,,*3A
$GPRMC,030809,A,4821.0590,N,432.0487,W,10.00,256.24,261015,,*37
$GPRMC,030809,A,4821.0571,N,432.0602,W,10.00,256.24,261015,,*37
$GPRMC,030809,A,4821.0552,N,432.0718,W,10.00,256.24,261015,,*3C
$GPRMC,030809,A,4821.0533,N,432.0834,W,10.00,256.24,261015,,*3A
$GPRMC,030809,A,4821.0514,N,432.0950,W,10.00,256.24,261015,,*3C
$GPRMC,030809,A,4821.0495,N,432.1065,W,10.00,256.24,261015,,*3A
$GPRMC,030809,A,4821.0476,N,432.1181,W,10.00,256.24,261015,,*3C
$GPRMC,030809,A,4821.0457,N,432.1297,W,10.00,256.24,261015,,*3B
$GPRMC,030809,A,4821.0438,N,432.1412,W,10.00,256.24,261015,,*39
$GPRMC,030809,A,4821.0420,N,432.1528,W,10.00,256.24,261015,,*38
$GPRMC,030809,A,4821.0401,N,432.1644,W,10.00,256.24,261015,,*32
$GPRMC,030809,A,4821.0382,N,432.1759,W,10.00,256.24,261015,,*33
$GPRMC,030809,A,4821.0363,N,432.1875,W,10.00,256.24,261015,,*3D
$GPRMC,030809,A,4821.0344,N,432.1991,W,10.00,256.24,261015,,*33
$GPRMC,030809,A,4821.0325,N,432.2106,W,10.00,256.24,261015,,*31
$GPRMC,030809,A,4821.0306,N,432.2222,W,10.00,256.24,261015,,*35
$GPRMC,030809,A,4821.0287,N,432.2338,W,10.00,256.24,261015,,*37
$GPRMC,030809,A,4821.0268,N,432.2453,W,10.00,256.24,261015,,*3C
$GPRMC,030809,A,4821.0249,N,432.2569,W,10.00,256.24,261015,,*37
$GPRMC,030809,A,4821.0230,N,432.2685,W,10.00,256.24,261015,,*38
$GPRMC,030809,A,4821.0212,N,432.2800,W,10.00,256.24,261015,,*3B
$GPRMC,030809,A,4821.0193,N,432.2916,W,10.00,256.24,261015,,*37
$GPRMC,030809,A,4821.0174,N,432.3032,W,10.00,256.24,261015,,*30
$GPRMC,030809,A,4821.0155,N,432.3147,W,10.00,256.24,261015,,*30
$GPRMC,030809,A,4821.0136,N,432.3263,W,10.00,256.24,261015,,*30
$GPRMC,030809,A,4821.0117,N,432.3379,W,10.00,256.24,261015,,*39
$GPRMC,030809,A,4821.0098,N,432.3495,W,10.00,256.24,261015,,*3A
$GPRMC,030809,A,4821.0079,N,432.3610,W,10.00,256.24,261015,,*3A
$GPRMC,030809,A,4821.0060,N,432.3726,W,10.00,256.24,261015,,*36
$GPRMC,030809,A,4821.0041,N,432.3842,W,10.00,256.24,261015,,*38
$GPRMC,030809,A,4821.0022,N,432.3957,W,10.00,256.24,261015,,*38
$GPRMC,030809,A,4821.0004,N,432.4073,W,10.00,256.24,261015,,*34
$GPRMC,030809,A,4820.9985,N,432.4189,W,10.00,256.24,261015,,*38
$GPRMC,030809,A,4820.9966,N,432.4304,W,10.00,256.24,261015,,*32
$GPRMC,030809,A,4820.9947,N,432.4420,W,10.00,256.24,261015,,*30
$GPRMC,030809,A,4820.9928,N,432.4536,W,10.00,256.24,261015,,*3F
$GPRMC,030809,A,4820.9909,N,432.4651,W,10.00,256.24,261015,,*3E
$GPRMC,030809,A,4820.9890,N,432.4767,W,10.00,256.24,261015,,*3B
$GPRMC,030809,A,4820.9871,N,432.4883,W,10.00,256.24,261015,,*31
$GPRMC,030809,A,4820.9852,N,432.4998,W,10.00,256.24,261015,,*3B
$GPRMC,030809,A,4820.9833,N,432.5114,W,10.00,256.24,261015,,*31
$GPRMC,030809,A,4820.9814,N,432.5230,W,10.00,256.24,261015,,*31
$GPRMC,030809,A,4820.9795,N,432.5345,W,10.00,256.24,261015,,*34
$GPRMC,030809,A,4820.9777,N,432.5461,W,10.00,256.24,261015,,*39
$GPRMC,030809,A,4820.9758,N,432.5577,W,10.00,256.24,261015,,*32
$GPRMC,030809,A,4820.9739,N,432.5692,W,10.00,256.24,261015,,*3D
$GPRMC,030809,A,4820.9720,N,432.5808,W,10.00,256.24,261015,,*38
$GPRMC,030809,A,4820.9701,N,432.5924,W,10.00,256.24,261015,,*34
$GPRMC,030809,A,4820.9682,N,432.6039,W,10.00,256.24,261015,,*38
$GPRMC,030809,A,4820.9663,N,432.6155,W,10.00,256.24,261015,,*3C
$GPRMC,030809,A,4820.9644,N,432.6271,W,10.00,256.24,261015,,*3C
$GPRMC,030809,A,4820.9625,N,432.6386,W,10.00,256.24,261015,,*32
$GPRMC,030809,A,4820.9606,N,432.6502,W,10.00,256.24,261015,,*39
$GPRMC,030809,A,4820.9587,N,432.6618,W,10.00,256.24,261015,,*3B
$GPRMC,030809,A,4820.9568,N,432.6733,W,10.00,256.24,261015,,*32
$GPRMC,030809,A,4820.9550,N,432.6849,W,10.00,256.24,261015,,*3B
$GPRMC,030809,A,4820.9531,N,432.6965,W,10.00,256.24,261015,,*33
$GPRMC,030809,A,4820.9512,N,432.7081,W,10.00,256.24,261015,,*30
$GPRMC,030809,A,4820.9493,N,432.7196,W,10.00,256.24,261015,,*3F
$GPRMC,030809,A,4820.9474,N,432.7312,W,10.00,256.24,261015,,*38
$GPRMC,030809,A,4820.9455,N,432.7428,W,10.00,256.24,261015,,*35
$GPRMC,030809,A,4820.9436,N,432.7543,W,10.00,256.24,261015,,*3C
$GPRMC,030809,A,4820.9417,N,432.7659,W,10.00,256.24,261015,,*37
$GPRMC,030809,A,4820.9398,N,432.7775,W,10.00,256.24,261015,,*38
$GPRMC,030809,A,4820.9379,N,432.7890,W,10.00,256.24,261015,,*33
$GPRMC,030809,A,4820.9360,N,432.8006,W,10.00,256.24,261015,,*33
$GPRMC,030809,A,4820.9341,N,432.8122,W,10.00,256.24,261015,,*37
$GPRMC,030809,A,4820.9323,N,432.8237,W,10.00,256.24,261015,,*34
$GPRMC,030809,A,4820.9304,N,432.8353,W,10.00,256.24,261015,,*32
$GPRMC,030809,A,4820.9285,N,432.8469,W,10.00,256.24,261015,,*34
$GPRMC,030809,A,4820.9266,N,432.8584,W,10.00,256.24,261015,,*3B
$GPRMC,030809,A,4820.9247,N,432.8700,W,10.00,256.24,261015,,*36
$GPRMC,030809,A,4820.9228,N,432.8816,W,10.00,256.24,261015,,*37
$GPRMC,030809,A,4820.9209,N,432.8931,W,10.00,256.24,261015,,*30
$GPRMC,030809,A,4820.9190,N,432.9047,W,10.00,256.24,261015,,*3A
$GPRMC,030809,A,4820.9171,N,432.9163,W,10.00,256.24,261015,,*32
$GPRMC,030809,A,4820.9152,N,432.9278,W,10.00,256.24,261015,,*3A
$GPRMC,030809,A,4820.9133,N,432.9394,W,10.00,256.24,261015,,*3E
$GPRMC,030809,A,4820.9114,N,432.9510,W,10.00,256.24,261015,,*31
$GPRMC,030809,A,4820.9095,N,432.9625,W,10.00,256.24,261015,,*3C
$GPRMC,030809,A,4820.9077,N,432.9741,W,10.00,256.24,261015,,*33
$GPRMC,030809,A,4820.9058,N,432.9857,W,10.00,256.24,261015,,*36
$GPRMC,030809,A,4820.9039,N,432.9972,W,10.00,256.24,261015,,*37
$GPRMC,030809,A,4820.9020,N,433.0088,W,10.00,256.24,261015,,*3B
$GPRMC,030809,A,4820.9001,N,433.0204,W,10.00,256.24,261015,,*3E
$GPRMC,030809,A,4820.8982,N,433.0319,W,10.00,256.24,261015,,*30
$GPRMC,030809,A,4820.8963,N,433.0435,W,10.00,256.24,261015,,*36
$GPRMC,030809,A,4820.8944,N,433.0551,W,10.00,256.24,261015,,*30
$GPRMC,030809,A,4820.8925,N,433.0666,W,10.00,256.24,261015,,*30
$GPRMC,030809,A,4820.8906,N,433.0782,W,10.00,256.24,261015,,*3A
$GPRMC,030809,A,4820.8887,N,433.0898,W,10.00,256.24,261015,,*36
$GPRMC,030809,A,4820.8868,N,433.1013,W,10.00,256.24,261015,,*3D
$GPRMC,030809,A,4820.8849,N,433.1129,W,10.00,256.24,261015,,*36
$GPRMC,030809,A,4820.8831,N,433.1245,W,10.00,256.24,261015,,*30
$GPRMC,030809,A,4820.8812,N,433.1360,W,10.00,256.24,261015,,*37
$GPRMC,030809,A,4820.8793,N,433.1476,W,10.00,256.24,261015,,*31
$GPRMC,030809,A,4820.8774,N,433.1592,W,10.00,256.24,261015,,*33
$GPRMC,030809,A,4820.8755,N,433.1707,W,10.00,256.24,261015,,*3E
$GPRMC,030809,A,4820.8736,N,433.1823,W,10.00,256.24,261015,,*32
$GPRMC,030809,A,4820.8717,N,433.1939,W,10.00,256.24,261015,,*3B
$GPRMC,030809,A,4820.8698,N,433.2054,W,10.00,256.24,261015,,*3C
$GPRMC,030809,A,4820.8679,N,433.2170,W,10.00,256.24,261015,,*34
$GPRMC,030809,A,4820.8660,N,433.2286,W,10.00,256.24,261015,,*36
$GPRMC,030809,A,4820.8641,N,433.2401,W,10.00,256.24,261015,,*3C
$GPRMC,030809,A,4820.8622,N,433.2517,W,10.00,256.24,261015,,*3F
$GPRMC,030809,A,4820.8603,N,433.2633,W,10.00,256.24,261015,,*39
$GPRMC,030809,A,4820.8584,N,433.2748,W,10.00,256.24,261015,,*38
$GPRMC,030809,A,4820.8566,N,433.2864,W,10.00,256.24,261015,,*35
$GPRMC,030809,A,4820.8547,N,433.2980,W,10.00,256.24,261015,,*3D
$GPRMC,030809,A,4820.8528,N,433.3095,W,10.00,256.24,261015,,*38
$GPRMC,030809,A,4820.8509,N,433.3211,W,10.00,256.24,261015,,*35
$GPRMC,030809,A,4820.8491,N,433.3322,W,10.00,247.96,261015,,*3D
$GPRMC,030809,A,4820.8451,N,433.3469,W,10.00,247.96,261015,,*39
$GPRMC,030809,A,4820.8411,N,433.3617,W,10.00,247.96,261015,,*36
$GPRMC,030809,A,4820.8371,N,433.3764,W,10.00,247.96,261015,,*32
$GPRMC,030809,A,4820.8331,N,433.3912,W,10.00,247.96,261015,,*39
$GPRMC,030809,A,4820.8292,N,433.4060,W,10.00,247.96,261015,,*3A
$GPRMC,030809,A,4820.8252,N,433.4207,W,10.00,247.96,261015,,*35
$GPRMC,030809,A,4820.8212,N,433.4355,W,10.00,247.96,261015,,*37
$GPRMC,030809,A,4820.8172,N,433.4502,W,10.00,247.96,261015,,*36
$GPRMC,030809,A,4820.8132,N,433.4650,W,10.00,247.96,261015,,*36
$GPRMC,030809,A,4820.8092,N,433.4797,W,10.00,247.96,261015,,*37
$GPRMC,030809,A,4820.8053,N,433.4945,W,10.00,247.96,261015,,*3B
$GPRMC,030809,A,4820.8013,N,433.5092,W,10.00,247.96,261015,,*3D
$GPRMC,030809,A,4820.7973,N,433.5240,W,10.00,247.96,261015,,*30
$GPRMC,030809,A,4820.7933,N,433.5387,W,10.00,247.96,261015,,*3E
$GPRMC,030809,A,4820.7893,N,433.5535,W,10.00,247.96,261015,,*3A
$GPRMC,030809,A,4820.7853,N,433.5682,W,10.00,247.96,261015,,*39
$GPRMC,030809,A,4820.7814,N,433.5830,W,10.00,247.96,261015,,*3D
$GPRMC,030809,A,4820.7774,N,433.5978,W,10.00,247.96,261015,,*39
$GPRMC,030809,A,4820.7734,N,433.6125,W,10.00,247.96,261015,,*3E
$GPRMC,030809,A,4820.7694,N,433.6273,W,10.00,247.96,261015,,*35
$GPRMC,030809,A,4820.7654,N,433.6420,W,10.00,247.96,261015,,*39
$GPRMC,030809,A,4820.7615,N,433.6568,W,10.00,247.96,261015,,*31
$GPRMC,030809,A,4820.7575,N,433.6715,W,10.00,247.96,261015,,*3C
$GPRMC,030809,A,4820.7535,N,433.6863,W,10.00,247.96,261015,,*36
$GPRMC,030809,A,4820.7495,N,433.7010,W,10.00,247.96,261015,,*30
$GPRMC,030809,A,4820.7455,N,433.7158,W,10.00,247.96,261015,,*31
$GPRMC,030809,A,4820.7415,N,433.7305,W,10.00,247.96,261015,,*3F
$GPRMC,030809,A,4820.7376,N,433.7453,W,10.00,247.96,261015,,*39
$GPRMC,030809,A,4820.7336,N,433.7600,W,10.00,247.96,261015,,*39
$GPRMC,030809,A,4820.7296,N,433.7748,W,10.00,247.96,261015,,*3F
$GPRMC,030809,A,4820.7256,N,433.7895,W,10.00,247.96,261015,,*3C
$GPRMC,030809,A,4820.7216,N,433.8043,W,10.00,247.96,261015,,*34
$GPRMC,030809,A,4820.7176,N,433.8191,W,10.00,247.96,261015,,*3F
$GPRMC,030809,A,4820.7137,N,433.8338,W,10.00,247.96,261015,,*3B
$GPRMC,030809,A,4820.7097,N,433.8486,W,10.00,247.96,261015,,*32
$GPRMC,030809,A,4820.7057,N,433.8633,W,10.00,247.96,261015,,*32
$GPRMC,030809,A,4820.7017,N,433.8781,W,10.00,247.96,261015,,*3E
$GPRMC,030809,A,4820.6977,N,433.8928,W,10.00,247.96,261015,,*3D
$GPRMC,030809,A,4820.6937,N,433.9076,W,10.00,247.96,261015,,*3A
$GPRMC,030809,A,4820.6898,N,433.9223,W,10.00,247.96,261015,,*3C
$GPRMC,030809,A,4820.6858,N,433.9371,W,10.00,247.96,261015,,*36
$GPRMC,030809,A,4820.6818,N,433.9518,W,10.00,247.96,261015,,*3B
$GPRMC,030809,A,4820.6778,N,433.9666,W,10.00,247.96,261015,,*38
$GPRMC,030809,A,4820.6738,N,433.9813,W,10.00,247.96,261015,,*30
$GPRMC,030809,A,4820.6698,N,433.9961,W,10.00,247.96,261015,,*3F
$GPRMC,030809,A,4820.6659,N,434.0108,W,10.00,247.96,261015,,*3B
$GPRMC,030809,A,4820.6619,N,434.0256,W,10.00,247.96,261015,,*37
$GPRMC,030809,A,4820.6579,N,434.0403,W,10.00,247.96,261015,,*34
$GPRMC,030809,A,4820.6539,N,434.0551,W,10.00,247.96,261015,,*36
$GPRMC,030809,A,4820.6499,N,434.0698,W,10.00,247.96,261015,,*3B
$GPRMC,030809,A,4820.6459,N,434.0846,W,10.00,247.96,261015,,*3A
$GPRMC,030809,A,4820.6420,N,434.0993,W,10.00,247.96,261015,,*3D
$GPRMC,030809,A,4820.6380,N,434.1141,W,10.00,247.96,261015,,*36
$GPRMC,030809,A,4820.6340,N,434.1289,W,10.00,247.96,261015,,*3D
$GPRMC,030809,A,4820.6300,N,434.1436,W,10.00,247.96,261015,,*3B
$GPRMC,030809,A,4820.6260,N,434.1584,W,10.00,247.96,261015,,*34
$GPRMC,030809,A,4820.6220,N,434.1731,W,10.00,247.96,261015,,*3C
$GPRMC,030809,A,4820.6181,N,434.1879,W,10.00,247.96,261015,,*37
$GPRMC,030809,A,4820.6141,N,434.2026,W,10.00,247.96,261015,,*3A
$GPRMC,030809,A,4820.6101,N,434.2174,W,10.00,247.96,261015,,*38
$GPRMC,030809,A,4820.6061,N,434.2321,W,10.00,247.96,261015,,*3D
$GPRMC,030809,A,4820.6021,N,434.2469,W,10.00,247.96,261015,,*32
$GPRMC,030809,A,4820.5981,N,434.2616,W,10.00,247.96,261015,,*38
$GPRMC,030809,A,4820.5942,N,434.2764,W,10.00,247.96,261015,,*33
$GPRMC,030809,A,4820.5902,N,434.2911,W,10.00,247.96,261015,,*3B
$GPRMC,030809,A,4820.5862,N,434.3059,W,10.00,247.96,261015,,*38
$GPRMC,030809,A,4820.5822,N,434.3206,W,10.00,247.96,261015,,*34
$GPRMC,030809,A,4820.5782,N,434.3354,W,10.00,247.96,261015,,*37
$GPRMC,030809,A,4820.5742,N,434.3501,W,10.00,247.96,261015,,*3D
$GPRMC,030809,A,4820.5702,N,434.3649,W,10.00,247.96,261015,,*36
$GPRMC,030809,A,4820.5663,N,434.3796,W,10.00,247.96,261015,,*33
$GPRMC,030809,A,4820.5623,N,434.3944,W,10.00,247.96,261015,,*36
$GPRMC,030809,A,4820.5583,N,434.4091,W,10.00,247.96,261015,,*39
$GPRMC,030809,A,4820.5543,N,434.4239,W,10.00,247.96,261015,,*35
$GPRMC,030809,A,4820.5503,N,434.4386,W,10.00,247.96,261015,,*34
$GPRMC,030809,A,4820.5463,N,434.4534,W,10.00,247.96,261015,,*3C
$GPRMC,030809,A,4820.5424,N,434.4681,W,10.00,247.96,261015,,*32
$GPRMC,030809,A,4820.5384,N,434.4829,W,10.00,247.96,261015,,*33
$GPRMC,030809,A,4820.5344,N,434.4976,W,10.00,247.96,261015,,*34
$GPRMC,030809,A,4820.5304,N,434.5124,W,10.00,247.96,261015,,*3E
$GPRMC,030809,A,4820.5264,N,434.5271,W,10.00,247.96,261015,,*3A
$GPRMC,030809,A,4820.5224,N,434.5419,W,10.00,247.96,261015,,*36
$GPRMC,030809,A,4820.5185,N,434.5566,W,10.00,247.96,261015,,*37
$GPRMC,030809,A,4820.5145,N,434.5714,W,10.00,247.96,261015,,*3C
$GPRMC,030809,A,4820.5105,N,434.5861,W,10.00,247.96,261015,,*35
$GPRMC,030809,A,4820.5065,N,434.6009,W,10.00,247.96,261015,,*37
$GPRMC,030809,A,4820.5025,N,434.6156,W,10.00,247.96,261015,,*38
$GPRMC,030809,A,4820.4985,N,434.6304,W,10.00,247.96,261015,,*3F
$GPRMC,030809,A,4820.4945,N,434.6452,W,10.00,247.96,261015,,*37
$GPRMC,030809,A,4820.4906,N,434.6599,W,10.00,247.96,261015,,*36
$GPRMC,030809,A,4820.4866,N,434.6747,W,10.00,247.96,261015,,*30
$GPRMC,030809,A,4820.4826,N,434.6894,W,10.00,247.96,261015,,*35
$GPRMC,030809,A,4820.4786,N,434.7042,W,10.00,247.96,261015,,*32
$GPRMC,030809,A,4820.4746,N,434.7189,W,10.00,247.96,261015,,*38
$GPRMC,030809,A,4820.4706,N,434.7337,W,10.00,247.96,261015,,*3B
$GPRMC,030809,A,4820.4666,N,434.7484,W,10.00,247.96,261015,,*33
$GPRMC,030809,A,4820.4627,N,434.7632,W,10.00,247.96,261015,,*39
$GPRMC,030809,A,4820.4587,N,434.7779,W,10.00,247.96,261015,,*3E
$GPRMC,030809,A,4820.4547,N,434.7927,W,10.00,247.96,261015,,*37
$GPRMC,030809,A,4820.4507,N,434.8074,W,10.00,247.96,261015,,*33
$GPRMC,030809,A,4820.4467,N,434.8222,W,10.00,247.96,261015,,*35
$GPRMC,030809,A,4820.4427,N,434.8369,W,10.00,247.96,261015,,*3F
$GPRMC,030809,A,4820.4388,N,434.8517,W,10.00,247.96,261015,,*32
$GPRMC,030809,A,4820.4348,N,434.8664,W,10.00,247.96,261015,,*39
$GPRMC,030809,A,4820.4308,N,434.8812,W,10.00,247.96,261015,,*32
$GPRMC,030809,A,4820.4268,N,434.8959,W,10.00,247.96,261015,,*3B
$GPRMC,030809,A,4820.4228,N,434.9107,W,10.00,247.96,261015,,*3D
$GPRMC,030809,A,4820.4188,N,434.9254,W,10.00,247.96,261015,,*31
$GPRMC,030809,A,4820.4148,N,434.9402,W,10.00,247.96,261015,,*38
$GPRMC,030809,A,4820.4109,N,434.9549,W,10.00,247.96,261015,,*33
$GPRMC,030809,A,4820.4069,N,434.9697,W,10.00,247.96,261015,,*34
$GPRMC,030809,A,4820.4029,N,434.9844,W,10.00,247.96,261015,,*30
$GPRMC,030809,A,4820.3989,N,434.9992,W,10.00,247.96,261015,,*3E
$GPRMC,030809,A,4820.3949,N,435.0139,W,10.00,247.96,261015,,*33
$GPRMC,030809,A,4820.3909,N,435.0287,W,10.00,247.96,261015,,*31
$GPRMC,030809,A,4820.3869,N,435.0434,W,10.00,247.96,261015,,*38
$GPRMC,030809,A,4820.3830,N,435.0582,W,10.00,247.96,261015,,*38
$GPRMC,030809,A,4820.3790,N,435.0729,W,10.00,247.96,261015,,*3E
$GPRMC,030809,A,4820.3750,N,435.0877,W,10.00,247.96,261015,,*36
$GPRMC,030809,A,4820.3710,N,435.1024,W,10.00,247.96,261015,,*3D
$GPRMC,030809,A,4820.3670,N,435.1172,W,10.00,247.96,261015,,*38
$GPRMC,030809,A,4820.3630,N,435.1319,W,10.00,247.96,261015,,*33
$GPRMC,030809,A,4820.3590,N,435.1467,W,10.00,247.96,261015,,*34
$GPRMC,030809,A,4820.3551,N,435.1614,W,10.00,247.96,261015,,*3F
$GPRMC,030809,A,4820.3511,N,435.1762,W,10.00,247.96,261015,,*3B
$GPRMC,030809,A,4820.3471,N,435.1909,W,10.00,247.96,261015,,*3F
$GPRMC,030809,A,4820.3431,N,435.2057,W,10.00,247.96,261015,,*3A
$GPRMC,030809,A,4820.3391,N,435.2204,W,10.00,247.96,261015,,*33
$GPRMC,030809,A,4820.3351,N,435.2351,W,10.00,247.96,261015,,*3E
$GPRMC,030809,A,4820.3339,N,435.2396,W,10.00,219.32,261015,,*3E
$GPRMC,030809,A,4820.3210,N,435.2555,W,10.00,219.32,261015,,*3D
$GPRMC,030809,A,4820.3081,N,435.2714,W,10.00,219.32,261015,,*30
$GPRMC,030809,A,4820.2952,N,435.2872,W,10.00,219.32,261015,,*39
$GPRMC,030809,A,4820.2823,N,435.3031,W,10.00,219.32,261015,,*30
$GPRMC,030809,A,4820.2694,N,435.3189,W,10.00,219.32,261015,,*30
$GPRMC,030809,A,4820.2565,N,435.3348,W,10.00,219.32,261015,,*32
$GPRMC,030809,A,4820.2436,N,435.3506,W,10.00,219.32,261015,,*39
$GPRMC,030809,A,4820.2307,N,435.3665,W,10.00,219.32,261015,,*3A
$GPRMC,030809,A,4820.2177,N,435.3823,W,10.00,219.32,261015,,*33
$GPRMC,030809,A,4820.2048,N,435.3982,W,10.00,219.32,261015,,*34
$GPRMC,030809,A,4820.1919,N,435.4140,W,10.00,219.32,261015,,*3B
$GPRMC,030809,A,4820.1790,N,435.4299,W,10.00,219.32,261015,,*33
$GPRMC,030809,A,4820.1661,N,435.4457,W,10.00,219.32,261015,,*38
$GPRMC,030809,A,4820.1532,N,435.4616,W,10.00,219.32,261015,,*3A
$GPRMC,030809,A,4820.1403,N,435.4774,W,10.00,219.32,261015,,*3C
$GPRMC,030809,A,4820.1274,N,435.4933,W,10.00,219.32,261015,,*37
$GPRMC,030809,A,4820.1145,N,435.5091,W,10.00,219.32,261015,,*36
$GPRMC,030809,A,4820.1016,N,435.5250,W,10.00,219.32,261015,,*3E
$GPRMC,030809,A,4820.0887,N,435.5408,W,10.00,219.32,261015,,*34
$GPRMC,030809,A,4820.0758,N,435.5567,W,10.00,219.32,261015,,*31
$GPRMC,030809,A,4820.0629,N,435.5726,W,10.00,219.32,261015,,*31
$GPRMC,030809,A,4820.0500,N,435.5884,W,10.00,219.32,261015,,*3E
$GPRMC,030809,A,4820.0370,N,435.6043,W,10.00,219.32,261015,,*3F
$GPRMC,030809,A,4820.0241,N,435.6201,W,10.00,219.32,261015,,*38
$GPRMC,030809,A,4820.0112,N,435.6360,W,10.00,219.32,261015,,*3B
$GPRMC,030809,A,4819.9983,N,435.6518,W,10.00,219.32,261015,,*31
$GPRMC,030809,A,4819.9854,N,435.6677,W,10.00,219.32,261015,,*30
$GPRMC,030809,A,4819.9725,N,435.6835,W,10.00,219.32,261015,,*31
$GPRMC,030809,A,4819.9596,N,435.6994,W,10.00,219.32,261015,,*31
$GPRMC,030809,A,4819.9467,N,435.7152,W,10.00,219.32,261015,,*3D
$GPRMC,030809,A,4819.9338,N,435.7311,W,10.00,219.32,261015,,*35
$GPRMC,030809,A,4819.9209,N,435.7469,W,10.00,219.32,261015,,*3E
$GPRMC,030809,A,4819.9080,N,435.7628,W,10.00,219.32,261015,,*3A
$GPRMC,030809,A,4819.8951,N,435.7786,W,10.00,219.32,261015,,*3B
$GPRMC,030809,A,4819.8822,N,435.7945,W,10.00,219.32,261015,,*3F
$GPRMC,030809,A,4819.8692,N,435.8103,W,10.00,219.32,261015,,*3F
$GPRMC,030809,A,4819.8563,N,435.8262,W,10.00,219.32,261015,,*36
$GPRMC,030809,A,4819.8434,N,435.8420,W,10.00,219.32,261015,,*35
$GPRMC,030809,A,4819.8305,N,435.8578,W,10.00,219.32,261015,,*3C
$GPRMC,030809,A,4819.8176,N,435.8737,W,10.00,219.32,261015,,*33
$GPRMC,030809,A,4819.8047,N,435.8895,W,10.00,219.32,261015,,*37
$GPRMC,030809,A,4819.7918,N,435.9054,W,10.00,219.32,261015,,*3F
$GPRMC,030809,A,4819.7789,N,435.9212,W,10.00,219.32,261015,,*39
$GPRMC,030809,A,4819.7660,N,435.9371,W,10.00,219.32,261015,,*3B
$GPRMC,030809,A,4819.7531,N,435.9529,W,10.00,219.32,261015,,*37
$GPRMC,030809,A,4819.7402,N,435.9688,W,10.00,219.32,261015,,*3E
$GPRMC,030809,A,4819.7273,N,435.9846,W,10.00,219.32,261015,,*32
$GPRMC,030809,A,4819.7143,N,436.0005,W,10.00,219.32,261015,,*37
$GPRMC,030809,A,4819.7014,N,436.0163,W,10.00,219.32,261015,,*35
$GPRMC,030809,A,4819.6885,N,436.0322,W,10.00,219.32,261015,,*33
$GPRMC,030809,A,4819.6756,N,436.0480,W,10.00,219.32,261015,,*3D
$GPRMC,030809,A,4819.6627,N,436.0639,W,10.00,219.32,261015,,*3A
$GPRMC,030809,A,4819.6587,N,436.0687,W,10.00,75.77,261015,,*0F
$GPRMC,030809,A,4819.6627,N,436.0452,W,10.00,75.77,261015,,*0C
$GPRMC,030809,A,4819.6667,N,436.0218,W,10.00,75.77,261015,,*00
$GPRMC,030809,A,4819.6707,N,435.9983,W,10.00,75.77,261015,,*04
$GPRMC,030809,A,4819.6746,N,435.9748,W,10.00,75.77,261015,,*08
$GPRMC,030809,A,4819.6786,N,435.9513,W,10.00,75.77,261015,,*08
$GPRMC,030809,A,4819.6826,N,435.9278,W,10.00,75.77,261015,,*07
$GPRMC,030809,A,4819.6865,N,435.9043,W,10.00,75.77,261015,,*0A
$GPRMC,030809,A,4819.6905,N,435.8808,W,10.00,75.77,261015,,*0B
$GPRMC,030809,A,4819.6945,N,435.8573,W,10.00,75.77,261015,,*0E
$GPRMC,030809,A,4819.6985,N,435.8338,W,10.00,75.77,261015,,*0B
$GPRMC,030809,A,4819.7024,N,435.8103,W,10.00,75.77,261015,,*02
$GPRMC,030809,A,4819.7064,N,435.7868,W,10.00,75.77,261015,,*0D
$GPRMC,030809,A,4819.7104,N,435.7633,W,10.00,75.77,261015,,*0A
$GPRMC,030809,A,4819.7144,N,435.7398,W,10.00,75.77,261015,,*0A
$GPRMC,030809,A,4819.7183,N,435.7163,W,10.00,75.77,261015,,*07
$GPRMC,030809,A,4819.7223,N,435.6928,W,10.00,75.77,261015,,*08
$GPRMC,030809,A,4819.7263,N,435.6693,W,10.00,75.77,261015,,*03
$GPRMC,030809,A,4819.7302,N,435.6458,W,10.00,75.77,261015,,*00
$GPRMC,030809,A,4819.7342,N,435.6223,W,10.00,75.77,261015,,*0E
$GPRMC,030809,A,4819.7382,N,435.5988,W,10.00,75.77,261015,,*0B
$GPRMC,030809,A,4819.7422,N,435.5753,W,10.00,75.77,261015,,*0E
$GPRMC,030809,A,4819.7461,N,435.5518,W,10.00,75.77,261015,,*04
$GPRMC,030809,A,4819.7501,N,435.5283,W,10.00,75.77,261015,,*06
$GPRMC,030809,A,4819.7541,N,435.5048,W,10.00,75.77,261015,,*07
$GPRMC,030809,A,4819.7580,N,435.4813,W,10.00,75.77,261015,,*0D
$GPRMC,030809,A,4819.7620,N,435.4578,W,10.00,75.77,261015,,*04
$GPRMC,030809,A,4819.7660,N,435.4343,W,10.00,75.77,261015,,*0E
$GPRMC,030809,A,4819.7699,N,435.4108,W,10.00,75.77,261015,,*05
$GPRMC,030809,A,4819.7739,N,435.3873,W,10.00,75.77,261015,,*0C
$GPRMC,030809,A,4819.7779,N,435.3638,W,10.00,75.77,261015,,*09
$GPRMC,030809,A,4819.7819,N,435.3403,W,10.00,75.77,261015,,*0A
$GPRMC,030809,A,4819.7858,N,435.3168,W,10.00,75.77,261015,,*07
$GPRMC,030809,A,4819.7898,N,435.2933,W,10.00,75.77,261015,,*0C
$GPRMC,030809,A,4819.7938,N,435.2698,W,10.00,75.77,261015,,*09
$GPRMC,030809,A,4819.7977,N,435.2463,W,10.00,75.77,261015,,*04
$GPRMC,030809,A,4819.8017,N,435.2228,W,10.00,75.77,261015,,*0D
$GPRMC,030809,A,4819.8057,N,435.1993,W,10.00,75.77,261015,,*01
$GPRMC,030809,A,4819.8097,N,435.1758,W,10.00,75.77,261015,,*04
$GPRMC,030809,A,4819.8136,N,435.1523,W,10.00,75.77,261015,,*00
$GPRMC,030809,A,4819.8176,N,435.1288,W,10.00,75.77,261015,,*02
$GPRMC,030809,A,4819.8216,N,435.1053,W,10.00,75.77,261015,,*03
$GPRMC,030809,A,4819.8255,N,435.0818,W,10.00,75.77,261015,,*02
$GPRMC,030809,A,4819.8295,N,435.0583,W,10.00,75.77,261015,,*01
$GPRMC,030809,A,4819.8335,N,435.0348,W,10.00,75.77,261015,,*0B
$GPRMC,030809,A,4819.8374,N,435.0113,W,10.00,75.77,261015,,*02
$GPRMC,030809,A,4819.8414,N,434.9878,W,10.00,75.77,261015,,*0F
$GPRMC,030809,A,4819.8454,N,434.9643,W,10.00,75.77,261015,,*0D
$GPRMC,030809,A,4819.8493,N,434.9408,W,10.00,75.77,261015,,*0B
$GPRMC,030809,A,4819.8533,N,434.9173,W,10.00,75.77,261015,,*09
$GPRMC,030809,A,4819.8573,N,434.8938,W,10.00,75.77,261015,,*0B
$GPRMC,030809,A,4819.8613,N,434.8703,W,10.00,75.77,261015,,*08
$GPRMC,030809,A,4819.8652,N,434.8468,W,10.00,75.77,261015,,*03
$GPRMC,030809,A,4819.8692,N,434.8233,W,10.00,75.77,261015,,*07
$GPRMC,030809,A,4819.8732,N,434.7998,W,10.00,75.77,261015,,*09
$GPRMC,030809,A,4819.8771,N,434.7763,W,10.00,75.77,261015,,*04
$GPRMC,030809,A,4819.8799,N,434.7596,W,10.00,52.82,261015,,*05
$GPRMC,030809,A,4819.8903,N,434.7391,W,10.00,52.82,261015,,*09
$GPRMC,030809,A,4819.9007,N,434.7185,W,10.00,52.82,261015,,*02
$GPRMC,030809,A,4819.9111,N,434.6980,W,10.00,52.82,261015,,*08
$GPRMC,030809,A,4819.9215,N,434.6775,W,10.00,52.82,261015,,*0B
$GPRMC,030809,A,4819.9319,N,434.6570,W,10.00,52.82,261015,,*01
$GPRMC,030809,A,4819.9422,N,434.6364,W,10.00,52.82,261015,,*0D
$GPRMC,030809,A,4819.9526,N,434.6159,W,10.00,52.82,261015,,*04
$GPRMC,030809,A,4819.9630,N,434.5954,W,10.00,52.82,261015,,*06
$GPRMC,030809,A,4819.9734,N,434.5748,W,10.00,52.82,261015,,*00
$GPRMC,030809,A,4819.9838,N,434.5543,W,10.00,52.82,261015,,*0A
$GPRMC,030809,A,4819.9941,N,434.5338,W,10.00,52.82,261015,,*0F
$GPRMC,030809,A,4820.0045,N,434.5133,W,10.00,52.82,261015,,*08
$GPRMC,030809,A,4820.0149,N,434.4927,W,10.00,52.82,261015,,*09
$GPRMC,030809,A,4820.0253,N,434.4722,W,10.00,52.82,261015,,*0A
$GPRMC,030809,A,4820.0357,N,434.4517,W,10.00,52.82,261015,,*0B
$GPRMC,030809,A,4820.0460,N,434.4311,W,10.00,52.82,261015,,*08
$GPRMC,030809,A,4820.0564,N,434.4106,W,10.00,52.82,261015,,*09
$GPRMC,030809,A,4820.0668,N,434.3901,W,10.00,52.82,261015,,*0E
$GPRMC,030809,A,4820.0772,N,434.3696,W,10.00,52.82,261015,,*05
$GPRMC,030809,A,4820.0876,N,434.3490,W,10.00,52.82,261015,,*0A
$GPRMC,030809,A,4820.0979,N,434.3285,W,10.00,52.82,261015,,*06
$GPRMC,030809,A,4820.1083,N,434.3080,W,10.00,52.82,261015,,*0C
$GPRMC,030809,A,4820.1187,N,434.2874,W,10.00,52.82,261015,,*0B
$GPRMC,030809,A,4820.1291,N,434.2669,W,10.00,52.82,261015,,*0D
$GPRMC,030809,A,4820.1395,N,434.2464,W,10.00,52.82,261015,,*07
$GPRMC,030809,A,4820.1498,N,434.2258,W,10.00,52.82,261015,,*04
$GPRMC,030809,A,4820.1602,N,434.2053,W,10.00,52.82,261015,,*0C
$GPRMC,030809,A,4820.1706,N,434.1848,W,10.00,52.82,261015,,*08
$GPRMC,030809,A,4820.1810,N,434.1643,W,10.00,52.82,261015,,*05
$GPRMC,030809,A,4820.1914,N,434.1437,W,10.00,52.82,261015,,*01
$GPRMC,030809,A,4820.2017,N,434.1232,W,10.00,52.82,261015,,*0B
$GPRMC,030809,A,4820.2121,N,434.1027,W,10.00,52.82,261015,,*09
$GPRMC,030809,A,4820.2225,N,434.0821,W,10.00,52.82,261015,,*01
$GPRMC,030809,A,4820.2329,N,434.0616,W,10.00,52.82,261015,,*06
$GPRMC,030809,A,4820.2433,N,434.0411,W,10.00,52.82,261015,,*0F
$GPRMC,030809,A,4820.2536,N,434.0205,W,10.00,52.82,261015,,*08
$GPRMC,030809,A,4820.2640,N,434.0000,W,10.00,52.82,261015,,*0D
$GPRMC,030809,A,4820.2744,N,433.9795,W,10.00,52.82,261015,,*0D
$GPRMC,030809,A,4820.2848,N,433.9589,W,10.00,52.82,261015,,*01
$GPRMC,030809,A,4820.2952,N,433.9384,W,10.00,52.82,261015,,*00
$GPRMC,030809,A,4820.3055,N,433.9179,W,10.00,52.82,261015,,*0F
$GPRMC,030809,A,4820.3159,N,433.8973,W,10.00,52.82,261015,,*01
$GPRMC,030809,A,4820.3263,N,433.8768,W,10.00,52.82,261015,,*0F
$GPRMC,030809,A,4820.3367,N,433.8563,W,10.00,52.82,261015,,*03
$GPRMC,030809,A,4820.3471,N,433.8357,W,10.00,52.82,261015,,*02
$GPRMC,030809,A,4820.3574,N,433.8152,W,10.00,52.82,261015,,*01
$GPRMC,030809,A,4820.3678,N,433.7947,W,10.00,52.82,261015,,*0D
$GPRMC,030809,A,4820.3782,N,433.7741,W,10.00,52.82,261015,,*01
$GPRMC,030809,A,4820.3886,N,433.7536,W,10.00,52.82,261015,,*08
