$GPRMC,031200,A,4822.0391,N,428.0961,W,10.00,245.78,261015,,*34
$GPRMC,031200,A,4822.0297,N,428.1274,W,10.00,245.78,261015,,*3D
$GPRMC,031200,A,4822.0203,N,428.1587,W,10.00,245.78,261015,,*3B
$GPRMC,031200,A,4822.0110,N,428.1901,W,10.00,245.78,261015,,*38
$GPRMC,031200,A,4822.0016,N,428.2214,W,10.00,245.78,261015,,*33
$GPRMC,031200,A,4821.9922,N,428.2527,W,10.00,245.78,261015,,*30
$GPRMC,031200,A,4821.9828,N,428.2840,W,10.00,245.78,261015,,*37
$GPRMC,031200,A,4821.9734,N,428.3153,W,10.00,245.78,261015,,*3F
$GPRMC,031200,A,4821.9640,N,428.3466,W,10.00,245.78,261015,,*3E
$GPRMC,031200,A,4821.9547,N,428.3780,W,10.00,245.78,261015,,*31
$GPRMC,031200,A,4821.9453,N,428.4093,W,10.00,245.78,261015,,*37
$GPRMC,031200,A,4821.9359,N,428.4406,W,10.00,245.78,261015,,*32
$GPRMC,031200,A,4821.9265,N,428.4719,W,10.00,245.78,261015,,*31
$GPRMC,031200,A,4821.9171,N,428.5032,W,10.00,245.78,261015,,*38
$GPRMC,031200,A,4821.9077,N,428.5345,W,10.00,245.78,261015,,*3C
$GPRMC,031200,A,4821.8983,N,428.5658,W,10.00,245.78,261015,,*36
$GPRMC,031200,A,4821.8889,N,428.5972,W,10.00,245.78,261015,,*3A
$GPRMC,031200,A,4821.8796,N,428.6285,W,10.00,245.78,261015,,*3B
$GPRMC,031200,A,4821.8702,N,428.6598,W,10.00,245.78,261015,,*3D
$GPRMC,031200,A,4821.8608,N,428.6911,W,10.00,245.78,261015,,*3B
$GPRMC,031200,A,4821.8514,N,428.7224,W,10.00,245.78,261015,,*39
$GPRMC,031200,A,4821.8420,N,428.7537,W,10.00,245.78,261015,,*3A
$GPRMC,031200,A,4821.8326,N,428.7850,W,10.00,245.78,261015,,*37
$GPRMC,031200,A,4821.8232,N,428.8163,W,10.00,245.78,261015,,*35
$GPRMC,031200,A,4821.8138,N,428.8477,W,10.00,245.78,261015,,*3C
$GPRMC,031200,A,4821.8045,N,428.8790,W,10.00,245.78,261015,,*3D
$GPRMC,031200,A,4821.7951,N,428.9103,W,10.00,245.78,261015,,*33
$GPRMC,031200,A,4821.7857,N,428.9416,W,10.00,245.78,261015,,*35
$GPRMC,031200,A,4821.7781,N,428.9669,W,10.00,246.95,261015,,*3B
$GPRMC,031200,A,4821.7720,N,428.9883,W,10.00,246.95,261015,,*3A
$GPRMC,031200,A,4821.7660,N,429.0097,W,10.00,246.95,261015,,*3A
$GPRMC,031200,A,4821.7599,N,429.0310,W,10.00,246.95,261015,,*33
$GPRMC,031200,A,4821.7538,N,429.0524,W,10.00,246.95,261015,,*39
$GPRMC,031200,A,4821.7478,N,429.0738,W,10.00,246.95,261015,,*33
$GPRMC,031200,A,4821.7417,N,429.0952,W,10.00,246.95,261015,,*38
$GPRMC,031200,A,4821.7356,N,429.1166,W,10.00,246.95,261015,,*34
$GPRMC,031200,A,4821.7296,N,429.1380,W,10.00,246.95,261015,,*33
$GPRMC,031200,A,4821.7235,N,429.1594,W,10.00,246.95,261015,,*39
$GPRMC,031200,A,4821.7174,N,429.1808,W,10.00,246.95,261015,,*37
$GPRMC,031200,A,4821.7114,N,429.2022,W,10.00,246.95,261015,,*32
$GPRMC,031200,A,4821.7053,N,429.2236,W,10.00,246.95,261015,,*37
$GPRMC,031200,A,4821.6992,N,429.2450,W,10.00,246.95,261015,,*34
$GPRMC,031200,A,4821.6931,N,429.2664,W,10.00,246.95,261015,,*38
$GPRMC,031200,A,4821.6871,N,429.2878,W,10.00,246.95,261015,,*3E
$GPRMC,031200,A,4821.6810,N,429.3092,W,10.00,246.95,261015,,*34
$GPRMC,031200,A,4821.6749,N,429.3305,W,10.00,246.95,261015,,*3A
$GPRMC,031200,A,4821.6689,N,429.3519,W,10.00,246.95,261015,,*3C
$GPRMC,031200,A,4821.6628,N,429.3733,W,10.00,246.95,261015,,*3D
$GPRMC,031200,A,4821.6567,N,429.3947,W,10.00,246.95,261015,,*38
$GPRMC,031200,A,4821.6507,N,429.4161,W,10.00,246.95,261015,,*35
$GPRMC,031200,A,4821.6446,N,429.4375,W,10.00,246.95,261015,,*36
$GPRMC,031200,A,4821.6385,N,429.4589,W,10.00,246.95,261015,,*3B
$GPRMC,031200,A,4821.6325,N,429.4803,W,10.00,246.95,261015,,*3E
$GPRMC,031200,A,4821.6264,N,429.5017,W,10.00,246.95,261015,,*36
$GPRMC,031200,A,4821.6203,N,429.5231,W,10.00,246.95,261015,,*31
$GPRMC,031200,A,4821.6143,N,429.5445,W,10.00,246.95,261015,,*33
$GPRMC,031200,A,4821.6082,N,429.5659,W,10.00,246.95,261015,,*30
$GPRMC,031200,A,4821.6021,N,429.5872,W,10.00,246.95,261015,,*3E
$GPRMC,031200,A,4821.5960,N,429.6086,W,10.00,246.95,261015,,*31
$GPRMC,031200,A,4821.5900,N,429.6300,W,10.00,246.95,261015,,*3A
$GPRMC,031200,A,4821.5839,N,429.6514,W,10.00,246.95,261015,,*32
$GPRMC,031200,A,4821.5778,N,429.6728,W,10.00,246.95,261015,,*35
$GPRMC,031200,A,4821.5718,N,429.6942,W,10.00,246.95,261015,,*31
$GPRMC,031200,A,4821.5657,N,429.7156,W,10.00,246.95,261015,,*37
$GPRMC,031200,A,4821.5596,N,429.7370,W,10.00,246.95,261015,,*3F
$GPRMC,031200,A,4821.5536,N,429.7584,W,10.00,246.95,261015,,*38
$GPRMC,031200,A,4821.5475,N,429.7798,W,10.00,246.95,261015,,*31
$GPRMC,031200,A,4821.5414,N,429.8012,W,10.00,246.95,261015,,*3C
$GPRMC,031200,A,4821.5353,N,429.8225,W,10.00,246.95,261015,,*3E
$GPRMC,031200,A,4821.5293,N,429.8439,W,10.00,246.95,261015,,*38
$GPRMC,031200,A,4821.5232,N,429.8653,W,10.00,246.95,261015,,*3D
$GPRMC,031200,A,4821.5171,N,429.8867,W,10.00,246.95,261015,,*30
$GPRMC,031200,A,4821.5111,N,429.9081,W,10.00,246.95,261015,,*37
$GPRMC,031200,A,4821.5050,N,429.9295,W,10.00,246.95,261015,,*34
$GPRMC,031200,A,4821.4989,N,429.9509,W,10.00,246.95,261015,,*3A
$GPRMC,031200,A,4821.4929,N,429.9723,W,10.00,246.95,261015,,*3A
$GPRMC,031200,A,4821.4868,N,429.9937,W,10.00,246.95,261015,,*35
$GPRMC,031200,A,4821.4807,N,430.0151,W,10.00,246.95,261015,,*35
$GPRMC,031200,A,4821.4746,N,430.0364,W,10.00,246.95,261015,,*3B
$GPRMC,031200,A,4821.4686,N,430.0578,W,10.00,246.95,261015,,*3D
$GPRMC,031200,A,4821.4625,N,430.0792,W,10.00,246.95,261015,,*32
$GPRMC,031200,A,4821.4564,N,430.1006,W,10.00,246.95,261015,,*3F
$GPRMC,031200,A,4821.4504,N,430.1220,W,10.00,246.95,261015,,*3F
$GPRMC,031200,A,4821.4443,N,430.1434,W,10.00,246.95,261015,,*3E
$GPRMC,031200,A,4821.4382,N,430.1648,W,10.00,246.95,261015,,*3D
$GPRMC,031200,A,4821.4321,N,430.1862,W,10.00,246.95,261015,,*32
$GPRMC,031200,A,4821.4261,N,430.2076,W,10.00,246.95,261015,,*39
$GPRMC,031200,A,4821.4200,N,430.2289,W,10.00,246.95,261015,,*3C
$GPRMC,031200,A,4821.4139,N,430.2503,W,10.00,246.95,261015,,*30
$GPRMC,031200,A,4821.4100,N,430.2640,W,10.00,251.66,261015,,*34
$GPRMC,031200,A,4821.4068,N,430.2789,W,10.00,251.66,261015,,*3F
$GPRMC,031200,A,4821.4035,N,430.2937,W,10.00,251.66,261015,,*3C
$GPRMC,031200,A,4821.4002,N,430.3085,W,10.00,251.66,261015,,*39
$GPRMC,031200,A,4821.3969,N,430.3234,W,10.00,251.66,261015,,*32
$GPRMC,031200,A,4821.3937,N,430.3382,W,10.00,251.66,261015,,*35
$GPRMC,031200,A,4821.3904,N,430.3530,W,10.00,251.66,261015,,*3A
$GPRMC,031200,A,4821.3871,N,430.3679,W,10.00,251.66,261015,,*37
$GPRMC,031200,A,4821.3838,N,430.3827,W,10.00,251.66,261015,,*3F
$GPRMC,031200,A,4821.3805,N,430.3975,W,10.00,251.66,261015,,*37
$GPRMC,031200,A,4821.3773,N,430.4124,W,10.00,251.66,261015,,*32
$GPRMC,031200,A,4821.3740,N,430.4272,W,10.00,251.66,261015,,*32
$GPRMC,031200,A,4821.3707,N,430.4420,W,10.00,251.66,261015,,*30
$GPRMC,031200,A,4821.3674,N,430.4569,W,10.00,251.66,261015,,*39
$GPRMC,031200,A,4821.3642,N,430.4717,W,10.00,251.66,261015,,*37
$GPRMC,031200,A,4821.3609,N,430.4865,W,10.00,251.66,261015,,*32
$GPRMC,031200,A,4821.3576,N,430.5014,W,10.00,251.66,261015,,*36
$GPRMC,031200,A,4821.3543,N,430.5162,W,10.00,251.66,261015,,*30
$GPRMC,031200,A,4821.3510,N,430.5310,W,10.00,251.66,261015,,*31
$GPRMC,031200,A,4821.3478,N,430.5459,W,10.00,251.66,261015,,*34
$GPRMC,031200,A,4821.3445,N,430.5607,W,10.00,251.66,261015,,*33
$GPRMC,031200,A,4821.3412,N,430.5755,W,10.00,251.66,261015,,*37
$GPRMC,031200,A,4821.3379,N,430.5904,W,10.00,251.66,261015,,*37
$GPRMC,031200,A,4821.3347,N,430.6052,W,10.00,251.66,261015,,*33
$GPRMC,031200,A,4821.3314,N,430.6200,W,10.00,251.66,261015,,*30
$GPRMC,031200,A,4821.3281,N,430.6349,W,10.00,251.66,261015,,*31
$GPRMC,031200,A,4821.3248,N,430.6497,W,10.00,251.66,261015,,*30
$GPRMC,031200,A,4821.3215,N,430.6645,W,10.00,251.66,261015,,*35
$GPRMC,031200,A,4821.3183,N,430.6794,W,10.00,251.66,261015,,*34
$GPRMC,031200,A,4821.3150,N,430.6942,W,10.00,251.66,261015,,*3F
$GPRMC,031200,A,4821.3117,N,430.7090,W,10.00,251.66,261015,,*3B
$GPRMC,031200,A,4821.3084,N,430.7239,W,10.00,251.66,261015,,*31
$GPRMC,031200,A,4821.3051,N,430.7387,W,10.00,251.66,261015,,*3D
$GPRMC,031200,A,4821.3019,N,430.7535,W,10.00,251.66,261015,,*3E
$GPRMC,031200,A,4821.2986,N,430.7683,W,10.00,251.66,261015,,*3E
$GPRMC,031200,A,4821.2953,N,430.7832,W,10.00,251.66,261015,,*32
$GPRMC,031200,A,4821.2920,N,430.7980,W,10.00,251.66,261015,,*3E
$GPRMC,031200,A,4821.2888,N,430.8128,W,10.00,251.66,261015,,*38
$GPRMC,031200,A,4821.2855,N,430.8277,W,10.00,251.66,261015,,*31
$GPRMC,031200,A,4821.2822,N,430.8425,W,10.00,251.66,261015,,*30
$GPRMC,031200,A,4821.2789,N,430.8573,W,10.00,251.66,261015,,*3C
$GPRMC,031200,A,4821.2756,N,430.8722,W,10.00,251.66,261015,,*38
$GPRMC,031200,A,4821.2724,N,430.8870,W,10.00,251.66,261015,,*35
$GPRMC,031200,A,4821.2691,N,430.9018,W,10.00,251.66,261015,,*3D
$GPRMC,031200,A,4821.2658,N,430.9167,W,10.00,251.66,261015,,*31
$GPRMC,031200,A,4821.2625,N,430.9315,W,10.00,251.66,261015,,*3C
$GPRMC,031200,A,4821.2592,N,430.9463,W,10.00,251.66,261015,,*35
$GPRMC,031200,A,4821.2560,N,430.9612,W,10.00,251.66,261015,,*3C
$GPRMC,031200,A,4821.2527,N,430.9760,W,10.00,251.66,261015,,*3B
$GPRMC,031200,A,4821.2494,N,430.9908,W,10.00,251.66,261015,,*32
$GPRMC,031200,A,4821.2461,N,431.0057,W,10.00,251.66,261015,,*33
$GPRMC,031200,A,4821.2429,N,431.0205,W,10.00,251.66,261015,,*3A
$GPRMC,031200,A,4821.2396,N,431.0353,W,10.00,251.66,261015,,*3B
$GPRMC,031200,A,4821.2363,N,431.0502,W,10.00,251.66,261015,,*33
$GPRMC,031200,A,4821.2330,N,431.0650,W,10.00,251.66,261015,,*31
$GPRMC,031200,A,4821.2297,N,431.0798,W,10.00,251.66,261015,,*38
$GPRMC,031200,A,4821.2265,N,431.0947,W,10.00,251.66,261015,,*39
$GPRMC,031200,A,4821.2232,N,431.1095,W,10.00,251.66,261015,,*3C
$GPRMC,031200,A,4821.2199,N,431.1243,W,10.00,251.66,261015,,*37
$GPRMC,031200,A,4821.2166,N,431.1391,W,10.00,251.66,261015,,*39
$GPRMC,031200,A,4821.2133,N,431.1540,W,10.00,251.66,261015,,*33
$GPRMC,031200,A,4821.2101,N,431.1688,W,10.00,251.66,261015,,*35
$GPRMC,031200,A,4821.2068,N,431.1836,W,10.00,251.66,261015,,*30
$GPRMC,031200,A,4821.2035,N,431.1985,W,10.00,251.66,261015,,*31
$GPRMC,031200,A,4821.2002,N,431.2133,W,10.00,251.66,261015,,*33
$GPRMC,031200,A,4821.1969,N,431.2281,W,10.00,251.66,261015,,*3E
$GPRMC,031200,A,4821.1937,N,431.2430,W,10.00,251.66,261015,,*39
$GPRMC,031200,A,4821.1904,N,431.2578,W,10.00,251.66,261015,,*34
$GPRMC,031200,A,4821.1871,N,431.2726,W,10.00,251.66,261015,,*3E
$GPRMC,031200,A,4821.1838,N,431.2875,W,10.00,251.66,261015,,*3A
$GPRMC,031200,A,4821.1805,N,431.3023,W,10.00,251.66,261015,,*3E
$GPRMC,031200,A,4821.1773,N,431.3171,W,10.00,251.66,261015,,*36
$GPRMC,031200,A,4821.1740,N,431.3320,W,10.00,251.66,261015,,*30
$GPRMC,031200,A,4821.1707,N,431.3468,W,10.00,251.66,261015,,*38
$GPRMC,031200,A,4821.1674,N,431.3616,W,10.00,251.66,261015,,*36
$GPRMC,031200,A,4821.1641,N,431.3764,W,10.00,251.66,261015,,*34
$GPRMC,031200,A,4821.1609,N,431.3913,W,10.00,251.66,261015,,*36
$GPRMC,031200,A,4821.1576,N,431.4061,W,10.00,251.66,261015,,*36
$GPRMC,031200,A,4821.1543,N,431.4209,W,10.00,251.66,261015,,*3C
$GPRMC,031200,A,4821.1510,N,431.4358,W,10.00,251.66,261015,,*3F
$GPRMC,031200,A,4821.1477,N,431.4506,W,10.00,251.66,261015,,*32
$GPRMC,031200,A,4821.1445,N,431.4654,W,10.00,251.66,261015,,*37
$GPRMC,031200,A,4821.1412,N,431.4803,W,10.00,251.66,261015,,*39
$GPRMC,031200,A,4821.1379,N,431.4951,W,10.00,251.66,261015,,*35
$GPRMC,031200,A,4821.1346,N,431.5099,W,10.00,251.66,261015,,*35
$GPRMC,031200,A,4821.1313,N,431.5248,W,10.00,251.66,261015,,*3B
$GPRMC,031200,A,4821.1281,N,431.5396,W,10.00,251.66,261015,,*33
$GPRMC,031200,A,4821.1248,N,431.5544,W,10.00,251.66,261015,,*3F
$GPRMC,031200,A,4821.1215,N,431.5692,W,10.00,251.66,261015,,*3F
$GPRMC,031200,A,4821.1182,N,431.5841,W,10.00,251.66,261015,,*32
$GPRMC,031200,A,4821.1149,N,431.5989,W,10.00,251.66,261015,,*30
$GPRMC,031200,A,4821.1117,N,431.6137,W,10.00,251.66,261015,,*35
$GPRMC,031200,A,4821.1084,N,431.6286,W,10.00,251.66,261015,,*37
$GPRMC,031200,A,4821.1051,N,431.6434,W,10.00,251.66,261015,,*30
$GPRMC,031200,A,4821.1018,N,431.6582,W,10.00,251.66,261015,,*31
$GPRMC,031200,A,4821.0985,N,431.6731,W,10.00,251.66,261015,,*37
$GPRMC,031200,A,4821.0953,N,431.6879,W,10.00,251.66,261015,,*3F
$GPRMC,031200,A,4821.0920,N,431.7027,W,10.00,251.66,261015,,*39
$GPRMC,031200,A,4821.0887,N,431.7175,W,10.00,251.66,261015,,*33
$GPRMC,031200,A,4821.0854,N,431.7324,W,10.00,251.66,261015,,*3B
$GPRMC,031200,A,4821.0821,N,431.7472,W,10.00,251.66,261015,,*3D
$GPRMC,031200,A,4821.0789,N,431.7620,W,10.00,251.66,261015,,*35
$GPRMC,031200,A,4821.0756,N,431.7769,W,10.00,251.66,261015,,*3B
$GPRMC,031200,A,4821.0723,N,431.7917,W,10.00,251.66,261015,,*3E
$GPRMC,031200,A,4821.0690,N,431.8065,W,10.00,251.66,261015,,*34
$GPRMC,031200,A,4821.0657,N,431.8214,W,10.00,251.66,261015,,*3B
$GPRMC,031200,A,4821.0625,N,431.8362,W,10.00,251.66,261015,,*3E
$GPRMC,031200,A,4821.0592,N,431.8510,W,10.00,251.66,261015,,*32
$GPRMC,031200,A,4821.0559,N,431.8658,W,10.00,251.66,261015,,*3A
$GPRMC,031200,A,4821.0526,N,431.8807,W,10.00,251.66,261015,,*36
$GPRMC,031200,A,4821.0493,N,431.8955,W,10.00,251.66,261015,,*3F
$GPRMC,031200,A,4821.0461,N,431.9103,W,10.00,251.66,261015,,*38
$GPRMC,031200,A,4821.0428,N,431.9252,W,10.00,251.66,261015,,*32
$GPRMC,031200,A,4821.0395,N,431.9400,W,10.00,251.66,261015,,*32
$GPRMC,031200,A,4821.0362,N,431.9548,W,10.00,251.66,261015,,*37
$GPRMC,031200,A,4821.0329,N,431.9697,W,10.00,251.66,261015,,*39
$GPRMC,031200,A,4821.0296,N,431.9845,W,10.00,251.66,261015,,*3D
$GPRMC,031200,A,4821.0264,N,431.9993,W,10.00,251.66,261015,,*3A
$GPRMC,031200,A,4821.0231,N,432.0141,W,10.00,251.66,261015,,*37
$GPRMC,031200,A,4821.0198,N,432.0290,W,10.00,251.66,261015,,*38
$GPRMC,031200,A,4821.0165,N,432.0438,W,10.00,251.66,261015,,*3E
$GPRMC,031200,A,4821.0132,N,432.0586,W,10.00,251.66,261015,,*38
$GPRMC,031200,A,4821.0100,N,432.0735,W,10.00,251.66,261015,,*33
$GPRMC,031200,A,4821.0067,N,432.0883,W,10.00,251.66,261015,,*31
$GPRMC,031200,A,4821.0034,N,432.1031,W,10.00,251.66,261015,,*37
$GPRMC,031200,A,4821.0001,N,432.1180,W,10.00,251.66,261015,,*3A
$GPRMC,031200,A,4820.9968,N,432.1328,W,10.00,251.66,261015,,*34
$GPRMC,031200,A,4820.9936,N,432.1476,W,10.00,251.66,261015,,*33
$GPRMC,031200,A,4820.9903,N,432.1624,W,10.00,251.66,261015,,*30
$GPRMC,031200,A,4820.9870,N,432.1773,W,10.00,251.66,261015,,*36
$GPRMC,031200,A,4820.9837,N,432.1921,W,10.00,251.66,261015,,*3C
$GPRMC,031200,A,4820.9804,N,432.2069,W,10.00,251.66,261015,,*3A
$GPRMC,031200,A,4820.9771,N,432.2218,W,10.00,251.66,261015,,*33
$GPRMC,031200,A,4820.9739,N,432.2366,W,10.00,251.66,261015,,*37
$GPRMC,031200,A,4820.9706,N,432.2514,W,10.00,251.66,261015,,*38
$GPRMC,031200,A,4820.9699,N,432.2544,W,10.00,132.88,261015,,*3C
$GPRMC,031200,A,4820.9630,N,432.2432,W,10.00,132.88,261015,,*3F
$GPRMC,031200,A,4820.9560,N,432.2320,W,10.00,132.88,261015,,*3D
$GPRMC,031200,A,4820.9491,N,432.2207,W,10.00,132.88,261015,,*36
$GPRMC,031200,A,4820.9421,N,432.2095,W,10.00,132.88,261015,,*34
$GPRMC,031200,A,4820.9352,N,432.1983,W,10.00,132.88,261015,,*3A
$GPRMC,031200,A,4820.9282,N,432.1871,W,10.00,132.88,261015,,*3A
$GPRMC,031200,A,4820.9213,N,432.1758,W,10.00,132.88,261015,,*36
$GPRMC,031200,A,4820.9143,N,432.1646,W,10.00,132.88,261015,,*3E
$GPRMC,031200,A,4820.9074,N,432.1534,W,10.00,132.88,261015,,*3D
$GPRMC,031200,A,4820.9004,N,432.1421,W,10.00,132.88,261015,,*3F
$GPRMC,031200,A,4820.8935,N,432.1309,W,10.00,132.88,261015,,*38
$GPRMC,031200,A,4820.8865,N,432.1197,W,10.00,132.88,261015,,*39
$GPRMC,031200,A,4820.8796,N,432.1084,W,10.00,132.88,261015,,*39
$GPRMC,031200,A,4820.8726,N,432.0972,W,10.00,132.88,261015,,*33
$GPRMC,031200,A,4820.8657,N,432.0860,W,10.00,132.88,261015,,*36
$GPRMC,031200,A,4820.8587,N,432.0748,W,10.00,132.88,261015,,*3D
$GPRMC,031200,A,4820.8518,N,432.0635,W,10.00,132.88,261015,,*30
$GPRMC,031200,A,4820.8448,N,432.0523,W,10.00,132.88,261015,,*30
$GPRMC,031200,A,4820.8379,N,432.0411,W,10.00,132.88,261015,,*35
$GPRMC,031200,A,4820.8309,N,432.0298,W,10.00,132.88,261015,,*35
$GPRMC,031200,A,4820.8240,N,432.0186,W,10.00,132.88,261015,,*35
$GPRMC,031200,A,4820.8170,N,432.0074,W,10.00,132.88,261015,,*39
$GPRMC,031200,A,4820.8101,N,431.9961,W,10.00,132.88,261015,,*38
$GPRMC,031200,A,4820.8031,N,431.9849,W,10.00,132.88,261015,,*31
$GPRMC,031200,A,4820.7962,N,431.9737,W,10.00,132.88,261015,,*37
$GPRMC,031200,A,4820.7892,N,431.9625,W,10.00,132.88,261015,,*3B
$GPRMC,031200,A,4820.7822,N,431.9512,W,10.00,132.88,261015,,*37
$GPRMC,031200,A,4820.7753,N,431.9400,W,10.00,132.88,261015,,*3C
$GPRMC,031200,A,4820.7683,N,431.9288,W,10.00,132.88,261015,,*36
$GPRMC,031200,A,4820.7614,N,431.9175,W,10.00,132.88,261015,,*39
$GPRMC,031200,A,4820.7544,N,431.9063,W,10.00,132.88,261015,,*39
$GPRMC,031200,A,4820.7475,N,431.8951,W,10.00,132.88,261015,,*33
$GPRMC,031200,A,4820.7405,N,431.8839,W,10.00,132.88,261015,,*3B
$GPRMC,031200,A,4820.7336,N,431.8726,W,10.00,132.88,261015,,*3D
$GPRMC,031200,A,4820.7266,N,431.8614,W,10.00,132.88,261015,,*39
$GPRMC,031200,A,4820.7197,N,431.8502,W,10.00,132.88,261015,,*30
$GPRMC,031200,A,4820.7127,N,431.8389,W,10.00,132.88,261015,,*3E
$GPRMC,031200,A,4820.7058,N,431.8277,W,10.00,132.88,261015,,*37
$GPRMC,031200,A,4820.6988,N,431.8165,W,10.00,132.88,261015,,*32
$GPRMC,031200,A,4820.6919,N,431.8053,W,10.00,132.88,261015,,*3E
$GPRMC,031200,A,4820.6849,N,431.7940,W,10.00,132.88,261015,,*3E
$GPRMC,031200,A,4820.6780,N,431.7828,W,10.00,132.88,261015,,*3B
$GPRMC,031200,A,4820.6710,N,431.7716,W,10.00,132.88,261015,,*30
$GPRMC,031200,A,4820.6641,N,431.7603,W,10.00,132.88,261015,,*30
$GPRMC,031200,A,4820.6571,N,431.7491,W,10.00,132.88,261015,,*39
$GPRMC,031200,A,4820.6502,N,431.7379,W,10.00,132.88,261015,,*3C
$GPRMC,031200,A,4820.6432,N,431.7267,W,10.00,132.88,261015,,*30
$GPRMC,031200,A,4820.6363,N,431.7154,W,10.00,132.88,261015,,*30
$GPRMC,031200,A,4820.6293,N,431.7042,W,10.00,132.88,261015,,*38
$GPRMC,031200,A,4820.6224,N,431.6930,W,10.00,132.88,261015,,*39
$GPRMC,031200,A,4820.6154,N,431.6817,W,10.00,132.88,261015,,*39
$GPRMC,031200,A,4820.6085,N,431.6705,W,10.00,132.88,261015,,*38
$GPRMC,031200,A,4820.6015,N,431.6593,W,10.00,132.88,261015,,*3C
$GPRMC,031200,A,4820.5946,N,431.6481,W,10.00,132.88,261015,,*32
$GPRMC,031200,A,4820.5876,N,431.6368,W,10.00,132.88,261015,,*30
$GPRMC,031200,A,4820.5807,N,431.6256,W,10.00,132.88,261015,,*3A
$GPRMC,031200,A,4820.5737,N,431.6144,W,10.00,132.88,261015,,*36
$GPRMC,031200,A,4820.5668,N,431.6032,W,10.00,132.88,261015,,*3D
$GPRMC,031200,A,4820.5598,N,431.5919,W,10.00,132.88,261015,,*32
$GPRMC,031200,A,4820.5529,N,431.5807,W,10.00,132.88,261015,,*36
$GPRMC,031200,A,4820.5459,N,431.5695,W,10.00,132.88,261015,,*35
$GPRMC,031200,A,4820.5390,N,431.5582,W,10.00,132.88,261015,,*32
$GPRMC,031200,A,4820.5320,N,431.5470,W,10.00,132.88,261015,,*35
$GPRMC,031200,A,4820.5251,N,431.5358,W,10.00,132.88,261015,,*3F
$GPRMC,031200,A,4820.5181,N,431.5246,W,10.00,132.88,261015,,*3F
$GPRMC,031200,A,4820.5112,N,431.5133,W,10.00,132.88,261015,,*34
$GPRMC,031200,A,4820.5042,N,431.5021,W,10.00,132.88,261015,,*32
$GPRMC,031200,A,4820.4973,N,431.4909,W,10.00,132.88,261015,,*3A
$GPRMC,031200,A,4820.4903,N,431.4797,W,10.00,132.88,261015,,*34
$GPRMC,031200,A,4820.4834,N,431.4684,W,10.00,132.88,261015,,*32
$GPRMC,031200,A,4820.4764,N,431.4572,W,10.00,132.88,261015,,*32
$GPRMC,031200,A,4820.4694,N,431.4460,W,10.00,132.88,261015,,*3E
$GPRMC,031200,A,4820.4625,N,431.4347,W,10.00,132.88,261015,,*36
$GPRMC,031200,A,4820.4555,N,431.4235,W,10.00,132.88,261015,,*36
$GPRMC,031200,A,4820.4486,N,431.4123,W,10.00,132.88,261015,,*3D
$GPRMC,031200,A,4820.4416,N,431.4011,W,10.00,132.88,261015,,*34
$GPRMC,031200,A,4820.4347,N,431.3898,W,10.00,132.88,261015,,*39
$GPRMC,031200,A,4820.4277,N,431.3786,W,10.00,132.88,261015,,*3B
$GPRMC,031200,A,4820.4208,N,431.3674,W,10.00,132.88,261015,,*3F
$GPRMC,031200,A,4820.4138,N,431.3562,W,10.00,132.88,261015,,*3B
$GPRMC,031200,A,4820.4069,N,431.3449,W,10.00,132.88,261015,,*36
$GPRMC,031200,A,4820.3999,N,431.3337,W,10.00,132.88,261015,,*39
$GPRMC,031200,A,4820.3930,N,431.3225,W,10.00,132.88,261015,,*38
$GPRMC,031200,A,4820.3860,N,431.3113,W,10.00,132.88,261015,,*3A
$GPRMC,031200,A,4820.3791,N,431.3000,W,10.00,132.88,261015,,*38
$GPRMC,031200,A,4820.3721,N,431.2888,W,10.00,132.88,261015,,*3A
$GPRMC,031200,A,4820.3652,N,431.2776,W,10.00,132.88,261015,,*31
$GPRMC,031200,A,4820.3582,N,431.2663,W,10.00,132.88,261015,,*3A
$GPRMC,031200,A,4820.3513,N,431.2551,W,10.00,132.88,261015,,*30
$GPRMC,031200,A,4820.3443,N,431.2439,W,10.00,132.88,261015,,*3B
$GPRMC,031200,A,4820.3374,N,431.2327,W,10.00,132.88,261015,,*30
$GPRMC,031200,A,4820.3304,N,431.2214,W,10.00,132.88,261015,,*36
$GPRMC,031200,A,4820.3235,N,431.2102,W,10.00,132.88,261015,,*31
$GPRMC,031200,A,4820.3165,N,431.1990,W,10.00,132.88,261015,,*37
$GPRMC,031200,A,4820.3096,N,431.1878,W,10.00,132.88,261015,,*3D
$GPRMC,031200,A,4820.3026,N,431.1765,W,10.00,132.88,261015,,*35
$GPRMC,031200,A,4820.2957,N,431.1653,W,10.00,132.88,261015,,*3F
$GPRMC,031200,A,4820.2887,N,431.1541,W,10.00,132.88,261015,,*33
$GPRMC,031200,A,4820.2818,N,431.1429,W,10.00,132.88,261015,,*3A
$GPRMC,031200,A,4820.2748,N,431.1316,W,10.00,132.88,261015,,*3B
$GPRMC,031200,A,4820.2678,N,431.1204,W,10.00,132.88,261015,,*3B
$GPRMC,031200,A,4820.2609,N,431.1092,W,10.00,132.88,261015,,*30
$GPRMC,031200,A,4820.2539,N,431.0980,W,10.00,132.88,261015,,*3B
$GPRMC,031200,A,4820.2470,N,431.0867,W,10.00,132.88,261015,,*3F
$GPRMC,031200,A,4820.2400,N,431.0755,W,10.00,132.88,261015,,*36
$GPRMC,031200,A,4820.2331,N,431.0643,W,10.00,132.88,261015,,*35
$GPRMC,031200,A,4820.2261,N,431.0531,W,10.00,132.88,261015,,*37
$GPRMC,031200,A,4820.2192,N,431.0418,W,10.00,132.88,261015,,*32
$GPRMC,031200,A,4820.2122,N,431.0306,W,10.00,132.88,261015,,*31
$GPRMC,031200,A,4820.2053,N,431.0194,W,10.00,132.88,261015,,*3F
$GPRMC,031200,A,4820.1983,N,431.0082,W,10.00,132.88,261015,,*3E
$GPRMC,031200,A,4820.1914,N,430.9969,W,10.00,132.88,261015,,*34
$GPRMC,031200,A,4820.1844,N,430.9857,W,10.00,132.88,261015,,*3C
$GPRMC,031200,A,4820.1775,N,430.9745,W,10.00,132.88,261015,,*3D
$GPRMC,031200,A,4820.1705,N,430.9633,W,10.00,132.88,261015,,*3A
$GPRMC,031200,A,4820.1636,N,430.9520,W,10.00,132.88,261015,,*3A
$GPRMC,031200,A,4820.1566,N,430.9408,W,10.00,132.88,261015,,*37
$GPRMC,031200,A,4820.1497,N,430.9296,W,10.00,132.88,261015,,*39
$GPRMC,031200,A,4820.1427,N,430.9184,W,10.00,132.88,261015,,*32
$GPRMC,031200,A,4820.1358,N,430.9071,W,10.00,132.88,261015,,*36
$GPRMC,031200,A,4820.1288,N,430.8959,W,10.00,132.88,261015,,*38
$GPRMC,031200,A,4820.1218,N,430.8847,W,10.00,132.88,261015,,*3F
$GPRMC,031200,A,4820.1149,N,430.8735,W,10.00,132.88,261015,,*32
$GPRMC,031200,A,4820.1079,N,430.8622,W,10.00,132.88,261015,,*37
$GPRMC,031200,A,4820.1010,N,430.8510,W,10.00,132.88,261015,,*3A
$GPRMC,031200,A,4820.0940,N,430.8398,W,10.00,132.88,261015,,*31
$GPRMC,031200,A,4820.0871,N,430.8286,W,10.00,132.88,261015,,*3C
$GPRMC,031200,A,4820.0801,N,430.8173,W,10.00,132.88,261015,,*32
$GPRMC,031200,A,4820.0732,N,430.8061,W,10.00,132.88,261015,,*3F
$GPRMC,031200,A,4820.0662,N,430.7949,W,10.00,132.88,261015,,*37
$GPRMC,031200,A,4820.0593,N,430.7837,W,10.00,132.88,261015,,*32
$GPRMC,031200,A,4820.0523,N,430.7725,W,10.00,132.88,261015,,*35
$GPRMC,031200,A,4820.0454,N,430.7612,W,10.00,132.88,261015,,*31
$GPRMC,031200,A,4820.0384,N,430.7500,W,10.00,132.88,261015,,*3B
$GPRMC,031200,A,4820.0315,N,430.7388,W,10.00,132.88,261015,,*35
$GPRMC,031200,A,4820.0245,N,430.7276,W,10.00,132.88,261015,,*31
$GPRMC,031200,A,4820.0176,N,430.7163,W,10.00,132.88,261015,,*35
$GPRMC,031200,A,4820.0106,N,430.7051,W,10.00,132.88,261015,,*32
$GPRMC,031200,A,4820.0037,N,430.6939,W,10.00,132.88,261015,,*37
$GPRMC,031200,A,4820.0001,N,430.6881,W,10.00,147.65,261015,,*31
$GPRMC,031200,A,4819.9847,N,430.6735,W,10.00,147.65,261015,,*38
$GPRMC,031200,A,4819.9693,N,430.6588,W,10.00,147.65,261015,,*3B
$GPRMC,031200,A,4819.9539,N,430.6442,W,10.00,147.65,261015,,*3F
$GPRMC,031200,A,4819.9385,N,430.6296,W,10.00,147.65,261015,,*31
$GPRMC,031200,A,4819.9231,N,430.6150,W,10.00,147.65,261015,,*36
$GPRMC,031200,A,4819.9077,N,430.6003,W,10.00,147.65,261015,,*31
$GPRMC,031200,A,4819.8923,N,430.5857,W,10.00,147.65,261015,,*32
$GPRMC,031200,A,4819.8769,N,430.5711,W,10.00,147.65,261015,,*3F
$GPRMC,031200,A,4819.8615,N,430.5564,W,10.00,147.65,261015,,*35
$GPRMC,031200,A,4819.8461,N,430.5418,W,10.00,147.65,261015,,*3E
$GPRMC,031200,A,4819.8307,N,430.5272,W,10.00,147.65,261015,,*33
$GPRMC,031200,A,4819.8153,N,430.5126,W,10.00,147.65,261015,,*32
$GPRMC,031200,A,4819.7999,N,430.4979,W,10.00,147.65,261015,,*30
$GPRMC,031200,A,4819.7845,N,430.4833,W,10.00,147.65,261015,,*3F
$GPRMC,031200,A,4819.7691,N,430.4687,W,10.00,147.65,261015,,*39
$GPRMC,031200,A,4819.7537,N,430.4541,W,10.00,147.65,261015,,*3F
$GPRMC,031200,A,4819.7383,N,430.4394,W,10.00,147.65,261015,,*38
$GPRMC,031200,A,4819.7229,N,430.4248,W,10.00,147.65,261015,,*39
$GPRMC,031200,A,4819.7075,N,430.4102,W,10.00,147.65,261015,,*3F
$GPRMC,031200,A,4819.6921,N,430.3955,W,10.00,147.65,261015,,*3B
$GPRMC,031200,A,4819.6767,N,430.3809,W,10.00,147.65,261015,,*3F
$GPRMC,031200,A,4819.6613,N,430.3663,W,10.00,147.65,261015,,*3F
$GPRMC,031200,A,4819.6459,N,430.3517,W,10.00,147.65,261015,,*33
$GPRMC,031200,A,4819.6305,N,430.3370,W,10.00,147.65,261015,,*3A
$GPRMC,031200,A,4819.6151,N,430.3224,W,10.00,147.65,261015,,*39
$GPRMC,031200,A,4819.5997,N,430.3078,W,10.00,147.65,261015,,*33
$GPRMC,031200,A,4819.5843,N,430.2932,W,10.00,147.65,261015,,*3D
$GPRMC,031200,A,4819.5689,N,430.2785,W,10.00,147.65,261015,,*37
$GPRMC,031200,A,4819.5535,N,430.2639,W,10.00,147.65,261015,,*35
$GPRMC,031200,A,4819.5381,N,430.2493,W,10.00,147.65,261015,,*3E
$GPRMC,031200,A,4819.5227,N,430.2347,W,10.00,147.65,261015,,*3D
$GPRMC,031200,A,4819.5073,N,430.2200,W,10.00,147.65,261015,,*3C
$GPRMC,031200,A,4819.4919,N,430.2054,W,10.00,147.65,261015,,*3B
$GPRMC,031200,A,4819.4765,N,430.1908,W,10.00,147.65,261015,,*3D
$GPRMC,031200,A,4819.4611,N,430.1762,W,10.00,147.65,261015,,*3D
$GPRMC,031200,A,4819.4457,N,430.1615,W,10.00,147.65,261015,,*3C
$GPRMC,031200,A,4819.4303,N,430.1469,W,10.00,147.65,261015,,*33
$GPRMC,031200,A,4819.4149,N,430.1323,W,10.00,147.65,261015,,*36
$GPRMC,031200,A,4819.3995,N,430.1177,W,10.00,147.65,261015,,*3B
$GPRMC,031200,A,4819.3841,N,430.1031,W,10.00,147.65,261015,,*30
$GPRMC,031200,A,4819.3687,N,430.0884,W,10.00,147.65,261015,,*33
$GPRMC,031200,A,4819.3533,N,430.0738,W,10.00,147.65,261015,,*37
$GPRMC,031200,A,4819.3379,N,430.0592,W,10.00,147.65,261015,,*3D
$GPRMC,031200,A,4819.3254,N,430.0473,W,10.00,34.67,261015,,*0A
$GPRMC,031200,A,4819.3348,N,430.0376,W,10.00,34.67,261015,,*04
$GPRMC,031200,A,4819.3443,N,430.0278,W,10.00,34.67,261015,,*07
$GPRMC,031200,A,4819.3537,N,430.0180,W,10.00,34.67,261015,,*01
$GPRMC,031200,A,4819.3632,N,430.0082,W,10.00,34.67,261015,,*04
$GPRMC,031200,A,4819.3726,N,429.9984,W,10.00,34.67,261015,,*0E
$GPRMC,031200,A,4819.3820,N,429.9886,W,10.00,34.67,261015,,*04
$GPRMC,031200,A,4819.3915,N,429.9788,W,10.00,34.67,261015,,*02
$GPRMC,031200,A,4819.4009,N,429.9690,W,10.00,34.67,261015,,*09
$GPRMC,031200,A,4819.4103,N,429.9592,W,10.00,34.67,261015,,*03
$GPRMC,031200,A,4819.4198,N,429.9495,W,10.00,34.67,261015,,*07
$GPRMC,031200,A,4819.4292,N,429.9397,W,10.00,34.67,261015,,*0B
$GPRMC,031200,A,4819.4387,N,429.9299,W,10.00,34.67,261015,,*01
$GPRMC,031200,A,4819.4481,N,429.9201,W,10.00,34.67,261015,,*01
$GPRMC,031200,A,4819.4575,N,429.9103,W,10.00,34.67,261015,,*0A
$GPRMC,031200,A,4819.4670,N,429.9005,W,10.00,34.67,261015,,*0B
$GPRMC,031200,A,4819.4764,N,429.8907,W,10.00,34.67,261015,,*05
$GPRMC,031200,A,4819.4858,N,429.8809,W,10.00,34.67,261015,,*0A
$GPRMC,031200,A,4819.4953,N,429.8711,W,10.00,34.67,261015,,*06
$GPRMC,031200,A,4819.5047,N,429.8613,W,10.00,34.67,261015,,*08
$GPRMC,031200,A,4819.5142,N,429.8516,W,10.00,34.67,261015,,*0A
$GPRMC,031200,A,4819.5236,N,429.8418,W,10.00,34.67,261015,,*05
$GPRMC,031200,A,4819.5330,N,429.8320,W,10.00,34.67,261015,,*0E
$GPRMC,031200,A,4819.5425,N,429.8222,W,10.00,34.67,261015,,*0E
$GPRMC,031200,A,4819.5519,N,429.8124,W,10.00,34.67,261015,,*05
$GPRMC,031200,A,4819.5614,N,429.8026,W,10.00,34.67,261015,,*08
$GPRMC,031200,A,4819.5708,N,429.7928,W,10.00,34.67,261015,,*0C
$GPRMC,031200,A,4819.5802,N,429.7830,W,10.00,34.67,261015,,*01
$GPRMC,031200,A,4819.5897,N,429.7732,W,10.00,34.67,261015,,*00
$GPRMC,031200,A,4819.5991,N,429.7634,W,10.00,34.67,261015,,*00
$GPRMC,031200,A,4819.6085,N,429.7537,W,10.00,34.67,261015,,*0F
$GPRMC,031200,A,4819.6180,N,429.7439,W,10.00,34.67,261015,,*04
$GPRMC,031200,A,4819.6274,N,429.7341,W,10.00,34.67,261015,,*04
$GPRMC,031200,A,4819.6369,N,429.7243,W,10.00,34.67,261015,,*0A
$GPRMC,031200,A,4819.6463,N,429.7145,W,10.00,34.67,261015,,*02
$GPRMC,031200,A,4819.6557,N,429.7047,W,10.00,34.67,261015,,*07
$GPRMC,031200,A,4819.6652,N,429.6949,W,10.00,34.67,261015,,*07
$GPRMC,031200,A,4819.6746,N,429.6851,W,10.00,34.67,261015,,*0B
$GPRMC,031200,A,4819.6840,N,429.6753,W,10.00,34.67,261015,,*0F
$GPRMC,031200,A,4819.6935,N,429.6655,W,10.00,34.67,261015,,*0B
$GPRMC,031200,A,4819.7029,N,429.6557,W,10.00,34.67,261015,,*0F
$GPRMC,031200,A,4819.7124,N,429.6460,W,10.00,34.67,261015,,*06
$GPRMC,031200,A,4819.7218,N,429.6362,W,10.00,34.67,261015,,*0F
$GPRMC,031200,A,4819.7312,N,429.6264,W,10.00,34.67,261015,,*03
$GPRMC,031200,A,4819.7407,N,429.6166,W,10.00,34.67,261015,,*01
$GPRMC,031200,A,4819.7501,N,429.6068,W,10.00,34.67,261015,,*09
$GPRMC,031200,A,4819.7595,N,429.5970,W,10.00,34.67,261015,,*07
$GPRMC,031200,A,4819.7690,N,429.5872,W,10.00,34.67,261015,,*02
$GPRMC,031200,A,4819.7784,N,429.5774,W,10.00,34.67,261015,,*0F
$GPRMC,031200,A,4819.7879,N,429.5676,W,10.00,34.67,261015,,*01
$GPRMC,031200,A,4819.7973,N,429.5578,W,10.00,34.67,261015,,*07
$GPRMC,031200,A,4819.8067,N,429.5480,W,10.00,34.67,261015,,*02
$GPRMC,031200,A,4819.8162,N,429.5383,W,10.00,34.67,261015,,*02
$GPRMC,031200,A,4819.8256,N,429.5285,W,10.00,34.67,261015,,*01
$GPRMC,031200,A,4819.8350,N,429.5187,W,10.00,34.67,261015,,*07
$GPRMC,031200,A,4819.8445,N,429.5089,W,10.00,34.67,261015,,*0B
$GPRMC,031200,A,4819.8539,N,429.4991,W,10.00,34.67,261015,,*00
$GPRMC,031200,A,4819.8634,N,429.4893,W,10.00,34.67,261015,,*0D
$GPRMC,031200,A,4819.8728,N,429.4795,W,10.00,34.67,261015,,*08
$GPRMC,031200,A,4819.8822,N,429.4697,W,10.00,34.67,261015,,*0E
$GPRMC,031200,A,4819.8917,N,429.4599,W,10.00,34.67,261015,,*04
$GPRMC,031200,A,4819.9011,N,429.4501,W,10.00,34.67,261015,,*0B
$GPRMC,031200,A,4819.9105,N,429.4403,W,10.00,34.67,261015,,*0C
$GPRMC,031200,A,4819.9200,N,429.4305,W,10.00,34.67,261015,,*0B
$GPRMC,031200,A,4819.9294,N,429.4207,W,10.00,34.67,261015,,*05
$GPRMC,031200,A,4819.9389,N,429.4110,W,10.00,34.67,261015,,*0D
$GPRMC,031200,A,4819.9483,N,429.4012,W,10.00,34.67,261015,,*03
$GPRMC,031200,A,4819.9577,N,429.3914,W,10.00,34.67,261015,,*01
$GPRMC,031200,A,4819.9672,N,429.3816,W,10.00,34.67,261015,,*04
$GPRMC,031200,A,4819.9766,N,429.3718,W,10.00,34.67,261015,,*01
$GPRMC,031200,A,4819.9860,N,429.3620,W,10.00,34.67,261015,,*02
$GPRMC,031200,A,4819.9955,N,429.3522,W,10.00,34.67,261015,,*04
$GPRMC,031200,A,4820.0049,N,429.3424,W,10.00,34.67,261015,,*04
$GPRMC,031200,A,4820.0144,N,429.3326,W,10.00,34.67,261015,,*0D
$GPRMC,031200,A,4820.0238,N,429.3228,W,10.00,34.67,261015,,*0A
$GPRMC,031200,A,4820.0332,N,429.3130,W,10.00,34.67,261015,,*0B
$GPRMC,031200,A,4820.0427,N,429.3032,W,10.00,34.67,261015,,*0B
$GPRMC,031200,A,4820.0521,N,429.2934,W,10.00,34.67,261015,,*02
$GPRMC,031200,A,4820.0615,N,429.2836,W,10.00,34.67,261015,,*05
$GPRMC,031200,A,4820.0710,N,429.2739,W,10.00,34.67,261015,,*01
$GPRMC,031200,A,4820.0804,N,429.2641,W,10.00,34.67,261015,,*05
$GPRMC,031200,A,4820.0899,N,429.2543,W,10.00,34.67,261015,,*00
$GPRMC,031200,A,4820.0993,N,429.2445,W,10.00,34.67,261015,,*0C
$GPRMC,031200,A,4820.1087,N,429.2347,W,10.00,34.67,261015,,*04
$GPRMC,031200,A,4820.1182,N,429.2249,W,10.00,34.67,261015,,*0F
$GPRMC,031200,A,4820.1276,N,429.2151,W,10.00,34.67,261015,,*0D
$GPRMC,031200,A,4820.1370,N,429.2053,W,10.00,34.67,261015,,*09
$GPRMC,031200,A,4820.1465,N,429.1955,W,10.00,34.67,261015,,*06
$GPRMC,031200,A,4820.1559,N,429.1857,W,10.00,34.67,261015,,*0B
$GPRMC,031200,A,4820.1654,N,429.1759,W,10.00,34.67,261015,,*04
$GPRMC,031200,A,4820.1748,N,429.1661,W,10.00,34.67,261015,,*02
$GPRMC,031200,A,4820.1842,N,429.1563,W,10.00,34.67,261015,,*06
$GPRMC,031200,A,4820.1937,N,429.1465,W,10.00,34.67,261015,,*02
$GPRMC,031200,A,4820.2031,N,429.1367,W,10.00,34.67,261015,,*0B
$GPRMC,031200,A,4820.2125,N,429.1269,W,10.00,34.67,261015,,*00
$GPRMC,031200,A,4820.2220,N,429.1172,W,10.00,34.67,261015,,*0F
$GPRMC,031200,A,4820.2314,N,429.1074,W,10.00,34.67,261015,,*0E
$GPRMC,031200,A,4820.2409,N,429.0976,W,10.00,34.67,261015,,*0F
$GPRMC,031200,A,4820.2503,N,429.0878,W,10.00,34.67,261015,,*0B
$GPRMC,031200,A,4820.2597,N,429.0780,W,10.00,34.67,261015,,*0E
$GPRMC,031200,A,4820.2692,N,429.0682,W,10.00,34.67,261015,,*0B
$GPRMC,031200,A,4820.2786,N,429.0584,W,10.00,34.67,261015,,*0A
$GPRMC,031200,A,4820.2880,N,429.0486,W,10.00,34.67,261015,,*00
$GPRMC,031200,A,4820.2975,N,429.0388,W,10.00,34.67,261015,,*02
$GPRMC,031200,A,4820.3069,N,429.0290,W,10.00,34.67,261015,,*0F
$GPRMC,031200,A,4820.3163,N,429.0192,W,10.00,34.67,261015,,*05
$GPRMC,031200,A,4820.3258,N,429.0094,W,10.00,34.67,261015,,*09
$GPRMC,031200,A,4820.3352,N,428.9996,W,10.00,34.67,261015,,*01
$GPRMC,031200,A,4820.3447,N,428.9898,W,10.00,34.67,261015,,*0D
$GPRMC,031200,A,4820.3541,N,428.9800,W,10.00,34.67,261015,,*0B
$GPRMC,031200,A,4820.3635,N,428.9702,W,10.00,34.67,261015,,*06
