$GPRMC,105052,A,4824.2215,N,433.1990,W,10.00,168.37,251015,,*3F
$GPRMC,105052,A,4824.2133,N,433.1965,W,10.00,168.37,251015,,*32
$GPRMC,105052,A,4824.2051,N,433.1939,W,10.00,168.37,251015,,*3E
$GPRMC,105052,A,4824.1969,N,433.1914,W,10.00,168.37,251015,,*30
$GPRMC,105052,A,4824.1887,N,433.1889,W,10.00,168.37,251015,,*34
$GPRMC,105052,A,4824.1805,N,433.1863,W,10.00,168.37,251015,,*3A
$GPRMC,105052,A,4824.1723,N,433.1838,W,10.00,168.37,251015,,*3F
$GPRMC,105052,A,4824.1641,N,433.1812,W,10.00,168.37,251015,,*32
$GPRMC,105052,A,4824.1559,N,433.1787,W,10.00,168.37,251015,,*3B
$GPRMC,105052,A,4824.1477,N,433.1762,W,10.00,168.37,251015,,*3D
$GPRMC,105052,A,4824.1395,N,433.1736,W,10.00,168.37,251015,,*37
$GPRMC,105052,A,4824.1313,N,433.1711,W,10.00,168.37,251015,,*3C
$GPRMC,105052,A,4824.1231,N,433.1686,W,10.00,168.37,251015,,*32
$GPRMC,105052,A,4824.1149,N,433.1660,W,10.00,168.37,251015,,*36
$GPRMC,105052,A,4824.1066,N,433.1635,W,10.00,168.37,251015,,*3A
$GPRMC,105052,A,4824.0984,N,433.1610,W,10.00,168.37,251015,,*39
$GPRMC,105052,A,4824.0902,N,433.1584,W,10.00,168.37,251015,,*39
$GPRMC,105052,A,4824.0820,N,433.1559,W,10.00,168.37,251015,,*38
$GPRMC,105052,A,4824.0738,N,433.1533,W,10.00,168.37,251015,,*32
$GPRMC,105052,A,4824.0656,N,433.1508,W,10.00,168.37,251015,,*33
$GPRMC,105052,A,4824.0574,N,433.1483,W,10.00,168.37,251015,,*32
$GPRMC,105052,A,4824.0492,N,433.1457,W,10.00,168.37,251015,,*32
$GPRMC,105052,A,4824.0410,N,433.1432,W,10.00,168.37,251015,,*3B
$GPRMC,105052,A,4824.0328,N,433.1407,W,10.00,168.37,251015,,*31
$GPRMC,105052,A,4824.0246,N,433.1381,W,10.00,168.37,251015,,*31
$GPRMC,105052,A,4824.0164,N,433.1356,W,10.00,168.37,251015,,*38
$GPRMC,105052,A,4824.0082,N,433.1331,W,10.00,168.37,251015,,*30
$GPRMC,105052,A,4824.0000,N,433.1305,W,10.00,168.37,251015,,*3D
$GPRMC,105052,A,4823.9918,N,433.1280,W,10.00,168.37,251015,,*3F
$GPRMC,105052,A,4823.9836,N,433.1255,W,10.00,168.37,251015,,*3A
$GPRMC,105052,A,4823.9754,N,433.1229,W,10.00,168.37,251015,,*3A
$GPRMC,105052,A,4823.9672,N,433.1204,W,10.00,168.37,251015,,*30
$GPRMC,105052,A,4823.9589,N,433.1178,W,10.00,168.37,251015,,*3F
$GPRMC,105052,A,4823.9507,N,433.1153,W,10.00,168.37,251015,,*30
$GPRMC,105052,A,4823.9425,N,433.1128,W,10.00,168.37,251015,,*3D
$GPRMC,105052,A,4823.9343,N,433.1102,W,10.00,168.37,251015,,*32
$GPRMC,105052,A,4823.9261,N,433.1077,W,10.00,168.37,251015,,*30
$GPRMC,105052,A,4823.9179,N,433.1052,W,10.00,168.37,251015,,*3D
$GPRMC,105052,A,4823.9097,N,433.1026,W,10.00,168.37,251015,,*3F
$GPRMC,105052,A,4823.9015,N,433.1001,W,10.00,168.37,251015,,*30
$GPRMC,105052,A,4823.8933,N,433.0976,W,10.00,168.37,251015,,*34
$GPRMC,105052,A,4823.8851,N,433.0950,W,10.00,168.37,251015,,*35
$GPRMC,105052,A,4823.8769,N,433.0925,W,10.00,168.37,251015,,*33
$GPRMC,105052,A,4823.8687,N,433.0899,W,10.00,168.37,251015,,*34
$GPRMC,105052,A,4823.8605,N,433.0874,W,10.00,168.37,251015,,*3D
$GPRMC,105052,A,4823.8523,N,433.0849,W,10.00,168.37,251015,,*34
$GPRMC,105052,A,4823.8441,N,433.0823,W,10.00,168.37,251015,,*3D
$GPRMC,105052,A,4823.8359,N,433.0798,W,10.00,168.37,251015,,*3C
$GPRMC,105052,A,4823.8277,N,433.0773,W,10.00,168.37,251015,,*34
$GPRMC,105052,A,4823.8195,N,433.0747,W,10.00,168.37,251015,,*3C
$GPRMC,105052,A,4823.8112,N,433.0722,W,10.00,168.37,251015,,*30
$GPRMC,105052,A,4823.8030,N,433.0697,W,10.00,168.37,251015,,*3E
$GPRMC,105052,A,4823.7948,N,433.0671,W,10.00,168.37,251015,,*3F
$GPRMC,105052,A,4823.7866,N,433.0646,W,10.00,168.37,251015,,*36
$GPRMC,105052,A,4823.7784,N,433.0621,W,10.00,168.37,251015,,*34
$GPRMC,105052,A,4823.7702,N,433.0595,W,10.00,168.37,251015,,*36
$GPRMC,105052,A,4823.7620,N,433.0570,W,10.00,168.37,251015,,*3C
$GPRMC,105052,A,4823.7538,N,433.0545,W,10.00,168.37,251015,,*30
$GPRMC,105052,A,4823.7456,N,433.0519,W,10.00,168.37,251015,,*30
$GPRMC,105052,A,4823.7374,N,433.0494,W,10.00,168.37,251015,,*33
$GPRMC,105052,A,4823.7292,N,433.0468,W,10.00,168.37,251015,,*39
$GPRMC,105052,A,4823.7210,N,433.0443,W,10.00,168.37,251015,,*3A
$GPRMC,105052,A,4823.7128,N,433.0418,W,10.00,168.37,251015,,*3C
$GPRMC,105052,A,4823.7046,N,433.0392,W,10.00,168.37,251015,,*30
$GPRMC,105052,A,4823.6964,N,433.0367,W,10.00,168.37,251015,,*32
$GPRMC,105052,A,4823.6882,N,433.0342,W,10.00,168.37,251015,,*3C
$GPRMC,105052,A,4823.6800,N,433.0316,W,10.00,168.37,251015,,*37
$GPRMC,105052,A,4823.6718,N,433.0291,W,10.00,168.37,251015,,*3F
$GPRMC,105052,A,4823.6635,N,433.0266,W,10.00,168.37,251015,,*39
$GPRMC,105052,A,4823.6553,N,433.0240,W,10.00,168.37,251015,,*3E
$GPRMC,105052,A,4823.6471,N,433.0215,W,10.00,168.37,251015,,*3F
$GPRMC,105052,A,4823.6389,N,433.0190,W,10.00,168.37,251015,,*31
$GPRMC,105052,A,4823.6307,N,433.0164,W,10.00,168.37,251015,,*3C
$GPRMC,105052,A,4823.6225,N,433.0139,W,10.00,168.37,251015,,*35
$GPRMC,105052,A,4823.6143,N,433.0113,W,10.00,168.37,251015,,*3E
$GPRMC,105052,A,4823.6061,N,433.0088,W,10.00,168.37,251015,,*3C
$GPRMC,105052,A,4823.5979,N,433.0063,W,10.00,168.37,251015,,*3A
$GPRMC,105052,A,4823.5897,N,433.0037,W,10.00,168.37,251015,,*3A
$GPRMC,105052,A,4823.5815,N,433.0012,W,10.00,168.37,251015,,*37
$GPRMC,105052,A,4823.5733,N,432.9987,W,10.00,168.37,251015,,*31
$GPRMC,105052,A,4823.5651,N,432.9961,W,10.00,168.37,251015,,*3C
$GPRMC,105052,A,4823.5569,N,432.9936,W,10.00,168.37,251015,,*36
$GPRMC,105052,A,4823.5487,N,432.9911,W,10.00,168.37,251015,,*32
$GPRMC,105052,A,4823.5405,N,432.9885,W,10.00,168.37,251015,,*34
$GPRMC,105052,A,4823.5323,N,432.9860,W,10.00,168.37,251015,,*3C
$GPRMC,105052,A,4823.5241,N,432.9835,W,10.00,168.37,251015,,*39
$GPRMC,105052,A,4823.5158,N,432.9809,W,10.00,168.37,251015,,*3D
$GPRMC,105052,A,4823.5076,N,432.9784,W,10.00,168.37,251015,,*3A
$GPRMC,105052,A,4823.4994,N,432.9759,W,10.00,168.37,251015,,*3E
$GPRMC,105052,A,4823.4912,N,432.9733,W,10.00,168.37,251015,,*3C
$GPRMC,105052,A,4823.4830,N,432.9708,W,10.00,168.37,251015,,*35
$GPRMC,105052,A,4823.4748,N,432.9682,W,10.00,168.37,251015,,*36
$GPRMC,105052,A,4823.4666,N,432.9657,W,10.00,168.37,251015,,*33
$GPRMC,105052,A,4823.4584,N,432.9632,W,10.00,168.37,251015,,*3F
$GPRMC,105052,A,4823.4502,N,432.9606,W,10.00,168.37,251015,,*36
$GPRMC,105052,A,4823.4420,N,432.9581,W,10.00,168.37,251015,,*3B
$GPRMC,105052,A,4823.4338,N,432.9556,W,10.00,168.37,251015,,*3F
$GPRMC,105052,A,4823.4256,N,432.9530,W,10.00,168.37,251015,,*36
$GPRMC,105052,A,4823.4174,N,432.9505,W,10.00,168.37,251015,,*33
$GPRMC,105052,A,4823.4092,N,432.9480,W,10.00,168.37,251015,,*36
$GPRMC,105052,A,4823.4010,N,432.9454,W,10.00,168.37,251015,,*35
$GPRMC,105052,A,4823.3928,N,432.9429,W,10.00,168.37,251015,,*3A
$GPRMC,105052,A,4823.3846,N,432.9404,W,10.00,168.37,251015,,*3C
$GPRMC,105052,A,4823.3764,N,432.9378,W,10.00,168.37,251015,,*3F
$GPRMC,105052,A,4823.3681,N,432.9353,W,10.00,168.37,251015,,*3C
$GPRMC,105052,A,4823.3599,N,432.9328,W,10.00,168.37,251015,,*3A
$GPRMC,105052,A,4823.3517,N,432.9302,W,10.00,168.37,251015,,*34
$GPRMC,105052,A,4823.3435,N,432.9277,W,10.00,168.37,251015,,*36
$GPRMC,105052,A,4823.3353,N,432.9252,W,10.00,168.37,251015,,*36
$GPRMC,105052,A,4823.3271,N,432.9226,W,10.00,168.37,251015,,*34
$GPRMC,105052,A,4823.3189,N,432.9201,W,10.00,168.37,251015,,*35
$GPRMC,105052,A,4823.3107,N,432.9175,W,10.00,168.37,251015,,*33
$GPRMC,105052,A,4823.3025,N,432.9150,W,10.00,168.37,251015,,*35
$GPRMC,105052,A,4823.2943,N,432.9125,W,10.00,168.37,251015,,*3F
$GPRMC,105052,A,4823.2861,N,432.9099,W,10.00,168.37,251015,,*38
$GPRMC,105052,A,4823.2779,N,432.9074,W,10.00,168.37,251015,,*3D
$GPRMC,105052,A,4823.2697,N,432.9049,W,10.00,168.37,251015,,*32
$GPRMC,105052,A,4823.2615,N,432.9023,W,10.00,168.37,251015,,*34
$GPRMC,105052,A,4823.2533,N,432.8998,W,10.00,168.37,251015,,*3B
$GPRMC,105052,A,4823.2451,N,432.8973,W,10.00,168.37,251015,,*3B
$GPRMC,105052,A,4823.2369,N,432.8947,W,10.00,168.37,251015,,*30
$GPRMC,105052,A,4823.2286,N,432.8922,W,10.00,168.37,251015,,*33
$GPRMC,105052,A,4823.2204,N,432.8897,W,10.00,168.37,251015,,*36
$GPRMC,105052,A,4823.2122,N,432.8871,W,10.00,168.37,251015,,*39
$GPRMC,105052,A,4823.2040,N,432.8846,W,10.00,168.37,251015,,*38
$GPRMC,105052,A,4823.1958,N,432.8821,W,10.00,168.37,251015,,*3A
$GPRMC,105052,A,4823.1876,N,432.8795,W,10.00,168.37,251015,,*37
$GPRMC,105052,A,4823.1794,N,432.8770,W,10.00,168.37,251015,,*3F
$GPRMC,105052,A,4823.1712,N,432.8745,W,10.00,168.37,251015,,*37
$GPRMC,105052,A,4823.1630,N,432.8719,W,10.00,168.37,251015,,*3F
$GPRMC,105052,A,4823.1548,N,432.8694,W,10.00,168.37,251015,,*37
$GPRMC,105052,A,4823.1466,N,432.8669,W,10.00,168.37,251015,,*38
$GPRMC,105052,A,4823.1384,N,432.8643,W,10.00,168.37,251015,,*3B
$GPRMC,105052,A,4823.1302,N,432.8618,W,10.00,168.37,251015,,*3B
$GPRMC,105052,A,4823.1220,N,432.8593,W,10.00,168.37,251015,,*3A
$GPRMC,105052,A,4823.1138,N,432.8567,W,10.00,168.37,251015,,*3B
$GPRMC,105052,A,4823.1056,N,432.8542,W,10.00,168.37,251015,,*35
$GPRMC,105052,A,4823.0974,N,432.8516,W,10.00,168.37,251015,,*3C
$GPRMC,105052,A,4823.0892,N,432.8491,W,10.00,168.37,251015,,*3B
$GPRMC,105052,A,4823.0809,N,432.8466,W,10.00,168.37,251015,,*31
$GPRMC,105052,A,4823.0727,N,432.8440,W,10.00,168.37,251015,,*36
$GPRMC,105052,A,4823.0645,N,432.8415,W,10.00,168.37,251015,,*33
$GPRMC,105052,A,4823.0563,N,432.8390,W,10.00,168.37,251015,,*3E
$GPRMC,105052,A,4823.0481,N,432.8364,W,10.00,168.37,251015,,*38
$GPRMC,105052,A,4823.0399,N,432.8339,W,10.00,168.37,251015,,*3E
$GPRMC,105052,A,4823.0317,N,432.8314,W,10.00,168.37,251015,,*37
$GPRMC,105052,A,4823.0235,N,432.8288,W,10.00,168.37,251015,,*32
$GPRMC,105052,A,4823.0153,N,432.8263,W,10.00,168.37,251015,,*34
$GPRMC,105052,A,4823.0071,N,432.8238,W,10.00,168.37,251015,,*3B
$GPRMC,105052,A,4822.9989,N,432.8212,W,10.00,168.37,251015,,*35
$GPRMC,105052,A,4822.9907,N,432.8187,W,10.00,168.37,251015,,*3C
$GPRMC,105052,A,4822.9825,N,432.8162,W,10.00,168.37,251015,,*36
$GPRMC,105052,A,4822.9743,N,432.8136,W,10.00,168.37,251015,,*38
$GPRMC,105052,A,4822.9661,N,432.8111,W,10.00,168.37,251015,,*3C
$GPRMC,105052,A,4822.9579,N,432.8086,W,10.00,168.37,251015,,*39
$GPRMC,105052,A,4822.9497,N,432.8060,W,10.00,168.37,251015,,*30
$GPRMC,105052,A,4822.9414,N,432.8035,W,10.00,168.37,251015,,*3B
$GPRMC,105052,A,4822.9332,N,432.8010,W,10.00,168.37,251015,,*3F
$GPRMC,105052,A,4822.9250,N,432.7984,W,10.00,168.37,251015,,*31
$GPRMC,105052,A,4822.9168,N,432.7959,W,10.00,168.37,251015,,*39
$GPRMC,105052,A,4822.9086,N,432.7934,W,10.00,168.37,251015,,*33
$GPRMC,105052,A,4822.9004,N,432.7908,W,10.00,168.37,251015,,*36
$GPRMC,105052,A,4822.8922,N,432.7883,W,10.00,168.37,251015,,*38
$GPRMC,105052,A,4822.8840,N,432.7858,W,10.00,168.37,251015,,*3B
$GPRMC,105052,A,4822.8758,N,432.7832,W,10.00,168.37,251015,,*31
$GPRMC,105052,A,4822.8676,N,432.7807,W,10.00,168.37,251015,,*3A
$GPRMC,105052,A,4822.8594,N,432.7782,W,10.00,168.37,251015,,*37
$GPRMC,105052,A,4822.8512,N,432.7756,W,10.00,168.37,251015,,*30
$GPRMC,105052,A,4822.8430,N,432.7731,W,10.00,168.37,251015,,*30
$GPRMC,105052,A,4822.8348,N,432.7706,W,10.00,168.37,251015,,*3C
$GPRMC,105052,A,4822.8266,N,432.7680,W,10.00,168.37,251015,,*3E
$GPRMC,105052,A,4822.8184,N,432.7655,W,10.00,168.37,251015,,*39
$GPRMC,105052,A,4822.8102,N,432.7629,W,10.00,168.37,251015,,*3C
$GPRMC,105052,A,4822.8020,N,432.7604,W,10.00,168.37,251015,,*32
$GPRMC,105052,A,4822.7937,N,432.7579,W,10.00,168.37,251015,,*3B
$GPRMC,105052,A,4822.7855,N,432.7553,W,10.00,168.37,251015,,*36
$GPRMC,105052,A,4822.7773,N,432.7528,W,10.00,168.37,251015,,*31
$GPRMC,105052,A,4822.7691,N,432.7503,W,10.00,168.37,251015,,*35
$GPRMC,105052,A,4822.7609,N,432.7477,W,10.00,168.37,251015,,*36
$GPRMC,105052,A,4822.7527,N,432.7452,W,10.00,168.37,251015,,*3E
$GPRMC,105052,A,4822.7445,N,432.7427,W,10.00,168.37,251015,,*39
$GPRMC,105052,A,4822.7363,N,432.7401,W,10.00,168.37,251015,,*3E
$GPRMC,105052,A,4822.7281,N,432.7376,W,10.00,168.37,251015,,*34
$GPRMC,105052,A,4822.7199,N,432.7351,W,10.00,168.37,251015,,*3B
$GPRMC,105052,A,4822.7117,N,432.7325,W,10.00,168.37,251015,,*3E
$GPRMC,105052,A,4822.7035,N,432.7300,W,10.00,168.37,251015,,*38
$GPRMC,105052,A,4822.6953,N,432.7275,W,10.00,168.37,251015,,*33
$GPRMC,105052,A,4822.6871,N,432.7249,W,10.00,168.37,251015,,*3D
$GPRMC,105052,A,4822.6789,N,432.7224,W,10.00,168.37,251015,,*3E
$GPRMC,105052,A,4822.6707,N,432.7199,W,10.00,168.37,251015,,*3D
$GPRMC,105052,A,4822.6625,N,432.7173,W,10.00,168.37,251015,,*38
$GPRMC,105052,A,4822.6542,N,432.7148,W,10.00,168.37,251015,,*32
$GPRMC,105052,A,4822.6460,N,432.7123,W,10.00,168.37,251015,,*3E
$GPRMC,105052,A,4822.6378,N,432.7097,W,10.00,168.37,251015,,*3E
$GPRMC,105052,A,4822.6296,N,432.7072,W,10.00,168.37,251015,,*34
$GPRMC,105052,A,4822.6214,N,432.7047,W,10.00,168.37,251015,,*38
$GPRMC,105052,A,4822.6132,N,432.7021,W,10.00,168.37,251015,,*3F
$GPRMC,105052,A,4822.6050,N,432.6996,W,10.00,168.37,251015,,*3E
$GPRMC,105052,A,4822.5968,N,432.6971,W,10.00,168.37,251015,,*36
$GPRMC,105052,A,4822.5886,N,432.6945,W,10.00,168.37,251015,,*30
$GPRMC,105052,A,4822.5804,N,432.6920,W,10.00,168.37,251015,,*39
$GPRMC,105052,A,4822.5722,N,432.6895,W,10.00,168.37,251015,,*3D
$GPRMC,105052,A,4822.5640,N,432.6869,W,10.00,168.37,251015,,*3B
$GPRMC,105052,A,4822.5558,N,432.6844,W,10.00,168.37,251015,,*3E
$GPRMC,105052,A,4822.5476,N,432.6819,W,10.00,168.37,251015,,*3B
$GPRMC,105052,A,4822.5394,N,432.6793,W,10.00,168.37,251015,,*3D
$GPRMC,105052,A,4822.5312,N,432.6768,W,10.00,168.37,251015,,*37
$GPRMC,105052,A,4822.5230,N,432.6743,W,10.00,168.37,251015,,*3F
$GPRMC,105052,A,4822.5195,N,432.6732,W,10.00,81.26,251015,,*03
$GPRMC,105052,A,4822.5200,N,432.6688,W,10.00,81.26,251015,,*0C
$GPRMC,105052,A,4822.5204,N,432.6644,W,10.00,81.26,251015,,*08
$GPRMC,105052,A,4822.5209,N,432.6601,W,10.00,81.26,251015,,*04
$GPRMC,105052,A,4822.5213,N,432.6557,W,10.00,81.26,251015,,*0F
$GPRMC,105052,A,4822.5218,N,432.6513,W,10.00,81.26,251015,,*04
$GPRMC,105052,A,4822.5222,N,432.6469,W,10.00,81.26,251015,,*01
$GPRMC,105052,A,4822.5227,N,432.6425,W,10.00,81.26,251015,,*0C
$GPRMC,105052,A,4822.5231,N,432.6382,W,10.00,81.26,251015,,*01
$GPRMC,105052,A,4822.5236,N,432.6338,W,10.00,81.26,251015,,*07
$GPRMC,105052,A,4822.5240,N,432.6294,W,10.00,81.26,251015,,*01
$GPRMC,105052,A,4822.5245,N,432.6250,W,10.00,81.26,251015,,*0C
$GPRMC,105052,A,4822.5249,N,432.6206,W,10.00,81.26,251015,,*03
$GPRMC,105052,A,4822.5254,N,432.6162,W,10.00,81.26,251015,,*0E
$GPRMC,105052,A,4822.5258,N,432.6119,W,10.00,81.26,251015,,*0E
$GPRMC,105052,A,4822.5263,N,432.6075,W,10.00,81.26,251015,,*0D
$GPRMC,105052,A,4822.5267,N,432.6031,W,10.00,81.26,251015,,*09
$GPRMC,105052,A,4822.5272,N,432.5987,W,10.00,81.26,251015,,*0A
$GPRMC,105052,A,4822.5276,N,432.5943,W,10.00,81.26,251015,,*06
$GPRMC,105052,A,4822.5281,N,432.5900,W,10.00,81.26,251015,,*09
$GPRMC,105052,A,4822.5285,N,432.5856,W,10.00,81.26,251015,,*0F
$GPRMC,105052,A,4822.5290,N,432.5812,W,10.00,81.26,251015,,*0B
$GPRMC,105052,A,4822.5294,N,432.5768,W,10.00,81.26,251015,,*0D
$GPRMC,105052,A,4822.5298,N,432.5724,W,10.00,81.26,251015,,*09
$GPRMC,105052,A,4822.5303,N,432.5680,W,10.00,81.26,251015,,*05
$GPRMC,105052,A,4822.5307,N,432.5637,W,10.00,81.26,251015,,*0D
$GPRMC,105052,A,4822.5312,N,432.5593,W,10.00,81.26,251015,,*04
$GPRMC,105052,A,4822.5316,N,432.5549,W,10.00,81.26,251015,,*07
$GPRMC,105052,A,4822.5321,N,432.5505,W,10.00,81.26,251015,,*0B
$GPRMC,105052,A,4822.5325,N,432.5461,W,10.00,81.26,251015,,*0C
$GPRMC,105052,A,4822.5330,N,432.5418,W,10.00,81.26,251015,,*06
$GPRMC,105052,A,4822.5334,N,432.5374,W,10.00,81.26,251015,,*0F
$GPRMC,105052,A,4822.5339,N,432.5330,W,10.00,81.26,251015,,*02
$GPRMC,105052,A,4822.5343,N,432.5286,W,10.00,81.26,251015,,*03
$GPRMC,105052,A,4822.5348,N,432.5242,W,10.00,81.26,251015,,*00
$GPRMC,105052,A,4822.5352,N,432.5198,W,10.00,81.26,251015,,*0F
$GPRMC,105052,A,4822.5357,N,432.5155,W,10.00,81.26,251015,,*0B
$GPRMC,105052,A,4822.5361,N,432.5111,W,10.00,81.26,251015,,*0E
$GPRMC,105052,A,4822.5366,N,432.5067,W,10.00,81.26,251015,,*09
$GPRMC,105052,A,4822.5370,N,432.5023,W,10.00,81.26,251015,,*0E
$GPRMC,105052,A,4822.5375,N,432.4979,W,10.00,81.26,251015,,*0C
$GPRMC,105052,A,4822.5379,N,432.4936,W,10.00,81.26,251015,,*0B
$GPRMC,105052,A,4822.5384,N,432.4892,W,10.00,81.26,251015,,*06
$GPRMC,105052,A,4822.5388,N,432.4848,W,10.00,81.26,251015,,*0D
$GPRMC,105052,A,4822.5393,N,432.4804,W,10.00,81.26,251015,,*0F
$GPRMC,105052,A,4822.5397,N,432.4760,W,10.00,81.26,251015,,*06
$GPRMC,105052,A,4822.5402,N,432.4716,W,10.00,81.26,251015,,*0C
$GPRMC,105052,A,4822.5406,N,432.4673,W,10.00,81.26,251015,,*0A
$GPRMC,105052,A,4822.5411,N,432.4629,W,10.00,81.26,251015,,*03
$GPRMC,105052,A,4822.5415,N,432.4585,W,10.00,81.26,251015,,*02
$GPRMC,105052,A,4822.5420,N,432.4541,W,10.00,81.26,251015,,*0C
$GPRMC,105052,A,4822.5424,N,432.4497,W,10.00,81.26,251015,,*02
$GPRMC,105052,A,4822.5429,N,432.4454,W,10.00,81.26,251015,,*00
$GPRMC,105052,A,4822.5433,N,432.4410,W,10.00,81.26,251015,,*0B
$GPRMC,105052,A,4822.5438,N,432.4366,W,10.00,81.26,251015,,*06
$GPRMC,105052,A,4822.5442,N,432.4322,W,10.00,81.26,251015,,*0B
$GPRMC,105052,A,4822.5447,N,432.4278,W,10.00,81.26,251015,,*00
$GPRMC,105052,A,4822.5451,N,432.4234,W,10.00,81.26,251015,,*0F
$GPRMC,105052,A,4822.5456,N,432.4191,W,10.00,81.26,251015,,*04
$GPRMC,105052,A,4822.5460,N,432.4147,W,10.00,81.26,251015,,*0A
$GPRMC,105052,A,4822.5464,N,432.4103,W,10.00,81.26,251015,,*0E
$GPRMC,105052,A,4822.5469,N,432.4059,W,10.00,81.26,251015,,*0D
$GPRMC,105052,A,4822.5473,N,432.4015,W,10.00,81.26,251015,,*0E
$GPRMC,105052,A,4822.5478,N,432.3972,W,10.00,81.26,251015,,*0A
$GPRMC,105052,A,4822.5482,N,432.3928,W,10.00,81.26,251015,,*00
$GPRMC,105052,A,4822.5487,N,432.3884,W,10.00,81.26,251015,,*02
$GPRMC,105052,A,4822.5491,N,432.3840,W,10.00,81.26,251015,,*0D
$GPRMC,105052,A,4822.5496,N,432.3796,W,10.00,81.26,251015,,*0E
$GPRMC,105052,A,4822.5500,N,432.3752,W,10.00,81.26,251015,,*08
$GPRMC,105052,A,4822.5505,N,432.3709,W,10.00,81.26,251015,,*03
$GPRMC,105052,A,4822.5509,N,432.3665,W,10.00,81.26,251015,,*04
$GPRMC,105052,A,4822.5514,N,432.3621,W,10.00,81.26,251015,,*08
$GPRMC,105052,A,4822.5518,N,432.3577,W,10.00,81.26,251015,,*04
$GPRMC,105052,A,4822.5523,N,432.3533,W,10.00,81.26,251015,,*0C
$GPRMC,105052,A,4822.5527,N,432.3490,W,10.00,81.26,251015,,*00
$GPRMC,105052,A,4822.5532,N,432.3446,W,10.00,81.26,251015,,*0F
$GPRMC,105052,A,4822.5536,N,432.3402,W,10.00,81.26,251015,,*0B
$GPRMC,105052,A,4822.5541,N,432.3358,W,10.00,81.26,251015,,*03
$GPRMC,105052,A,4822.5545,N,432.3314,W,10.00,81.26,251015,,*0F
$GPRMC,105052,A,4822.5550,N,432.3270,W,10.00,81.26,251015,,*08
$GPRMC,105052,A,4822.5554,N,432.3227,W,10.00,81.26,251015,,*0E
$GPRMC,105052,A,4822.5559,N,432.3183,W,10.00,81.26,251015,,*0E
$GPRMC,105052,A,4822.5563,N,432.3139,W,10.00,81.26,251015,,*06
$GPRMC,105052,A,4822.5568,N,432.3095,W,10.00,81.26,251015,,*0A
$GPRMC,105052,A,4822.5572,N,432.3051,W,10.00,81.26,251015,,*09
$GPRMC,105052,A,4822.5577,N,432.3008,W,10.00,81.26,251015,,*00
$GPRMC,105052,A,4822.5581,N,432.2964,W,10.00,81.26,251015,,*0B
$GPRMC,105052,A,4822.5586,N,432.2920,W,10.00,81.26,251015,,*0C
$GPRMC,105052,A,4822.5590,N,432.2876,W,10.00,81.26,251015,,*09
$GPRMC,105052,A,4822.5595,N,432.2832,W,10.00,81.26,251015,,*0C
$GPRMC,105052,A,4822.5599,N,432.2788,W,10.00,81.26,251015,,*0E
$GPRMC,105052,A,4822.5604,N,432.2745,W,10.00,81.26,251015,,*08
$GPRMC,105052,A,4822.5608,N,432.2701,W,10.00,81.26,251015,,*04
$GPRMC,105052,A,4822.5613,N,432.2657,W,10.00,81.26,251015,,*0C
$GPRMC,105052,A,4822.5617,N,432.2613,W,10.00,81.26,251015,,*08
$GPRMC,105052,A,4822.5621,N,432.2569,W,10.00,81.26,251015,,*03
$GPRMC,105052,A,4822.5626,N,432.2525,W,10.00,81.26,251015,,*0C
$GPRMC,105052,A,4822.5630,N,432.2482,W,10.00,81.26,251015,,*07
$GPRMC,105052,A,4822.5635,N,432.2438,W,10.00,81.26,251015,,*03
$GPRMC,105052,A,4822.5639,N,432.2394,W,10.00,81.26,251015,,*0E
$GPRMC,105052,A,4822.5644,N,432.2350,W,10.00,81.26,251015,,*0C
$GPRMC,105052,A,4822.5648,N,432.2306,W,10.00,81.26,251015,,*03
$GPRMC,105052,A,4822.5653,N,432.2263,W,10.00,81.26,251015,,*0B
$GPRMC,105052,A,4822.5657,N,432.2219,W,10.00,81.26,251015,,*02
$GPRMC,105052,A,4822.5662,N,432.2175,W,10.00,81.26,251015,,*0D
$GPRMC,105052,A,4822.5666,N,432.2131,W,10.00,81.26,251015,,*09
$GPRMC,105052,A,4822.5671,N,432.2087,W,10.00,81.26,251015,,*03
$GPRMC,105052,A,4822.5675,N,432.2043,W,10.00,81.26,251015,,*0F
$GPRMC,105052,A,4822.5680,N,432.2000,W,10.00,81.26,251015,,*02
$GPRMC,105052,A,4822.5684,N,432.1956,W,10.00,81.26,251015,,*0F
$GPRMC,105052,A,4822.5689,N,432.1912,W,10.00,81.26,251015,,*02
$GPRMC,105052,A,4822.5693,N,432.1868,W,10.00,81.26,251015,,*05
$GPRMC,105052,A,4822.5698,N,432.1824,W,10.00,81.26,251015,,*06
$GPRMC,105052,A,4822.5702,N,432.1781,W,10.00,81.26,251015,,*04
$GPRMC,105052,A,4822.5707,N,432.1737,W,10.00,81.26,251015,,*0C
$GPRMC,105052,A,4822.5711,N,432.1693,W,10.00,81.26,251015,,*04
$GPRMC,105052,A,4822.5716,N,432.1649,W,10.00,81.26,251015,,*04
$GPRMC,105052,A,4822.5720,N,432.1605,W,10.00,81.26,251015,,*09
$GPRMC,105052,A,4822.5725,N,432.1561,W,10.00,81.26,251015,,*0D
$GPRMC,105052,A,4822.5729,N,432.1518,W,10.00,81.26,251015,,*0F
$GPRMC,105052,A,4822.5734,N,432.1474,W,10.00,81.26,251015,,*08
$GPRMC,105052,A,4822.5738,N,432.1430,W,10.00,81.26,251015,,*04
$GPRMC,105052,A,4822.5743,N,432.1386,W,10.00,81.26,251015,,*02
$GPRMC,105052,A,4822.5747,N,432.1342,W,10.00,81.26,251015,,*0E
$GPRMC,105052,A,4822.5752,N,432.1299,W,10.00,81.26,251015,,*0D
$GPRMC,105052,A,4822.5756,N,432.1255,W,10.00,81.26,251015,,*09
$GPRMC,105052,A,4822.5761,N,432.1211,W,10.00,81.26,251015,,*0D
$GPRMC,105052,A,4822.5765,N,432.1167,W,10.00,81.26,251015,,*0B
$GPRMC,105052,A,4822.5769,N,432.1123,W,10.00,81.26,251015,,*07
$GPRMC,105052,A,4822.5774,N,432.1079,W,10.00,81.26,251015,,*05
$GPRMC,105052,A,4822.5778,N,432.1036,W,10.00,81.26,251015,,*02
$GPRMC,105052,A,4822.5783,N,432.0992,W,10.00,81.26,251015,,*00
$GPRMC,105052,A,4822.5787,N,432.0948,W,10.00,81.26,251015,,*03
$GPRMC,105052,A,4822.5792,N,432.0904,W,10.00,81.26,251015,,*0F
$GPRMC,105052,A,4822.5796,N,432.0860,W,10.00,81.26,251015,,*08
$GPRMC,105052,A,4822.5801,N,432.0817,W,10.00,81.26,251015,,*09
$GPRMC,105052,A,4822.5805,N,432.0773,W,10.00,81.26,251015,,*00
$GPRMC,105052,A,4822.5810,N,432.0729,W,10.00,81.26,251015,,*0B
$GPRMC,105052,A,4822.5814,N,432.0685,W,10.00,81.26,251015,,*08
$GPRMC,105052,A,4822.5819,N,432.0641,W,10.00,81.26,251015,,*0D
$GPRMC,105052,A,4822.5823,N,432.0597,W,10.00,81.26,251015,,*0C
$GPRMC,105052,A,4822.5828,N,432.0554,W,10.00,81.26,251015,,*08
$GPRMC,105052,A,4822.5832,N,432.0510,W,10.00,81.26,251015,,*03
$GPRMC,105052,A,4822.5837,N,432.0466,W,10.00,81.26,251015,,*06
$GPRMC,105052,A,4822.5841,N,432.0422,W,10.00,81.26,251015,,*07
$GPRMC,105052,A,4822.5846,N,432.0378,W,10.00,81.26,251015,,*08
$GPRMC,105052,A,4822.5850,N,432.0334,W,10.00,81.26,251015,,*07
$GPRMC,105052,A,4822.5855,N,432.0291,W,10.00,81.26,251015,,*0C
$GPRMC,105052,A,4822.5859,N,432.0247,W,10.00,81.26,251015,,*0B
$GPRMC,105052,A,4822.5864,N,432.0203,W,10.00,81.26,251015,,*05
$GPRMC,105052,A,4822.5868,N,432.0159,W,10.00,81.26,251015,,*05
$GPRMC,105052,A,4822.5873,N,432.0115,W,10.00,81.26,251015,,*07
$GPRMC,105052,A,4822.5877,N,432.0072,W,10.00,81.26,251015,,*03
$GPRMC,105052,A,4822.5882,N,432.0028,W,10.00,81.26,251015,,*06
$GPRMC,105052,A,4822.5886,N,431.9984,W,10.00,81.26,251015,,*07
$GPRMC,105052,A,4822.5891,N,431.9940,W,10.00,81.26,251015,,*09
$GPRMC,105052,A,4822.5895,N,431.9896,W,10.00,81.26,251015,,*07
$GPRMC,105052,A,4822.5900,N,431.9852,W,10.00,81.26,251015,,*02
$GPRMC,105052,A,4822.5904,N,431.9809,W,10.00,81.26,251015,,*08
$GPRMC,105052,A,4822.5908,N,431.9765,W,10.00,81.26,251015,,*01
$GPRMC,105052,A,4822.5913,N,431.9721,W,10.00,81.26,251015,,*0B
$GPRMC,105052,A,4822.5917,N,431.9677,W,10.00,81.26,251015,,*0D
$GPRMC,105052,A,4822.5922,N,431.9633,W,10.00,81.26,251015,,*0B
$GPRMC,105052,A,4822.5926,N,431.9590,W,10.00,81.26,251015,,*05
$GPRMC,105052,A,4822.5931,N,431.9546,W,10.00,81.26,251015,,*08
$GPRMC,105052,A,4822.5935,N,431.9502,W,10.00,81.26,251015,,*0C
$GPRMC,105052,A,4822.5940,N,431.9458,W,10.00,81.26,251015,,*00
$GPRMC,105052,A,4822.5944,N,431.9414,W,10.00,81.26,251015,,*0C
$GPRMC,105052,A,4822.5949,N,431.9370,W,10.00,81.26,251015,,*04
$GPRMC,105052,A,4822.5953,N,431.9327,W,10.00,81.26,251015,,*0D
$GPRMC,105052,A,4822.5958,N,431.9283,W,10.00,81.26,251015,,*09
$GPRMC,105052,A,4822.5962,N,431.9239,W,10.00,81.26,251015,,*01
$GPRMC,105052,A,4822.5967,N,431.9195,W,10.00,81.26,251015,,*01
$GPRMC,105052,A,4822.5971,N,431.9151,W,10.00,81.26,251015,,*0E
$GPRMC,105052,A,4822.5976,N,431.9108,W,10.00,81.26,251015,,*05
$GPRMC,105052,A,4822.5980,N,431.9064,W,10.00,81.26,251015,,*07
$GPRMC,105052,A,4822.5985,N,431.9020,W,10.00,81.26,251015,,*02
$GPRMC,105052,A,4822.5989,N,431.8976,W,10.00,81.26,251015,,*05
$GPRMC,105052,A,4822.5994,N,431.8932,W,10.00,81.26,251015,,*09
$GPRMC,105052,A,4822.5998,N,431.8888,W,10.00,81.26,251015,,*05
$GPRMC,105052,A,4822.6003,N,431.8845,W,10.00,81.26,251015,,*0C
$GPRMC,105052,A,4822.6007,N,431.8801,W,10.00,81.26,251015,,*08
$GPRMC,105052,A,4822.6012,N,431.8757,W,10.00,81.26,251015,,*00
$GPRMC,105052,A,4822.6016,N,431.8713,W,10.00,81.26,251015,,*04
$GPRMC,105052,A,4822.6021,N,431.8669,W,10.00,81.26,251015,,*0C
$GPRMC,105052,A,4822.6025,N,431.8626,W,10.00,81.26,251015,,*03
$GPRMC,105052,A,4822.6030,N,431.8582,W,10.00,81.26,251015,,*0A
$GPRMC,105052,A,4822.6034,N,431.8538,W,10.00,81.26,251015,,*0F
$GPRMC,105052,A,4822.6038,N,431.8494,W,10.00,81.26,251015,,*04
$GPRMC,105052,A,4822.6043,N,431.8450,W,10.00,81.26,251015,,*00
$GPRMC,105052,A,4822.6047,N,431.8406,W,10.00,81.26,251015,,*07
$GPRMC,105052,A,4822.6052,N,431.8363,W,10.00,81.26,251015,,*07
$GPRMC,105052,A,4822.6056,N,431.8319,W,10.00,81.26,251015,,*0E
$GPRMC,105052,A,4822.6061,N,431.8275,W,10.00,81.26,251015,,*01
$GPRMC,105052,A,4822.6065,N,431.8231,W,10.00,81.26,251015,,*05
$GPRMC,105052,A,4822.6070,N,431.8187,W,10.00,81.26,251015,,*0F
$GPRMC,105052,A,4822.6074,N,431.8143,W,10.00,81.26,251015,,*03
$GPRMC,105052,A,4822.6079,N,431.8100,W,10.00,81.26,251015,,*09
$GPRMC,105052,A,4822.6083,N,431.8056,W,10.00,81.26,251015,,*0E
$GPRMC,105052,A,4822.6088,N,431.8012,W,10.00,81.26,251015,,*05
$GPRMC,105052,A,4822.6092,N,431.7968,W,10.00,81.26,251015,,*05
$GPRMC,105052,A,4822.6097,N,431.7924,W,10.00,81.26,251015,,*08
$GPRMC,105052,A,4822.6101,N,431.7881,W,10.00,81.26,251015,,*08
$GPRMC,105052,A,4822.6106,N,431.7837,W,10.00,81.26,251015,,*02
$GPRMC,105052,A,4822.6110,N,431.7793,W,10.00,81.26,251015,,*04
$GPRMC,105052,A,4822.6115,N,431.7749,W,10.00,81.26,251015,,*06
$GPRMC,105052,A,4822.6119,N,431.7705,W,10.00,81.26,251015,,*02
$GPRMC,105052,A,4822.6124,N,431.7661,W,10.00,81.26,251015,,*0F
$GPRMC,105052,A,4822.6128,N,431.7618,W,10.00,81.26,251015,,*0D
$GPRMC,105052,A,4822.6133,N,431.7574,W,10.00,81.26,251015,,*0E
$GPRMC,105052,A,4822.6137,N,431.7530,W,10.00,81.26,251015,,*0A
$GPRMC,105052,A,4822.6142,N,431.7486,W,10.00,81.26,251015,,*04
$GPRMC,105052,A,4822.6146,N,431.7442,W,10.00,81.26,251015,,*08
$GPRMC,105052,A,4822.6151,N,431.7399,W,10.00,81.26,251015,,*0F
$GPRMC,105052,A,4822.6155,N,431.7355,W,10.00,81.26,251015,,*0B
$GPRMC,105052,A,4822.6159,N,431.7311,W,10.00,81.26,251015,,*07
$GPRMC,105052,A,4822.6164,N,431.7267,W,10.00,81.26,251015,,*09
$GPRMC,105052,A,4822.6168,N,431.7223,W,10.00,81.26,251015,,*05
$GPRMC,105052,A,4822.6173,N,431.7179,W,10.00,81.26,251015,,*03
$GPRMC,105052,A,4822.6177,N,431.7136,W,10.00,81.26,251015,,*0C
$GPRMC,105052,A,4822.6182,N,431.7092,W,10.00,81.26,251015,,*09
$GPRMC,105052,A,4822.6186,N,431.7048,W,10.00,81.26,251015,,*0A
$GPRMC,105052,A,4822.6191,N,431.7004,W,10.00,81.26,251015,,*04
$GPRMC,105052,A,4822.6195,N,431.6960,W,10.00,81.26,251015,,*0A
$GPRMC,105052,A,4822.6200,N,431.6916,W,10.00,81.26,251015,,*04
$GPRMC,105052,A,4822.6204,N,431.6873,W,10.00,81.26,251015,,*02
$GPRMC,105052,A,4822.6209,N,431.6829,W,10.00,81.26,251015,,*00
$GPRMC,105052,A,4822.6213,N,431.6785,W,10.00,81.26,251015,,*02
$GPRMC,105052,A,4822.6218,N,431.6741,W,10.00,81.26,251015,,*01
$GPRMC,105052,A,4822.6222,N,431.6697,W,10.00,81.26,251015,,*02
$GPRMC,105052,A,4822.6227,N,431.6654,W,10.00,81.26,251015,,*08
$GPRMC,105052,A,4822.6231,N,431.6610,W,10.00,81.26,251015,,*0F
$GPRMC,105052,A,4822.6236,N,431.6566,W,10.00,81.26,251015,,*0A
$GPRMC,105052,A,4822.6240,N,431.6522,W,10.00,81.26,251015,,*0B
$GPRMC,105052,A,4822.6245,N,431.6478,W,10.00,81.26,251015,,*00
$GPRMC,105052,A,4822.6249,N,431.6434,W,10.00,81.26,251015,,*04
$GPRMC,105052,A,4822.6254,N,431.6391,W,10.00,81.26,251015,,*00
$GPRMC,105052,A,4822.6258,N,431.6347,W,10.00,81.26,251015,,*07
$GPRMC,105052,A,4822.6263,N,431.6303,W,10.00,81.26,251015,,*0F
$GPRMC,105052,A,4822.6267,N,431.6259,W,10.00,81.26,251015,,*05
$GPRMC,105052,A,4822.6272,N,431.6215,W,10.00,81.26,251015,,*09
$GPRMC,105052,A,4822.6276,N,431.6172,W,10.00,81.26,251015,,*0F
$GPRMC,105052,A,4822.6280,N,431.6128,W,10.00,81.26,251015,,*09
$GPRMC,105052,A,4822.6285,N,431.6084,W,10.00,81.26,251015,,*0B
$GPRMC,105052,A,4822.6289,N,431.6040,W,10.00,81.26,251015,,*0F
$GPRMC,105052,A,4822.6294,N,431.5996,W,10.00,81.26,251015,,*02
$GPRMC,105052,A,4822.6298,N,431.5952,W,10.00,81.26,251015,,*06
$GPRMC,105052,A,4822.6303,N,431.5909,W,10.00,81.26,251015,,*0B
$GPRMC,105052,A,4822.6307,N,431.5865,W,10.00,81.26,251015,,*04
$GPRMC,105052,A,4822.6312,N,431.5821,W,10.00,81.26,251015,,*00
$GPRMC,105052,A,4822.6316,N,431.5777,W,10.00,81.26,251015,,*08
$GPRMC,105052,A,4822.6321,N,431.5733,W,10.00,81.26,251015,,*0C
$GPRMC,105052,A,4822.6325,N,431.5689,W,10.00,81.26,251015,,*08
$GPRMC,105052,A,4822.6330,N,431.5646,W,10.00,81.26,251015,,*0F
$GPRMC,105052,A,4822.6334,N,431.5602,W,10.00,81.26,251015,,*0B
$GPRMC,105052,A,4822.6339,N,431.5558,W,10.00,81.26,251015,,*0A
$GPRMC,105052,A,4822.6343,N,431.5514,W,10.00,81.26,251015,,*0F
$GPRMC,105052,A,4822.6348,N,431.5470,W,10.00,81.26,251015,,*07
$GPRMC,105052,A,4822.6352,N,431.5427,W,10.00,81.26,251015,,*0E
$GPRMC,105052,A,4822.6357,N,431.5383,W,10.00,81.26,251015,,*02
$GPRMC,105052,A,4822.6361,N,431.5339,W,10.00,81.26,251015,,*06
$GPRMC,105052,A,4822.6366,N,431.5295,W,10.00,81.26,251015,,*06
$GPRMC,105052,A,4822.6370,N,431.5251,W,10.00,81.26,251015,,*09
$GPRMC,105052,A,4822.6375,N,431.5207,W,10.00,81.26,251015,,*0F
$GPRMC,105052,A,4822.6379,N,431.5164,W,10.00,81.26,251015,,*05
$GPRMC,105052,A,4822.6384,N,431.5120,W,10.00,81.26,251015,,*07
$GPRMC,105052,A,4822.6388,N,431.5076,W,10.00,81.26,251015,,*09
$GPRMC,105052,A,4822.6393,N,431.5032,W,10.00,81.26,251015,,*03
$GPRMC,105052,A,4822.6397,N,431.4988,W,10.00,81.26,251015,,*0E
$GPRMC,105052,A,4822.6401,N,431.4945,W,10.00,81.26,251015,,*07
$GPRMC,105052,A,4822.6406,N,431.4901,W,10.00,81.26,251015,,*00
$GPRMC,105052,A,4822.6410,N,431.4857,W,10.00,81.26,251015,,*05
$GPRMC,105052,A,4822.6415,N,431.4813,W,10.00,81.26,251015,,*00
$GPRMC,105052,A,4822.6419,N,431.4769,W,10.00,81.26,251015,,*0E
$GPRMC,105052,A,4822.6424,N,431.4725,W,10.00,81.26,251015,,*08
$GPRMC,105052,A,4822.6428,N,431.4682,W,10.00,81.26,251015,,*08
$GPRMC,105052,A,4822.6433,N,431.4638,W,10.00,81.26,251015,,*03
$GPRMC,105052,A,4822.6437,N,431.4594,W,10.00,81.26,251015,,*02
$GPRMC,105052,A,4822.6442,N,431.4550,W,10.00,81.26,251015,,*08
$GPRMC,105052,A,4822.6446,N,431.4506,W,10.00,81.26,251015,,*0F
$GPRMC,105052,A,4822.6451,N,431.4462,W,10.00,81.26,251015,,*0A
$GPRMC,105052,A,4822.6455,N,431.4419,W,10.00,81.26,251015,,*02
$GPRMC,105052,A,4822.6460,N,431.4375,W,10.00,81.26,251015,,*09
$GPRMC,105052,A,4822.6464,N,431.4331,W,10.00,81.26,251015,,*0D
$GPRMC,105052,A,4822.6469,N,431.4287,W,10.00,81.26,251015,,*0C
$GPRMC,105052,A,4822.6473,N,431.4243,W,10.00,81.26,251015,,*0F
$GPRMC,105052,A,4822.6478,N,431.4200,W,10.00,81.26,251015,,*03
$GPRMC,105052,A,4822.6482,N,431.4156,W,10.00,81.26,251015,,*06
$GPRMC,105052,A,4822.6487,N,431.4112,W,10.00,81.26,251015,,*03
$GPRMC,105052,A,4822.6491,N,431.4068,W,10.00,81.26,251015,,*08
$GPRMC,105052,A,4822.6496,N,431.4024,W,10.00,81.26,251015,,*07
$GPRMC,105052,A,4822.6500,N,431.3980,W,10.00,81.26,251015,,*09
$GPRMC,105052,A,4822.6504,N,431.3937,W,10.00,81.26,251015,,*01
$GPRMC,105052,A,4822.6509,N,431.3893,W,10.00,81.26,251015,,*03
$GPRMC,105052,A,4822.6513,N,431.3849,W,10.00,81.26,251015,,*0F
$GPRMC,105052,A,4822.6518,N,431.3805,W,10.00,81.26,251015,,*0C
$GPRMC,105052,A,4822.6522,N,431.3761,W,10.00,81.26,251015,,*08
$GPRMC,105052,A,4822.6527,N,431.3718,W,10.00,81.26,251015,,*03
$GPRMC,105052,A,4822.6531,N,431.3674,W,10.00,81.26,251015,,*0F
$GPRMC,105052,A,4822.6536,N,431.3630,W,10.00,81.26,251015,,*08
$GPRMC,105052,A,4822.6540,N,431.3586,W,10.00,81.26,251015,,*07
$GPRMC,105052,A,4822.6545,N,431.3542,W,10.00,81.26,251015,,*0A
$GPRMC,105052,A,4822.6549,N,431.3498,W,10.00,81.26,251015,,*00
$GPRMC,105052,A,4822.6554,N,431.3455,W,10.00,81.26,251015,,*0D
$GPRMC,105052,A,4822.6558,N,431.3411,W,10.00,81.26,251015,,*01
$GPRMC,105052,A,4822.6563,N,431.3367,W,10.00,81.26,251015,,*0F
$GPRMC,105052,A,4822.6567,N,431.3323,W,10.00,81.26,251015,,*0B
$GPRMC,105052,A,4822.6572,N,431.3279,W,10.00,81.26,251015,,*01
$GPRMC,105052,A,4822.6576,N,431.3235,W,10.00,81.26,251015,,*0D
$GPRMC,105052,A,4822.6581,N,431.3192,W,10.00,81.26,251015,,*0B
$GPRMC,105052,A,4822.6585,N,431.3148,W,10.00,81.26,251015,,*08
$GPRMC,105052,A,4822.6590,N,431.3104,W,10.00,81.26,251015,,*04
$GPRMC,105052,A,4822.6594,N,431.3060,W,10.00,81.26,251015,,*03
$GPRMC,105052,A,4822.6599,N,431.3016,W,10.00,81.26,251015,,*0F
$GPRMC,105052,A,4822.6603,N,431.2973,W,10.00,81.26,251015,,*04
$GPRMC,105052,A,4822.6608,N,431.2929,W,10.00,81.26,251015,,*00
$GPRMC,105052,A,4822.6612,N,431.2885,W,10.00,81.26,251015,,*0C
$GPRMC,105052,A,4822.6616,N,431.2841,W,10.00,81.26,251015,,*00
$GPRMC,105052,A,4822.6621,N,431.2797,W,10.00,81.26,251015,,*00
$GPRMC,105052,A,4822.6625,N,431.2753,W,10.00,81.26,251015,,*0C
$GPRMC,105052,A,4822.6630,N,431.2710,W,10.00,81.26,251015,,*0F
$GPRMC,105052,A,4822.6634,N,431.2666,W,10.00,81.26,251015,,*0B
$GPRMC,105052,A,4822.6639,N,431.2622,W,10.00,81.26,251015,,*06
$GPRMC,105052,A,4822.6643,N,431.2578,W,10.00,81.26,251015,,*07
$GPRMC,105052,A,4822.6648,N,431.2534,W,10.00,81.26,251015,,*04
$GPRMC,105052,A,4822.6652,N,431.2490,W,10.00,81.26,251015,,*00
$GPRMC,105052,A,4822.6657,N,431.2447,W,10.00,81.26,251015,,*0F
$GPRMC,105052,A,4822.6661,N,431.2403,W,10.00,81.26,251015,,*0A
$GPRMC,105052,A,4822.6666,N,431.2359,W,10.00,81.26,251015,,*05
$GPRMC,105052,A,4822.6670,N,431.2315,W,10.00,81.26,251015,,*0A
$GPRMC,105052,A,4822.6675,N,431.2271,W,10.00,81.26,251015,,*0C
$GPRMC,105052,A,4822.6679,N,431.2228,W,10.00,81.26,251015,,*0C
$GPRMC,105052,A,4822.6684,N,431.2184,W,10.00,81.26,251015,,*0B
$GPRMC,105052,A,4822.6688,N,431.2140,W,10.00,81.26,251015,,*0F
$GPRMC,105052,A,4822.6693,N,431.2096,W,10.00,81.26,251015,,*0F
$GPRMC,105052,A,4822.6697,N,431.2052,W,10.00,81.26,251015,,*03
$GPRMC,105052,A,4822.6702,N,431.2008,W,10.00,81.26,251015,,*01
$GPRMC,105052,A,4822.6706,N,431.1965,W,10.00,81.26,251015,,*04
$GPRMC,105052,A,4822.6711,N,431.1921,W,10.00,81.26,251015,,*02
$GPRMC,105052,A,4822.6715,N,431.1877,W,10.00,81.26,251015,,*04
$GPRMC,105052,A,4822.6719,N,431.1833,W,10.00,81.26,251015,,*08
$GPRMC,105052,A,4822.6724,N,431.1789,W,10.00,81.26,251015,,*08
$GPRMC,105052,A,4822.6728,N,431.1746,W,10.00,81.26,251015,,*07
$GPRMC,105052,A,4822.6733,N,431.1702,W,10.00,81.26,251015,,*0D
$GPRMC,105052,A,4822.6737,N,431.1658,W,10.00,81.26,251015,,*07
$GPRMC,105052,A,4822.6742,N,431.1614,W,10.00,81.26,251015,,*0D
$GPRMC,105052,A,4822.6746,N,431.1570,W,10.00,81.26,251015,,*08
$GPRMC,105052,A,4822.6751,N,431.1526,W,10.00,81.26,251015,,*0D
$GPRMC,105052,A,4822.6755,N,431.1483,W,10.00,81.26,251015,,*07
$GPRMC,105052,A,4822.6760,N,431.1439,W,10.00,81.26,251015,,*00
$GPRMC,105052,A,4822.6764,N,431.1395,W,10.00,81.26,251015,,*05
$GPRMC,105052,A,4822.6769,N,431.1351,W,10.00,81.26,251015,,*00
$GPRMC,105052,A,4822.6773,N,431.1307,W,10.00,81.26,251015,,*08
$GPRMC,105052,A,4822.6778,N,431.1263,W,10.00,81.26,251015,,*00
$GPRMC,105052,A,4822.6782,N,431.1220,W,10.00,81.26,251015,,*02
$GPRMC,105052,A,4822.6787,N,431.1176,W,10.00,81.26,251015,,*07
$GPRMC,105052,A,4822.6791,N,431.1132,W,10.00,81.26,251015,,*00
$GPRMC,105052,A,4822.6796,N,431.1088,W,10.00,81.26,251015,,*07
$GPRMC,105052,A,4822.6800,N,431.1044,W,10.00,81.26,251015,,*07
$GPRMC,105052,A,4822.6805,N,431.1001,W,10.00,81.26,251015,,*03
$GPRMC,105052,A,4822.6809,N,431.0957,W,10.00,81.26,251015,,*04
$GPRMC,105052,A,4822.6814,N,431.0913,W,10.00,81.26,251015,,*08
$GPRMC,105052,A,4822.6818,N,431.0869,W,10.00,81.26,251015,,*08
$GPRMC,105052,A,4822.6822,N,431.0825,W,10.00,81.26,251015,,*09
$GPRMC,105052,A,4822.6827,N,431.0781,W,10.00,81.26,251015,,*0D
$GPRMC,105052,A,4822.6831,N,431.0738,W,10.00,81.26,251015,,*08
$GPRMC,105052,A,4822.6836,N,431.0694,W,10.00,81.26,251015,,*08
$GPRMC,105052,A,4822.6840,N,431.0650,W,10.00,81.26,251015,,*01
$GPRMC,105052,A,4822.6845,N,431.0606,W,10.00,81.26,251015,,*07
$GPRMC,105052,A,4822.6849,N,431.0562,W,10.00,81.26,251015,,*0A
$GPRMC,105052,A,4822.6854,N,431.0518,W,10.00,81.26,251015,,*0B
$GPRMC,105052,A,4822.6858,N,431.0475,W,10.00,81.26,251015,,*0D
$GPRMC,105052,A,4822.6863,N,431.0431,W,10.00,81.26,251015,,*05
$GPRMC,105052,A,4822.6867,N,431.0387,W,10.00,81.26,251015,,*0B
$GPRMC,105052,A,4822.6872,N,431.0343,W,10.00,81.26,251015,,*07
$GPRMC,105052,A,4822.6876,N,431.0299,W,10.00,81.26,251015,,*05
$GPRMC,105052,A,4822.6881,N,431.0256,W,10.00,81.26,251015,,*0E
$GPRMC,105052,A,4822.6885,N,431.0212,W,10.00,81.26,251015,,*0A
$GPRMC,105052,A,4822.6890,N,431.0168,W,10.00,81.26,251015,,*00
$GPRMC,105052,A,4822.6894,N,431.0124,W,10.00,81.26,251015,,*0C
$GPRMC,105052,A,4822.6899,N,431.0080,W,10.00,81.26,251015,,*0E
$GPRMC,105052,A,4822.6903,N,431.0036,W,10.00,81.26,251015,,*01
$GPRMC,105052,A,4822.6908,N,430.9993,W,10.00,81.26,251015,,*04
$GPRMC,105052,A,4822.6912,N,430.9949,W,10.00,81.26,251015,,*08
$GPRMC,105052,A,4822.6916,N,430.9905,W,10.00,81.26,251015,,*04
$GPRMC,105052,A,4822.6921,N,430.9861,W,10.00,81.26,251015,,*03
$GPRMC,105052,A,4822.6925,N,430.9817,W,10.00,81.26,251015,,*06
$GPRMC,105052,A,4822.6930,N,430.9773,W,10.00,81.26,251015,,*0F
$GPRMC,105052,A,4822.6934,N,430.9730,W,10.00,81.26,251015,,*0C
$GPRMC,105052,A,4822.6939,N,430.9686,W,10.00,81.26,251015,,*0D
$GPRMC,105052,A,4822.6943,N,430.9642,W,10.00,81.26,251015,,*08
$GPRMC,105052,A,4822.6948,N,430.9598,W,10.00,81.26,251015,,*07
$GPRMC,105052,A,4822.6952,N,430.9554,W,10.00,81.26,251015,,*0C
$GPRMC,105052,A,4822.6957,N,430.9511,W,10.00,81.26,251015,,*08
$GPRMC,105052,A,4822.6961,N,430.9467,W,10.00,81.26,251015,,*0D
$GPRMC,105052,A,4822.6966,N,430.9423,W,10.00,81.26,251015,,*0A
$GPRMC,105052,A,4822.6970,N,430.9379,W,10.00,81.26,251015,,*05
$GPRMC,105052,A,4822.6975,N,430.9335,W,10.00,81.26,251015,,*08
$GPRMC,105052,A,4822.6979,N,430.9291,W,10.00,81.26,251015,,*0B
$GPRMC,105052,A,4822.6984,N,430.9248,W,10.00,81.26,251015,,*0D
$GPRMC,105052,A,4822.6988,N,430.9204,W,10.00,81.26,251015,,*09
$GPRMC,105052,A,4822.6993,N,430.9160,W,10.00,81.26,251015,,*02
$GPRMC,105052,A,4822.6997,N,430.9116,W,10.00,81.26,251015,,*07
$GPRMC,105052,A,4822.7002,N,430.9072,W,10.00,81.26,251015,,*00
$GPRMC,105052,A,4822.7006,N,430.9028,W,10.00,81.26,251015,,*0B
$GPRMC,105052,A,4822.7011,N,430.8985,W,10.00,81.26,251015,,*02
$GPRMC,105052,A,4822.7015,N,430.8941,W,10.00,81.26,251015,,*0E
$GPRMC,105052,A,4822.7019,N,430.8897,W,10.00,81.26,251015,,*08
$GPRMC,105052,A,4822.7024,N,430.8853,W,10.00,81.26,251015,,*0E
$GPRMC,105052,A,4822.7028,N,430.8809,W,10.00,81.26,251015,,*0D
$GPRMC,105052,A,4822.7033,N,430.8766,W,10.00,81.26,251015,,*01
$GPRMC,105052,A,4822.7037,N,430.8722,W,10.00,81.26,251015,,*05
$GPRMC,105052,A,4822.7042,N,430.8678,W,10.00,81.26,251015,,*09
$GPRMC,105052,A,4822.7046,N,430.8634,W,10.00,81.26,251015,,*05
$GPRMC,105052,A,4822.7051,N,430.8590,W,10.00,81.26,251015,,*0E
$GPRMC,105052,A,4822.7055,N,430.8546,W,10.00,81.26,251015,,*01
$GPRMC,105052,A,4822.7060,N,430.8503,W,10.00,81.26,251015,,*06
$GPRMC,105052,A,4822.7064,N,430.8459,W,10.00,81.26,251015,,*0C
$GPRMC,105052,A,4822.7069,N,430.8415,W,10.00,81.26,251015,,*09
$GPRMC,105052,A,4822.7073,N,430.8371,W,10.00,81.26,251015,,*07
$GPRMC,105052,A,4822.7078,N,430.8327,W,10.00,81.26,251015,,*0F
$GPRMC,105052,A,4822.7082,N,430.8283,W,10.00,81.26,251015,,*05
$GPRMC,105052,A,4822.7087,N,430.8240,W,10.00,81.26,251015,,*0F
$GPRMC,105052,A,4822.7091,N,430.8196,W,10.00,81.26,251015,,*00
$GPRMC,105052,A,4822.7096,N,430.8152,W,10.00,81.26,251015,,*0F
$GPRMC,105052,A,4822.7100,N,430.8108,W,10.00,81.26,251015,,*0E
$GPRMC,105052,A,4822.7105,N,430.8064,W,10.00,81.26,251015,,*00
$GPRMC,105052,A,4822.7109,N,430.8021,W,10.00,81.26,251015,,*0D
$GPRMC,105052,A,4822.7113,N,430.7977,W,10.00,81.26,251015,,*03
$GPRMC,105052,A,4822.7118,N,430.7933,W,10.00,81.26,251015,,*08
$GPRMC,105052,A,4822.7122,N,430.7889,W,10.00,81.26,251015,,*01
$GPRMC,105052,A,4822.7127,N,430.7845,W,10.00,81.26,251015,,*04
$GPRMC,105052,A,4822.7131,N,430.7801,W,10.00,81.26,251015,,*03
$GPRMC,105052,A,4822.7136,N,430.7758,W,10.00,81.26,251015,,*07
$GPRMC,105052,A,4822.7140,N,430.7714,W,10.00,81.26,251015,,*0E
$GPRMC,105052,A,4822.7145,N,430.7670,W,10.00,81.26,251015,,*08
$GPRMC,105052,A,4822.7149,N,430.7626,W,10.00,81.26,251015,,*07
$GPRMC,105052,A,4822.7154,N,430.7582,W,10.00,81.26,251015,,*06
$GPRMC,105052,A,4822.7158,N,430.7538,W,10.00,81.26,251015,,*0B
$GPRMC,105052,A,4822.7163,N,430.7495,W,10.00,81.26,251015,,*05
$GPRMC,105052,A,4822.7167,N,430.7451,W,10.00,81.26,251015,,*09
$GPRMC,105052,A,4822.7172,N,430.7407,W,10.00,81.26,251015,,*0E
$GPRMC,105052,A,4822.7176,N,430.7363,W,10.00,81.26,251015,,*0F
$GPRMC,105052,A,4822.7181,N,430.7319,W,10.00,81.26,251015,,*0A
$GPRMC,105052,A,4822.7185,N,430.7276,W,10.00,81.26,251015,,*06
$GPRMC,105052,A,4822.7190,N,430.7232,W,10.00,81.26,251015,,*02
$GPRMC,105052,A,4822.7194,N,430.7188,W,10.00,81.26,251015,,*04
$GPRMC,105052,A,4822.7198,N,430.7144,W,10.00,81.26,251015,,*08
$GPRMC,105052,A,4822.7203,N,430.7100,W,10.00,81.26,251015,,*09
$GPRMC,105052,A,4822.7207,N,430.7056,W,10.00,81.26,251015,,*0F
$GPRMC,105052,A,4822.7212,N,430.7013,W,10.00,81.26,251015,,*0A
$GPRMC,105052,A,4822.7216,N,430.6969,W,10.00,81.26,251015,,*0B
$GPRMC,105052,A,4822.7221,N,430.6925,W,10.00,81.26,251015,,*07
$GPRMC,105052,A,4822.7225,N,430.6881,W,10.00,81.26,251015,,*0C
$GPRMC,105052,A,4822.7230,N,430.6837,W,10.00,81.26,251015,,*05
$GPRMC,105052,A,4822.7234,N,430.6793,W,10.00,81.26,251015,,*00
$GPRMC,105052,A,4822.7239,N,430.6750,W,10.00,81.26,251015,,*02
$GPRMC,105052,A,4822.7243,N,430.6706,W,10.00,81.26,251015,,*0C
$GPRMC,105052,A,4822.7248,N,430.6662,W,10.00,81.26,251015,,*04
$GPRMC,105052,A,4822.7252,N,430.6618,W,10.00,81.26,251015,,*02
$GPRMC,105052,A,4822.7257,N,430.6574,W,10.00,81.26,251015,,*0E
$GPRMC,105052,A,4822.7261,N,430.6531,W,10.00,81.26,251015,,*0A
$GPRMC,105052,A,4822.7266,N,430.6487,W,10.00,81.26,251015,,*01
$GPRMC,105052,A,4822.7270,N,430.6443,W,10.00,81.26,251015,,*0E
$GPRMC,105052,A,4822.7275,N,430.6399,W,10.00,81.26,251015,,*0B
$GPRMC,105052,A,4822.7279,N,430.6355,W,10.00,81.26,251015,,*07
$GPRMC,105052,A,4822.7284,N,430.6311,W,10.00,81.26,251015,,*05
$GPRMC,105052,A,4822.7288,N,430.6268,W,10.00,81.26,251015,,*06
$GPRMC,105052,A,4822.7292,N,430.6224,W,10.00,81.26,251015,,*05
$GPRMC,105052,A,4822.7297,N,430.6180,W,10.00,81.26,251015,,*0D
$GPRMC,105052,A,4822.7301,N,430.6136,W,10.00,81.26,251015,,*0E
$GPRMC,105052,A,4822.7306,N,430.6092,W,10.00,81.26,251015,,*06
$GPRMC,105052,A,4822.7310,N,430.6048,W,10.00,81.26,251015,,*06
$GPRMC,105052,A,4822.7315,N,430.6005,W,10.00,81.26,251015,,*0A
$GPRMC,105052,A,4822.7319,N,430.5961,W,10.00,81.26,251015,,*0E
$GPRMC,105052,A,4822.7324,N,430.5917,W,10.00,81.26,251015,,*01
$GPRMC,105052,A,4822.7328,N,430.5873,W,10.00,81.26,251015,,*0E
$GPRMC,105052,A,4822.7333,N,430.5829,W,10.00,81.26,251015,,*0B
$GPRMC,105052,A,4822.7337,N,430.5786,W,10.00,81.26,251015,,*05
$GPRMC,105052,A,4822.7342,N,430.5742,W,10.00,81.26,251015,,*0F
$GPRMC,105052,A,4822.7346,N,430.5698,W,10.00,81.26,251015,,*0D
$GPRMC,105052,A,4822.7351,N,430.5654,W,10.00,81.26,251015,,*0B
$GPRMC,105052,A,4822.7355,N,430.5610,W,10.00,81.26,251015,,*0F
$GPRMC,105052,A,4822.7360,N,430.5566,W,10.00,81.26,251015,,*0B
$GPRMC,105052,A,4822.7364,N,430.5523,W,10.00,81.26,251015,,*0E
$GPRMC,105052,A,4822.7369,N,430.5479,W,10.00,81.26,251015,,*0D
$GPRMC,105052,A,4822.7373,N,430.5435,W,10.00,81.26,251015,,*0E
$GPRMC,105052,A,4822.7377,N,430.5391,W,10.00,81.26,251015,,*03
$GPRMC,105052,A,4822.7382,N,430.5347,W,10.00,81.26,251015,,*02
$GPRMC,105052,A,4822.7386,N,430.5303,W,10.00,81.26,251015,,*06
$GPRMC,105052,A,4822.7391,N,430.5260,W,10.00,81.26,251015,,*04
$GPRMC,105052,A,4822.7395,N,430.5216,W,10.00,81.26,251015,,*01
$GPRMC,105052,A,4822.7400,N,430.5172,W,10.00,81.26,251015,,*0B
$GPRMC,105052,A,4822.7404,N,430.5128,W,10.00,81.26,251015,,*00
$GPRMC,105052,A,4822.7409,N,430.5084,W,10.00,81.26,251015,,*0A
$GPRMC,105052,A,4822.7413,N,430.5041,W,10.00,81.26,251015,,*08
$GPRMC,105052,A,4822.7418,N,430.4997,W,10.00,81.26,251015,,*00
$GPRMC,105052,A,4822.7422,N,430.4953,W,10.00,81.26,251015,,*01
$GPRMC,105052,A,4822.7427,N,430.4909,W,10.00,81.26,251015,,*0B
$GPRMC,105052,A,4822.7431,N,430.4865,W,10.00,81.26,251015,,*07
$GPRMC,105052,A,4822.7436,N,430.4821,W,10.00,81.26,251015,,*00
$GPRMC,105052,A,4822.7440,N,430.4778,W,10.00,81.26,251015,,*02
$GPRMC,105052,A,4822.7445,N,430.4734,W,10.00,81.26,251015,,*0F
$GPRMC,105052,A,4822.7449,N,430.4690,W,10.00,81.26,251015,,*0C
$GPRMC,105052,A,4822.7454,N,430.4646,W,10.00,81.26,251015,,*0B
$GPRMC,105052,A,4822.7458,N,430.4602,W,10.00,81.26,251015,,*07
$GPRMC,105052,A,4822.7462,N,430.4558,W,10.00,81.26,251015,,*02
$GPRMC,105052,A,4822.7467,N,430.4515,W,10.00,81.26,251015,,*0E
$GPRMC,105052,A,4822.7471,N,430.4471,W,10.00,81.26,251015,,*0A
$GPRMC,105052,A,4822.7476,N,430.4427,W,10.00,81.26,251015,,*0E
$GPRMC,105052,A,4822.7480,N,430.4383,W,10.00,81.26,251015,,*0E
$GPRMC,105052,A,4822.7485,N,430.4339,W,10.00,81.26,251015,,*0A
$GPRMC,105052,A,4822.7489,N,430.4295,W,10.00,81.26,251015,,*01
$GPRMC,105052,A,4822.7494,N,430.4252,W,10.00,81.26,251015,,*06
$GPRMC,105052,A,4822.7498,N,430.4208,W,10.00,81.26,251015,,*05
$GPRMC,105052,A,4822.7503,N,430.4164,W,10.00,81.26,251015,,*0F
$GPRMC,105052,A,4822.7507,N,430.4120,W,10.00,81.26,251015,,*0B
$GPRMC,105052,A,4822.7512,N,430.4076,W,10.00,81.26,251015,,*0D
$GPRMC,105052,A,4822.7516,N,430.4033,W,10.00,81.26,251015,,*08
$GPRMC,105052,A,4822.7521,N,430.3989,W,10.00,81.26,251015,,*03
$GPRMC,105052,A,4822.7525,N,430.3945,W,10.00,81.26,251015,,*07
$GPRMC,105052,A,4822.7530,N,430.3901,W,10.00,81.26,251015,,*03
$GPRMC,105052,A,4822.7534,N,430.3857,W,10.00,81.26,251015,,*05
$GPRMC,105052,A,4822.7539,N,430.3813,W,10.00,81.26,251015,,*08
$GPRMC,105052,A,4822.7543,N,430.3770,W,10.00,81.26,251015,,*0F
$GPRMC,105052,A,4822.7547,N,430.3726,W,10.00,81.26,251015,,*08
$GPRMC,105052,A,4822.7552,N,430.3682,W,10.00,81.26,251015,,*03
$GPRMC,105052,A,4822.7556,N,430.3638,W,10.00,81.26,251015,,*06
$GPRMC,105052,A,4822.7561,N,430.3594,W,10.00,81.26,251015,,*07
$GPRMC,105052,A,4822.7565,N,430.3550,W,10.00,81.26,251015,,*0B
$GPRMC,105052,A,4822.7570,N,430.3507,W,10.00,81.26,251015,,*0D
$GPRMC,105052,A,4822.7574,N,430.3463,W,10.00,81.26,251015,,*0A
$GPRMC,105052,A,4822.7579,N,430.3419,W,10.00,81.26,251015,,*0A
$GPRMC,105052,A,4822.7583,N,430.3375,W,10.00,81.26,251015,,*02
$GPRMC,105052,A,4822.7588,N,430.3331,W,10.00,81.26,251015,,*09
$GPRMC,105052,A,4822.7592,N,430.3288,W,10.00,81.26,251015,,*01
$GPRMC,105052,A,4822.7597,N,430.3244,W,10.00,81.26,251015,,*04
$GPRMC,105052,A,4822.7601,N,430.3200,W,10.00,81.26,251015,,*08
$GPRMC,105052,A,4822.7606,N,430.3156,W,10.00,81.26,251015,,*0F
$GPRMC,105052,A,4822.7610,N,430.3112,W,10.00,81.26,251015,,*08
$GPRMC,105052,A,4822.7615,N,430.3068,W,10.00,81.26,251015,,*01
$GPRMC,105052,A,4822.7619,N,430.3025,W,10.00,81.26,251015,,*04
$GPRMC,105052,A,4822.7624,N,430.2981,W,10.00,81.26,251015,,*0C
$GPRMC,105052,A,4822.7628,N,430.2937,W,10.00,81.26,251015,,*0D
$GPRMC,105052,A,4822.7632,N,430.2893,W,10.00,81.26,251015,,*09
$GPRMC,105052,A,4822.7637,N,430.2849,W,10.00,81.26,251015,,*0B
$GPRMC,105052,A,4822.7641,N,430.2805,W,10.00,81.26,251015,,*02
$GPRMC,105052,A,4822.7646,N,430.2762,W,10.00,81.26,251015,,*0B
$GPRMC,105052,A,4822.7650,N,430.2718,W,10.00,81.26,251015,,*01
$GPRMC,105052,A,4822.7655,N,430.2674,W,10.00,81.26,251015,,*0F
$GPRMC,105052,A,4822.7659,N,430.2630,W,10.00,81.26,251015,,*03
$GPRMC,105052,A,4822.7664,N,430.2586,W,10.00,81.26,251015,,*03
$GPRMC,105052,A,4822.7668,N,430.2542,W,10.00,81.26,251015,,*07
$GPRMC,105052,A,4822.7673,N,430.2499,W,10.00,81.26,251015,,*0A
$GPRMC,105052,A,4822.7677,N,430.2455,W,10.00,81.26,251015,,*0E
$GPRMC,105052,A,4822.7682,N,430.2411,W,10.00,81.26,251015,,*04
$GPRMC,105052,A,4822.7686,N,430.2367,W,10.00,81.26,251015,,*06
$GPRMC,105052,A,4822.7691,N,430.2323,W,10.00,81.26,251015,,*00
$GPRMC,105052,A,4822.7695,N,430.2280,W,10.00,81.26,251015,,*0C
$GPRMC,105052,A,4822.7700,N,430.2236,W,10.00,81.26,251015,,*0C
$GPRMC,105052,A,4822.7704,N,430.2192,W,10.00,81.26,251015,,*05
$GPRMC,105052,A,4822.7708,N,430.2148,W,10.00,81.26,251015,,*0E
$GPRMC,105052,A,4822.7713,N,430.2104,W,10.00,81.26,251015,,*0C
$GPRMC,105052,A,4822.7717,N,430.2060,W,10.00,81.26,251015,,*0B
$GPRMC,105052,A,4822.7722,N,430.2017,W,10.00,81.26,251015,,*0D
$GPRMC,105052,A,4822.7726,N,430.1973,W,10.00,81.26,251015,,*01
$GPRMC,105052,A,4822.7731,N,430.1929,W,10.00,81.26,251015,,*08
$GPRMC,105052,A,4822.7735,N,430.1885,W,10.00,81.26,251015,,*0B
$GPRMC,105052,A,4822.7740,N,430.1841,W,10.00,81.26,251015,,*01
$GPRMC,105052,A,4822.7744,N,430.1797,W,10.00,81.26,251015,,*01
$GPRMC,105052,A,4822.7749,N,430.1754,W,10.00,81.26,251015,,*03
$GPRMC,105052,A,4822.7753,N,430.1710,W,10.00,81.26,251015,,*08
$GPRMC,105052,A,4822.7758,N,430.1666,W,10.00,81.26,251015,,*03
$GPRMC,105052,A,4822.7762,N,430.1622,W,10.00,81.26,251015,,*0A
$GPRMC,105052,A,4822.7767,N,430.1578,W,10.00,81.26,251015,,*03
$GPRMC,105052,A,4822.7771,N,430.1535,W,10.00,81.26,251015,,*0D
$GPRMC,105052,A,4822.7776,N,430.1491,W,10.00,81.26,251015,,*05
$GPRMC,105052,A,4822.7780,N,430.1447,W,10.00,81.26,251015,,*07
$GPRMC,105052,A,4822.7785,N,430.1403,W,10.00,81.26,251015,,*02
$GPRMC,105052,A,4822.7789,N,430.1359,W,10.00,81.26,251015,,*06
$GPRMC,105052,A,4822.7793,N,430.1315,W,10.00,81.26,251015,,*05
$GPRMC,105052,A,4822.7798,N,430.1272,W,10.00,81.26,251015,,*0E
$GPRMC,105052,A,4822.7802,N,430.1228,W,10.00,81.26,251015,,*0D
$GPRMC,105052,A,4822.7807,N,430.1184,W,10.00,81.26,251015,,*0D
$GPRMC,105052,A,4822.7811,N,430.1140,W,10.00,81.26,251015,,*02
$GPRMC,105052,A,4822.7816,N,430.1096,W,10.00,81.26,251015,,*0F
$GPRMC,105052,A,4822.7820,N,430.1052,W,10.00,81.26,251015,,*02
$GPRMC,105052,A,4822.7825,N,430.1009,W,10.00,81.26,251015,,*09
$GPRMC,105052,A,4822.7829,N,430.0965,W,10.00,81.26,251015,,*07
$GPRMC,105052,A,4822.7834,N,430.0921,W,10.00,81.26,251015,,*0B
$GPRMC,105052,A,4822.7838,N,430.0877,W,10.00,81.26,251015,,*05
$GPRMC,105052,A,4822.7843,N,430.0833,W,10.00,81.26,251015,,*09
$GPRMC,105052,A,4822.7847,N,430.0789,W,10.00,81.26,251015,,*03
$GPRMC,105052,A,4822.7852,N,430.0746,W,10.00,81.26,251015,,*04
$GPRMC,105052,A,4822.7856,N,430.0702,W,10.00,81.26,251015,,*00
$GPRMC,105052,A,4822.7861,N,430.0658,W,10.00,81.26,251015,,*0A
$GPRMC,105052,A,4822.7865,N,430.0614,W,10.00,81.26,251015,,*06
$GPRMC,105052,A,4822.7869,N,430.0570,W,10.00,81.26,251015,,*0B
$GPRMC,105052,A,4822.7874,N,430.0527,W,10.00,81.26,251015,,*05
$GPRMC,105052,A,4822.7878,N,430.0483,W,10.00,81.26,251015,,*06
$GPRMC,105052,A,4822.7883,N,430.0439,W,10.00,81.26,251015,,*03
$GPRMC,105052,A,4822.7887,N,430.0395,W,10.00,81.26,251015,,*06
$GPRMC,105052,A,4822.7892,N,430.0351,W,10.00,81.26,251015,,*0A
$GPRMC,105052,A,4822.7896,N,430.0307,W,10.00,81.26,251015,,*0D
$GPRMC,105052,A,4822.7901,N,430.0264,W,10.00,81.26,251015,,*06
$GPRMC,105052,A,4822.7905,N,430.0220,W,10.00,81.26,251015,,*02
$GPRMC,105052,A,4822.7910,N,430.0176,W,10.00,81.26,251015,,*06
$GPRMC,105052,A,4822.7914,N,430.0132,W,10.00,81.26,251015,,*02
$GPRMC,105052,A,4822.7919,N,430.0088,W,10.00,81.26,251015,,*0F
$GPRMC,105052,A,4822.7923,N,430.0044,W,10.00,81.26,251015,,*06
$GPRMC,105052,A,4822.7928,N,430.0001,W,10.00,81.26,251015,,*0C
$GPRMC,105052,A,4822.7932,N,429.9957,W,10.00,81.26,251015,,*0C
$GPRMC,105052,A,4822.7937,N,429.9913,W,10.00,81.26,251015,,*09
$GPRMC,105052,A,4822.7941,N,429.9869,W,10.00,81.26,251015,,*04
$GPRMC,105052,A,4822.7945,N,429.9825,W,10.00,81.26,251015,,*08
$GPRMC,105052,A,4822.7950,N,429.9781,W,10.00,81.26,251015,,*0D
$GPRMC,105052,A,4822.7954,N,429.9738,W,10.00,81.26,251015,,*0B
$GPRMC,105052,A,4822.7959,N,429.9694,W,10.00,81.26,251015,,*01
$GPRMC,105052,A,4822.7963,N,429.9650,W,10.00,81.26,251015,,*00
$GPRMC,105052,A,4822.7968,N,429.9606,W,10.00,81.26,251015,,*08
$GPRMC,105052,A,4822.7972,N,429.9562,W,10.00,81.26,251015,,*02
$GPRMC,105052,A,4822.7977,N,429.9519,W,10.00,81.26,251015,,*0B
$GPRMC,105052,A,4822.7981,N,429.9475,W,10.00,81.26,251015,,*09
$GPRMC,105052,A,4822.7986,N,429.9431,W,10.00,81.26,251015,,*0E
$GPRMC,105052,A,4822.7990,N,429.9387,W,10.00,81.26,251015,,*03
$GPRMC,105052,A,4822.7995,N,429.9343,W,10.00,81.26,251015,,*0E
$GPRMC,105052,A,4822.7999,N,429.9299,W,10.00,81.26,251015,,*04
$GPRMC,105052,A,4822.8004,N,429.9256,W,10.00,81.26,251015,,*05
$GPRMC,105052,A,4822.8008,N,429.9212,W,10.00,81.26,251015,,*09
$GPRMC,105052,A,4822.8013,N,429.9168,W,10.00,81.26,251015,,*0D
$GPRMC,105052,A,4822.8017,N,429.9124,W,10.00,81.26,251015,,*01
$GPRMC,105052,A,4822.8021,N,429.9080,W,10.00,81.26,251015,,*0B
$GPRMC,105052,A,4822.8026,N,429.9036,W,10.00,81.26,251015,,*01
$GPRMC,105052,A,4822.8030,N,429.8993,W,10.00,81.26,251015,,*01
$GPRMC,105052,A,4822.8035,N,429.8949,W,10.00,81.26,251015,,*03
$GPRMC,105052,A,4822.8039,N,429.8905,W,10.00,81.26,251015,,*07
$GPRMC,105052,A,4822.8044,N,429.8861,W,10.00,81.26,251015,,*0E
$GPRMC,105052,A,4822.8048,N,429.8817,W,10.00,81.26,251015,,*03
$GPRMC,105052,A,4822.8053,N,429.8773,W,10.00,81.26,251015,,*04
$GPRMC,105052,A,4822.8057,N,429.8730,W,10.00,81.26,251015,,*07
$GPRMC,105052,A,4822.8062,N,429.8686,W,10.00,81.26,251015,,*0D
$GPRMC,105052,A,4822.8066,N,429.8642,W,10.00,81.26,251015,,*01
$GPRMC,105052,A,4822.8071,N,429.8598,W,10.00,81.26,251015,,*03
$GPRMC,105052,A,4822.8075,N,429.8554,W,10.00,81.26,251015,,*07
$GPRMC,105052,A,4822.8080,N,429.8511,W,10.00,81.26,251015,,*0C
$GPRMC,105052,A,4822.8084,N,429.8467,W,10.00,81.26,251015,,*08
$GPRMC,105052,A,4822.8089,N,429.8423,W,10.00,81.26,251015,,*05
$GPRMC,105052,A,4822.8093,N,429.8379,W,10.00,81.26,251015,,*06
$GPRMC,105052,A,4822.8097,N,429.8335,W,10.00,81.26,251015,,*0A
$GPRMC,105052,A,4822.8102,N,429.8291,W,10.00,81.26,251015,,*08
$GPRMC,105052,A,4822.8106,N,429.8248,W,10.00,81.26,251015,,*08
$GPRMC,105052,A,4822.8111,N,429.8204,W,10.00,81.26,251015,,*06
$GPRMC,105052,A,4822.8115,N,429.8160,W,10.00,81.26,251015,,*03
$GPRMC,105052,A,4822.8120,N,429.8116,W,10.00,81.26,251015,,*04
$GPRMC,105052,A,4822.8124,N,429.8072,W,10.00,81.26,251015,,*03
$GPRMC,105052,A,4822.8129,N,429.8028,W,10.00,81.26,251015,,*01
$GPRMC,105052,A,4822.8133,N,429.7985,W,10.00,81.26,251015,,*0B
$GPRMC,105052,A,4822.8138,N,429.7941,W,10.00,81.26,251015,,*08
$GPRMC,105052,A,4822.8142,N,429.7897,W,10.00,81.26,251015,,*0F
$GPRMC,105052,A,4822.8147,N,429.7853,W,10.00,81.26,251015,,*02
$GPRMC,105052,A,4822.8151,N,429.7809,W,10.00,81.26,251015,,*0A
$GPRMC,105052,A,4822.8156,N,429.7765,W,10.00,81.26,251015,,*08
$GPRMC,105052,A,4822.8160,N,429.7722,W,10.00,81.26,251015,,*0E
$GPRMC,105052,A,4822.8164,N,429.7678,W,10.00,81.26,251015,,*04
$GPRMC,105052,A,4822.8169,N,429.7634,W,10.00,81.26,251015,,*01
$GPRMC,105052,A,4822.8173,N,429.7590,W,10.00,81.26,251015,,*07
$GPRMC,105052,A,4822.8178,N,429.7546,W,10.00,81.26,251015,,*07
$GPRMC,105052,A,4822.8182,N,429.7502,W,10.00,81.26,251015,,*02
$GPRMC,105052,A,4822.8187,N,429.7459,W,10.00,81.26,251015,,*08
$GPRMC,105052,A,4822.8191,N,429.7415,W,10.00,81.26,251015,,*07
$GPRMC,105052,A,4822.8196,N,429.7371,W,10.00,81.26,251015,,*05
$GPRMC,105052,A,4822.8200,N,429.7327,W,10.00,81.26,251015,,*0A
$GPRMC,105052,A,4822.8205,N,429.7283,W,10.00,81.26,251015,,*00
$GPRMC,105052,A,4822.8209,N,429.7240,W,10.00,81.26,251015,,*03
$GPRMC,105052,A,4822.8214,N,429.7196,W,10.00,81.26,251015,,*07
$GPRMC,105052,A,4822.8218,N,429.7152,W,10.00,81.26,251015,,*03
$GPRMC,105052,A,4822.8223,N,429.7108,W,10.00,81.26,251015,,*04
$GPRMC,105052,A,4822.8227,N,429.7064,W,10.00,81.26,251015,,*0B
$GPRMC,105052,A,4822.8232,N,429.7020,W,10.00,81.26,251015,,*0F
$GPRMC,105052,A,4822.8236,N,429.6977,W,10.00,81.26,251015,,*01
$GPRMC,105052,A,4822.8240,N,429.6933,W,10.00,81.26,251015,,*00
$GPRMC,105052,A,4822.8245,N,429.6889,W,10.00,81.26,251015,,*05
$GPRMC,105052,A,4822.8249,N,429.6845,W,10.00,81.26,251015,,*09
$GPRMC,105052,A,4822.8254,N,429.6801,W,10.00,81.26,251015,,*05
$GPRMC,105052,A,4822.8258,N,429.6757,W,10.00,81.26,251015,,*05
$GPRMC,105052,A,4822.8263,N,429.6714,W,10.00,81.26,251015,,*0A
$GPRMC,105052,A,4822.8267,N,429.6670,W,10.00,81.26,251015,,*0D
$GPRMC,105052,A,4822.8272,N,429.6626,W,10.00,81.26,251015,,*0A
$GPRMC,105052,A,4822.8276,N,429.6582,W,10.00,81.26,251015,,*03
$GPRMC,105052,A,4822.8281,N,429.6538,W,10.00,81.26,251015,,*0A
$GPRMC,105052,A,4822.8285,N,429.6494,W,10.00,81.26,251015,,*09
$GPRMC,105052,A,4822.8290,N,429.6451,W,10.00,81.26,251015,,*04
$GPRMC,105052,A,4822.8294,N,429.6407,W,10.00,81.26,251015,,*03
$GPRMC,105052,A,4822.8299,N,429.6363,W,10.00,81.26,251015,,*0B
$GPRMC,105052,A,4822.8303,N,429.6319,W,10.00,81.26,251015,,*04
$GPRMC,105052,A,4822.8307,N,429.6275,W,10.00,81.26,251015,,*0B
$GPRMC,105052,A,4822.8312,N,429.6232,W,10.00,81.26,251015,,*0C
$GPRMC,105052,A,4822.8316,N,429.6188,W,10.00,81.26,251015,,*0A
$GPRMC,105052,A,4822.8321,N,429.6144,W,10.00,81.26,251015,,*0E
$GPRMC,105052,A,4822.8325,N,429.6100,W,10.00,81.26,251015,,*0A
$GPRMC,105052,A,4822.8330,N,429.6056,W,10.00,81.26,251015,,*0C
$GPRMC,105052,A,4822.8334,N,429.6012,W,10.00,81.26,251015,,*08
$GPRMC,105052,A,4822.8339,N,429.5969,W,10.00,81.26,251015,,*03
$GPRMC,105052,A,4822.8343,N,429.5925,W,10.00,81.26,251015,,*06
$GPRMC,105052,A,4822.8348,N,429.5881,W,10.00,81.26,251015,,*02
$GPRMC,105052,A,4822.8352,N,429.5837,W,10.00,81.26,251015,,*04
$GPRMC,105052,A,4822.8357,N,429.5793,W,10.00,81.26,251015,,*00
$GPRMC,105052,A,4822.8361,N,429.5749,W,10.00,81.26,251015,,*02
$GPRMC,105052,A,4822.8366,N,429.5706,W,10.00,81.26,251015,,*0E
$GPRMC,105052,A,4822.8370,N,429.5662,W,10.00,81.26,251015,,*0A
$GPRMC,105052,A,4822.8375,N,429.5618,W,10.00,81.26,251015,,*02
$GPRMC,105052,A,4822.8379,N,429.5574,W,10.00,81.26,251015,,*07
$GPRMC,105052,A,4822.8383,N,429.5530,W,10.00,81.26,251015,,*02
$GPRMC,105052,A,4822.8388,N,429.5486,W,10.00,81.26,251015,,*05
$GPRMC,105052,A,4822.8392,N,429.5443,W,10.00,81.26,251015,,*07
$GPRMC,105052,A,4822.8397,N,429.5399,W,10.00,81.26,251015,,*02
$GPRMC,105052,A,4822.8401,N,429.5355,W,10.00,81.26,251015,,*0A
$GPRMC,105052,A,4822.8406,N,429.5311,W,10.00,81.26,251015,,*0D
$GPRMC,105052,A,4822.8410,N,429.5267,W,10.00,81.26,251015,,*0A
$GPRMC,105052,A,4822.8415,N,429.5223,W,10.00,81.26,251015,,*0F
$GPRMC,105052,A,4822.8419,N,429.5180,W,10.00,81.26,251015,,*09
$GPRMC,105052,A,4822.8424,N,429.5136,W,10.00,81.26,251015,,*0A
$GPRMC,105052,A,4822.8428,N,429.5092,W,10.00,81.26,251015,,*09
$GPRMC,105052,A,4822.8433,N,429.5048,W,10.00,81.26,251015,,*04
$GPRMC,105052,A,4822.8437,N,429.5004,W,10.00,81.26,251015,,*08
$GPRMC,105052,A,4822.8442,N,429.4961,W,10.00,81.26,251015,,*01
$GPRMC,105052,A,4822.8446,N,429.4917,W,10.00,81.26,251015,,*04
$GPRMC,105052,A,4822.8450,N,429.4873,W,10.00,81.26,251015,,*00
$GPRMC,105052,A,4822.8455,N,429.4829,W,10.00,81.26,251015,,*0A
$GPRMC,105052,A,4822.8459,N,429.4785,W,10.00,81.26,251015,,*0F
$GPRMC,105052,A,4822.8464,N,429.4741,W,10.00,81.26,251015,,*09
$GPRMC,105052,A,4822.8468,N,429.4698,W,10.00,81.26,251015,,*00
$GPRMC,105052,A,4822.8473,N,429.4654,W,10.00,81.26,251015,,*0A
$GPRMC,105052,A,4822.8477,N,429.4610,W,10.00,81.26,251015,,*0E
$GPRMC,105052,A,4822.8482,N,429.4566,W,10.00,81.26,251015,,*06
$GPRMC,105052,A,4822.8486,N,429.4522,W,10.00,81.26,251015,,*02
$GPRMC,105052,A,4822.8491,N,429.4478,W,10.00,81.26,251015,,*0A
$GPRMC,105052,A,4822.8495,N,429.4435,W,10.00,81.26,251015,,*07
$GPRMC,105052,A,4822.8500,N,429.4391,W,10.00,81.26,251015,,*03
$GPRMC,105052,A,4822.8504,N,429.4347,W,10.00,81.26,251015,,*0C
$GPRMC,105052,A,4822.8509,N,429.4303,W,10.00,81.26,251015,,*01
