$GPRMC,041907,A,4825.2635,N,432.5829,W,10.00,189.19,250915,,*3D
$GPRMC,041907,A,4825.2579,N,432.5842,W,10.00,189.19,250915,,*3B
$GPRMC,041907,A,4825.2524,N,432.5855,W,10.00,189.19,250915,,*35
$GPRMC,041907,A,4825.2469,N,432.5869,W,10.00,189.19,250915,,*32
$GPRMC,041907,A,4825.2414,N,432.5882,W,10.00,189.19,250915,,*3D
$GPRMC,041907,A,4825.2359,N,432.5896,W,10.00,189.19,250915,,*36
$GPRMC,041907,A,4825.2304,N,432.5909,W,10.00,189.19,250915,,*39
$GPRMC,041907,A,4825.2249,N,432.5922,W,10.00,189.19,250915,,*38
$GPRMC,041907,A,4825.2194,N,432.5936,W,10.00,189.19,250915,,*3E
$GPRMC,041907,A,4825.2138,N,432.5949,W,10.00,189.19,250915,,*30
$GPRMC,041907,A,4825.2083,N,432.5963,W,10.00,189.19,250915,,*39
$GPRMC,041907,A,4825.2028,N,432.5976,W,10.00,189.19,250915,,*3C
$GPRMC,041907,A,4825.1973,N,432.5989,W,10.00,189.19,250915,,*38
$GPRMC,041907,A,4825.1918,N,432.6003,W,10.00,189.19,250915,,*3D
$GPRMC,041907,A,4825.1863,N,432.6016,W,10.00,189.19,250915,,*34
$GPRMC,041907,A,4825.1808,N,432.6030,W,10.00,189.19,250915,,*3D
$GPRMC,041907,A,4825.1752,N,432.6043,W,10.00,189.19,250915,,*39
$GPRMC,041907,A,4825.1697,N,432.6056,W,10.00,189.19,250915,,*35
$GPRMC,041907,A,4825.1642,N,432.6070,W,10.00,189.19,250915,,*39
$GPRMC,041907,A,4825.1587,N,432.6083,W,10.00,189.19,250915,,*3F
$GPRMC,041907,A,4825.1532,N,432.6097,W,10.00,189.19,250915,,*34
$GPRMC,041907,A,4825.1477,N,432.6110,W,10.00,189.19,250915,,*3A
$GPRMC,041907,A,4825.1422,N,432.6123,W,10.00,189.19,250915,,*3A
$GPRMC,041907,A,4825.1367,N,432.6137,W,10.00,189.19,250915,,*39
$GPRMC,041907,A,4825.1311,N,432.6150,W,10.00,189.19,250915,,*39
$GPRMC,041907,A,4825.1256,N,432.6164,W,10.00,189.19,250915,,*3C
$GPRMC,041907,A,4825.1201,N,432.6177,W,10.00,189.19,250915,,*3C
$GPRMC,041907,A,4825.1146,N,432.6191,W,10.00,189.19,250915,,*34
$GPRMC,041907,A,4825.1091,N,432.6204,W,10.00,189.19,250915,,*30
$GPRMC,041907,A,4825.1036,N,432.6217,W,10.00,189.19,250915,,*3F
$GPRMC,041907,A,4825.0981,N,432.6231,W,10.00,189.19,250915,,*3F
$GPRMC,041907,A,4825.0925,N,432.6244,W,10.00,189.19,250915,,*33
$GPRMC,041907,A,4825.0870,N,432.6258,W,10.00,189.19,250915,,*3F
$GPRMC,041907,A,4825.0815,N,432.6271,W,10.00,189.19,250915,,*37
$GPRMC,041907,A,4825.0760,N,432.6284,W,10.00,189.19,250915,,*30
$GPRMC,041907,A,4825.0705,N,432.6298,W,10.00,189.19,250915,,*3E
$GPRMC,041907,A,4825.0650,N,432.6311,W,10.00,189.19,250915,,*3F
$GPRMC,041907,A,4825.0595,N,432.6325,W,10.00,189.19,250915,,*32
$GPRMC,041907,A,4825.0540,N,432.6338,W,10.00,189.19,250915,,*36
$GPRMC,041907,A,4825.0484,N,432.6351,W,10.00,189.19,250915,,*30
$GPRMC,041907,A,4825.0429,N,432.6365,W,10.00,189.19,250915,,*30
$GPRMC,041907,A,4825.0374,N,432.6378,W,10.00,189.19,250915,,*33
$GPRMC,041907,A,4825.0319,N,432.6392,W,10.00,189.19,250915,,*3C
$GPRMC,041907,A,4825.0264,N,432.6405,W,10.00,189.19,250915,,*3E
$GPRMC,041907,A,4825.0209,N,432.6418,W,10.00,189.19,250915,,*39
$GPRMC,041907,A,4825.0154,N,432.6432,W,10.00,189.19,250915,,*3A
$GPRMC,041907,A,4825.0098,N,432.6445,W,10.00,189.19,250915,,*3B
$GPRMC,041907,A,4825.0043,N,432.6459,W,10.00,189.19,250915,,*30
$GPRMC,041907,A,4824.9988,N,432.6472,W,10.00,189.19,250915,,*3F
$GPRMC,041907,A,4824.9933,N,432.6485,W,10.00,189.19,250915,,*37
$GPRMC,041907,A,4824.9878,N,432.6499,W,10.00,189.19,250915,,*34
$GPRMC,041907,A,4824.9823,N,432.6512,W,10.00,189.19,250915,,*38
$GPRMC,041907,A,4824.9768,N,432.6526,W,10.00,189.19,250915,,*3F
$GPRMC,041907,A,4824.9713,N,432.6539,W,10.00,189.19,250915,,*3D
$GPRMC,041907,A,4824.9657,N,432.6552,W,10.00,189.19,250915,,*31
$GPRMC,041907,A,4824.9602,N,432.6566,W,10.00,189.19,250915,,*36
$GPRMC,041907,A,4824.9547,N,432.6579,W,10.00,189.19,250915,,*3A
$GPRMC,041907,A,4824.9492,N,432.6593,W,10.00,189.19,250915,,*37
$GPRMC,041907,A,4824.9437,N,432.6606,W,10.00,189.19,250915,,*37
$GPRMC,041907,A,4824.9382,N,432.6619,W,10.00,189.19,250915,,*30
$GPRMC,041907,A,4824.9327,N,432.6633,W,10.00,189.19,250915,,*37
$GPRMC,041907,A,4824.9272,N,432.6646,W,10.00,189.19,250915,,*34
$GPRMC,041907,A,4824.9216,N,432.6660,W,10.00,189.19,250915,,*32
$GPRMC,041907,A,4824.9161,N,432.6673,W,10.00,189.19,250915,,*33
$GPRMC,041907,A,4824.9106,N,432.6686,W,10.00,189.19,250915,,*38
$GPRMC,041907,A,4824.9051,N,432.6700,W,10.00,189.19,250915,,*34
$GPRMC,041907,A,4824.8996,N,432.6713,W,10.00,189.19,250915,,*35
$GPRMC,041907,A,4824.8941,N,432.6727,W,10.00,189.19,250915,,*38
$GPRMC,041907,A,4824.8886,N,432.6740,W,10.00,189.19,250915,,*33
$GPRMC,041907,A,4824.8830,N,432.6753,W,10.00,189.19,250915,,*3C
$GPRMC,041907,A,4824.8775,N,432.6767,W,10.00,189.19,250915,,*35
$GPRMC,041907,A,4824.8720,N,432.6780,W,10.00,189.19,250915,,*3C
$GPRMC,041907,A,4824.8665,N,432.6794,W,10.00,189.19,250915,,*39
$GPRMC,041907,A,4824.8610,N,432.6807,W,10.00,189.19,250915,,*3E
$GPRMC,041907,A,4824.8555,N,432.6820,W,10.00,189.19,250915,,*39
$GPRMC,041907,A,4824.8500,N,432.6834,W,10.00,189.19,250915,,*3C
$GPRMC,041907,A,4824.8445,N,432.6847,W,10.00,189.19,250915,,*38
$GPRMC,041907,A,4824.8389,N,432.6861,W,10.00,189.19,250915,,*3B
$GPRMC,041907,A,4824.8334,N,432.6874,W,10.00,189.19,250915,,*39
$GPRMC,041907,A,4824.8279,N,432.6887,W,10.00,189.19,250915,,*3D
$GPRMC,041907,A,4824.8224,N,432.6901,W,10.00,189.19,250915,,*3A
$GPRMC,041907,A,4824.8169,N,432.6914,W,10.00,189.19,250915,,*34
$GPRMC,041907,A,4824.8114,N,432.6928,W,10.00,189.19,250915,,*31
$GPRMC,041907,A,4824.8059,N,432.6941,W,10.00,189.19,250915,,*36
$GPRMC,041907,A,4824.8003,N,432.6954,W,10.00,189.19,250915,,*3D
$GPRMC,041907,A,4824.7948,N,432.6968,W,10.00,189.19,250915,,*3B
$GPRMC,041907,A,4824.7893,N,432.6981,W,10.00,189.19,250915,,*3B
$GPRMC,041907,A,4824.7838,N,432.6995,W,10.00,189.19,250915,,*3F
$GPRMC,041907,A,4824.7783,N,432.7008,W,10.00,189.19,250915,,*3C
$GPRMC,041907,A,4824.7728,N,432.7022,W,10.00,189.19,250915,,*35
$GPRMC,041907,A,4824.7673,N,432.7035,W,10.00,189.19,250915,,*3C
$GPRMC,041907,A,4824.7618,N,432.7048,W,10.00,189.19,250915,,*3B
$GPRMC,041907,A,4824.7562,N,432.7062,W,10.00,189.19,250915,,*3D
$GPRMC,041907,A,4824.7507,N,432.7075,W,10.00,189.19,250915,,*38
$GPRMC,041907,A,4824.7452,N,432.7089,W,10.00,189.19,250915,,*3A
$GPRMC,041907,A,4824.7397,N,432.7102,W,10.00,189.19,250915,,*36
$GPRMC,041907,A,4824.7342,N,432.7115,W,10.00,189.19,250915,,*38
$GPRMC,041907,A,4824.7287,N,432.7129,W,10.00,189.19,250915,,*3F
$GPRMC,041907,A,4824.7232,N,432.7142,W,10.00,189.19,250915,,*3C
$GPRMC,041907,A,4824.7176,N,432.7156,W,10.00,189.19,250915,,*3A
$GPRMC,041907,A,4824.7121,N,432.7169,W,10.00,189.19,250915,,*34
$GPRMC,041907,A,4824.7066,N,432.7182,W,10.00,189.19,250915,,*33
$GPRMC,041907,A,4824.7011,N,432.7196,W,10.00,189.19,250915,,*36
$GPRMC,041907,A,4824.6956,N,432.7209,W,10.00,189.19,250915,,*38
$GPRMC,041907,A,4824.6901,N,432.7223,W,10.00,189.19,250915,,*32
$GPRMC,041907,A,4824.6846,N,432.7236,W,10.00,189.19,250915,,*34
$GPRMC,041907,A,4824.6791,N,432.7249,W,10.00,189.19,250915,,*39
$GPRMC,041907,A,4824.6735,N,432.7263,W,10.00,189.19,250915,,*3F
$GPRMC,041907,A,4824.6680,N,432.7276,W,10.00,189.19,250915,,*34
$GPRMC,041907,A,4824.6625,N,432.7290,W,10.00,189.19,250915,,*33
$GPRMC,041907,A,4824.6570,N,432.7303,W,10.00,189.19,250915,,*3B
$GPRMC,041907,A,4824.6515,N,432.7316,W,10.00,189.19,250915,,*3C
$GPRMC,041907,A,4824.6460,N,432.7330,W,10.00,189.19,250915,,*3B
$GPRMC,041907,A,4824.6405,N,432.7343,W,10.00,189.19,250915,,*3C
$GPRMC,041907,A,4824.6349,N,432.7357,W,10.00,189.19,250915,,*36
$GPRMC,041907,A,4824.6294,N,432.7370,W,10.00,189.19,250915,,*32
$GPRMC,041907,A,4824.6239,N,432.7383,W,10.00,189.19,250915,,*39
$GPRMC,041907,A,4824.6184,N,432.7397,W,10.00,189.19,250915,,*39
$GPRMC,041907,A,4824.6129,N,432.7410,W,10.00,189.19,250915,,*36
$GPRMC,041907,A,4824.6074,N,432.7424,W,10.00,189.19,250915,,*38
$GPRMC,041907,A,4824.6019,N,432.7437,W,10.00,189.19,250915,,*31
$GPRMC,041907,A,4824.5964,N,432.7450,W,10.00,189.19,250915,,*30
$GPRMC,041907,A,4824.5908,N,432.7464,W,10.00,189.19,250915,,*3D
$GPRMC,041907,A,4824.5853,N,432.7477,W,10.00,189.19,250915,,*30
$GPRMC,041907,A,4824.5798,N,432.7491,W,10.00,189.19,250915,,*30
$GPRMC,041907,A,4824.5743,N,432.7504,W,10.00,189.19,250915,,*3B
$GPRMC,041907,A,4824.5688,N,432.7517,W,10.00,189.19,250915,,*3F
$GPRMC,041907,A,4824.5633,N,432.7531,W,10.00,189.19,250915,,*3B
$GPRMC,041907,A,4824.5578,N,432.7544,W,10.00,189.19,250915,,*35
$GPRMC,041907,A,4824.5522,N,432.7558,W,10.00,189.19,250915,,*37
$GPRMC,041907,A,4824.5467,N,432.7571,W,10.00,189.19,250915,,*3C
$GPRMC,041907,A,4824.5412,N,432.7584,W,10.00,189.19,250915,,*34
$GPRMC,041907,A,4824.5357,N,432.7598,W,10.00,189.19,250915,,*3F
$GPRMC,041907,A,4824.5302,N,432.7611,W,10.00,189.19,250915,,*3D
$GPRMC,041907,A,4824.5247,N,432.7625,W,10.00,189.19,250915,,*3A
$GPRMC,041907,A,4824.5192,N,432.7638,W,10.00,189.19,250915,,*3D
$GPRMC,041907,A,4824.5137,N,432.7651,W,10.00,189.19,250915,,*3D
$GPRMC,041907,A,4824.5081,N,432.7665,W,10.00,189.19,250915,,*36
$GPRMC,041907,A,4824.5026,N,432.7678,W,10.00,189.19,250915,,*37
$GPRMC,041907,A,4824.4971,N,432.7692,W,10.00,189.19,250915,,*39
$GPRMC,041907,A,4824.4916,N,432.7705,W,10.00,189.19,250915,,*37
$GPRMC,041907,A,4824.4861,N,432.7718,W,10.00,189.19,250915,,*3A
$GPRMC,041907,A,4824.4806,N,432.7732,W,10.00,189.19,250915,,*33
$GPRMC,041907,A,4824.4751,N,432.7745,W,10.00,189.19,250915,,*3E
$GPRMC,041907,A,4824.4695,N,432.7759,W,10.00,189.19,250915,,*3A
$GPRMC,041907,A,4824.4640,N,432.7772,W,10.00,189.19,250915,,*3B
$GPRMC,041907,A,4824.4585,N,432.7785,W,10.00,189.19,250915,,*39
$GPRMC,041907,A,4824.4530,N,432.7799,W,10.00,189.19,250915,,*3A
$GPRMC,041907,A,4824.4475,N,432.7812,W,10.00,189.19,250915,,*36
$GPRMC,041907,A,4824.4420,N,432.7825,W,10.00,189.19,250915,,*32
$GPRMC,041907,A,4824.4365,N,432.7839,W,10.00,189.19,250915,,*39
$GPRMC,041907,A,4824.4310,N,432.7852,W,10.00,189.19,250915,,*36
$GPRMC,041907,A,4824.4254,N,432.7866,W,10.00,189.19,250915,,*30
$GPRMC,041907,A,4824.4199,N,432.7879,W,10.00,189.19,250915,,*3C
$GPRMC,041907,A,4824.4144,N,432.7892,W,10.00,189.19,250915,,*39
$GPRMC,041907,A,4824.4089,N,432.7906,W,10.00,189.19,250915,,*35
$GPRMC,041907,A,4824.4034,N,432.7919,W,10.00,189.19,250915,,*3D
$GPRMC,041907,A,4824.3979,N,432.7933,W,10.00,189.19,250915,,*32
$GPRMC,041907,A,4824.3924,N,432.7946,W,10.00,189.19,250915,,*38
$GPRMC,041907,A,4824.3868,N,432.7959,W,10.00,189.19,250915,,*3F
$GPRMC,041907,A,4824.3813,N,432.7973,W,10.00,189.19,250915,,*3B
$GPRMC,041907,A,4824.3758,N,432.7986,W,10.00,189.19,250915,,*31
$GPRMC,041907,A,4824.3703,N,432.8000,W,10.00,189.19,250915,,*37
$GPRMC,041907,A,4824.3648,N,432.8013,W,10.00,189.19,250915,,*3B
$GPRMC,041907,A,4824.3593,N,432.8026,W,10.00,189.19,250915,,*38
$GPRMC,041907,A,4824.3538,N,432.8040,W,10.00,189.19,250915,,*39
$GPRMC,041907,A,4824.3483,N,432.8053,W,10.00,189.19,250915,,*3A
$GPRMC,041907,A,4824.3427,N,432.8067,W,10.00,189.19,250915,,*33
$GPRMC,041907,A,4824.3372,N,432.8080,W,10.00,189.19,250915,,*3D
$GPRMC,041907,A,4824.3317,N,432.8093,W,10.00,189.19,250915,,*3C
$GPRMC,041907,A,4824.3262,N,432.8107,W,10.00,189.19,250915,,*33
$GPRMC,041907,A,4824.3207,N,432.8120,W,10.00,189.19,250915,,*35
$GPRMC,041907,A,4824.3152,N,432.8134,W,10.00,189.19,250915,,*33
$GPRMC,041907,A,4824.3097,N,432.8147,W,10.00,189.19,250915,,*3F
$GPRMC,041907,A,4824.3041,N,432.8160,W,10.00,189.19,250915,,*31
$GPRMC,041907,A,4824.2986,N,432.8174,W,10.00,189.19,250915,,*37
$GPRMC,041907,A,4824.2931,N,432.8187,W,10.00,189.19,250915,,*37
$GPRMC,041907,A,4824.2876,N,432.8201,W,10.00,189.19,250915,,*38
$GPRMC,041907,A,4824.2821,N,432.8214,W,10.00,189.19,250915,,*3E
$GPRMC,041907,A,4824.2766,N,432.8227,W,10.00,189.19,250915,,*32
$GPRMC,041907,A,4824.2711,N,432.8241,W,10.00,189.19,250915,,*32
$GPRMC,041907,A,4824.2656,N,432.8254,W,10.00,189.19,250915,,*34
$GPRMC,041907,A,4824.2600,N,432.8268,W,10.00,189.19,250915,,*38
$GPRMC,041907,A,4824.2545,N,432.8281,W,10.00,189.19,250915,,*3D
$GPRMC,041907,A,4824.2490,N,432.8294,W,10.00,189.19,250915,,*30
$GPRMC,041907,A,4824.2435,N,432.8308,W,10.00,189.19,250915,,*3B
$GPRMC,041907,A,4824.2380,N,432.8321,W,10.00,189.19,250915,,*39
$GPRMC,041907,A,4824.2325,N,432.8335,W,10.00,189.19,250915,,*33
$GPRMC,041907,A,4824.2270,N,432.8348,W,10.00,189.19,250915,,*38
$GPRMC,041907,A,4824.2214,N,432.8361,W,10.00,189.19,250915,,*31
$GPRMC,041907,A,4824.2159,N,432.8375,W,10.00,189.19,250915,,*3E
$GPRMC,041907,A,4824.2104,N,432.8388,W,10.00,189.19,250915,,*34
$GPRMC,041907,A,4824.2049,N,432.8402,W,10.00,189.19,250915,,*39
$GPRMC,041907,A,4824.1994,N,432.8415,W,10.00,189.19,250915,,*35
$GPRMC,041907,A,4824.1939,N,432.8428,W,10.00,189.19,250915,,*3C
$GPRMC,041907,A,4824.1884,N,432.8442,W,10.00,189.19,250915,,*37
$GPRMC,041907,A,4824.1829,N,432.8455,W,10.00,189.19,250915,,*36
$GPRMC,041907,A,4824.1773,N,432.8469,W,10.00,189.19,250915,,*39
$GPRMC,041907,A,4824.1718,N,432.8482,W,10.00,189.19,250915,,*31
$GPRMC,041907,A,4824.1663,N,432.8495,W,10.00,189.19,250915,,*3A
$GPRMC,041907,A,4824.1608,N,432.8509,W,10.00,189.19,250915,,*33
$GPRMC,041907,A,4824.1553,N,432.8522,W,10.00,189.19,250915,,*37
$GPRMC,041907,A,4824.1498,N,432.8536,W,10.00,189.19,250915,,*34
$GPRMC,041907,A,4824.1443,N,432.8549,W,10.00,189.19,250915,,*3A
$GPRMC,041907,A,4824.1387,N,432.8562,W,10.00,189.19,250915,,*3C
$GPRMC,041907,A,4824.1332,N,432.8576,W,10.00,189.19,250915,,*37
$GPRMC,041907,A,4824.1277,N,432.8589,W,10.00,189.19,250915,,*37
$GPRMC,041907,A,4824.1222,N,432.8603,W,10.00,189.19,250915,,*36
$GPRMC,041907,A,4824.1167,N,432.8616,W,10.00,189.19,250915,,*30
$GPRMC,041907,A,4824.1112,N,432.8629,W,10.00,189.19,250915,,*3E
$GPRMC,041907,A,4824.1057,N,432.8643,W,10.00,189.19,250915,,*32
$GPRMC,041907,A,4824.1002,N,432.8656,W,10.00,189.19,250915,,*36
$GPRMC,041907,A,4824.0946,N,432.8670,W,10.00,189.19,250915,,*3A
$GPRMC,041907,A,4824.0891,N,432.8683,W,10.00,189.19,250915,,*3D
$GPRMC,041907,A,4824.0836,N,432.8696,W,10.00,189.19,250915,,*34
$GPRMC,041907,A,4824.0781,N,432.8710,W,10.00,189.19,250915,,*38
$GPRMC,041907,A,4824.0726,N,432.8723,W,10.00,189.19,250915,,*35
$GPRMC,041907,A,4824.0671,N,432.8736,W,10.00,189.19,250915,,*32
$GPRMC,041907,A,4824.0616,N,432.8750,W,10.00,189.19,250915,,*33
$GPRMC,041907,A,4824.0560,N,432.8763,W,10.00,189.19,250915,,*31
$GPRMC,041907,A,4824.0505,N,432.8777,W,10.00,189.19,250915,,*37
$GPRMC,041907,A,4824.0450,N,432.8790,W,10.00,189.19,250915,,*3F
$GPRMC,041907,A,4824.0395,N,432.8803,W,10.00,189.19,250915,,*34
$GPRMC,041907,A,4824.0340,N,432.8817,W,10.00,189.19,250915,,*39
$GPRMC,041907,A,4824.0285,N,432.8830,W,10.00,189.19,250915,,*34
$GPRMC,041907,A,4824.0230,N,432.8844,W,10.00,189.19,250915,,*39
$GPRMC,041907,A,4824.0175,N,432.8857,W,10.00,189.19,250915,,*39
$GPRMC,041907,A,4824.0119,N,432.8870,W,10.00,189.19,250915,,*36
$GPRMC,041907,A,4824.0064,N,432.8884,W,10.00,189.19,250915,,*36
$GPRMC,041907,A,4824.0009,N,432.8897,W,10.00,189.19,250915,,*3F
$GPRMC,041907,A,4823.9954,N,432.8911,W,10.00,189.19,250915,,*3F
$GPRMC,041907,A,4823.9899,N,432.8924,W,10.00,189.19,250915,,*39
$GPRMC,041907,A,4823.9844,N,432.8937,W,10.00,189.19,250915,,*3B
$GPRMC,041907,A,4823.9789,N,432.8951,W,10.00,189.19,250915,,*35
$GPRMC,041907,A,4823.9733,N,432.8964,W,10.00,189.19,250915,,*32
$GPRMC,041907,A,4823.9678,N,432.8978,W,10.00,189.19,250915,,*31
$GPRMC,041907,A,4823.9623,N,432.8991,W,10.00,189.19,250915,,*38
$GPRMC,041907,A,4823.9568,N,432.9004,W,10.00,189.19,250915,,*30
$GPRMC,041907,A,4823.9513,N,432.9018,W,10.00,189.19,250915,,*31
$GPRMC,041907,A,4823.9458,N,432.9031,W,10.00,189.19,250915,,*34
$GPRMC,041907,A,4823.9403,N,432.9045,W,10.00,189.19,250915,,*39
$GPRMC,041907,A,4823.9348,N,432.9058,W,10.00,189.19,250915,,*3D
$GPRMC,041907,A,4823.9292,N,432.9071,W,10.00,189.19,250915,,*30
$GPRMC,041907,A,4823.9237,N,432.9085,W,10.00,189.19,250915,,*34
$GPRMC,041907,A,4823.9182,N,432.9098,W,10.00,189.19,250915,,*35
$GPRMC,041907,A,4823.9127,N,432.9112,W,10.00,189.19,250915,,*39
$GPRMC,041907,A,4823.9072,N,432.9125,W,10.00,189.19,250915,,*3C
$GPRMC,041907,A,4823.9017,N,432.9138,W,10.00,189.19,250915,,*33
$GPRMC,041907,A,4823.8962,N,432.9152,W,10.00,189.19,250915,,*35
$GPRMC,041907,A,4823.8906,N,432.9165,W,10.00,189.19,250915,,*33
$GPRMC,041907,A,4823.8851,N,432.9179,W,10.00,189.19,250915,,*3D
$GPRMC,041907,A,4823.8796,N,432.9192,W,10.00,189.19,250915,,*3C
$GPRMC,041907,A,4823.8741,N,432.9205,W,10.00,189.19,250915,,*3B
$GPRMC,041907,A,4823.8686,N,432.9219,W,10.00,189.19,250915,,*3C
$GPRMC,041907,A,4823.8631,N,432.9232,W,10.00,189.19,250915,,*39
$GPRMC,041907,A,4823.8576,N,432.9245,W,10.00,189.19,250915,,*39
$GPRMC,041907,A,4823.8521,N,432.9259,W,10.00,189.19,250915,,*36
$GPRMC,041907,A,4823.8465,N,432.9272,W,10.00,189.19,250915,,*3E
$GPRMC,041907,A,4823.8410,N,432.9286,W,10.00,189.19,250915,,*37
$GPRMC,041907,A,4823.8355,N,432.9299,W,10.00,189.19,250915,,*3F
$GPRMC,041907,A,4823.8300,N,432.9312,W,10.00,189.19,250915,,*3D
$GPRMC,041907,A,4823.8245,N,432.9326,W,10.00,189.19,250915,,*3A
$GPRMC,041907,A,4823.8190,N,432.9339,W,10.00,189.19,250915,,*3F
$GPRMC,041907,A,4823.8135,N,432.9353,W,10.00,189.19,250915,,*3C
$GPRMC,041907,A,4823.8079,N,432.9366,W,10.00,189.19,250915,,*33
$GPRMC,041907,A,4823.8024,N,432.9379,W,10.00,189.19,250915,,*35
$GPRMC,041907,A,4823.7969,N,432.9393,W,10.00,189.19,250915,,*3E
$GPRMC,041907,A,4823.7914,N,432.9406,W,10.00,189.19,250915,,*3F
$GPRMC,041907,A,4823.7859,N,432.9420,W,10.00,189.19,250915,,*33
$GPRMC,041907,A,4823.7804,N,432.9433,W,10.00,189.19,250915,,*39
$GPRMC,041907,A,4823.7749,N,432.9446,W,10.00,189.19,250915,,*3D
$GPRMC,041907,A,4823.7694,N,432.9460,W,10.00,189.19,250915,,*38
$GPRMC,041907,A,4823.7638,N,432.9473,W,10.00,189.19,250915,,*3C
$GPRMC,041907,A,4823.7583,N,432.9487,W,10.00,189.19,250915,,*34
$GPRMC,041907,A,4823.7528,N,432.9500,W,10.00,189.19,250915,,*3B
$GPRMC,041907,A,4823.7473,N,432.9513,W,10.00,189.19,250915,,*36
$GPRMC,041907,A,4823.7418,N,432.9527,W,10.00,189.19,250915,,*3C
$GPRMC,041907,A,4823.7363,N,432.9540,W,10.00,189.19,250915,,*36
$GPRMC,041907,A,4823.7308,N,432.9554,W,10.00,189.19,250915,,*3E
$GPRMC,041907,A,4823.7252,N,432.9567,W,10.00,189.19,250915,,*30
$GPRMC,041907,A,4823.7197,N,432.9580,W,10.00,189.19,250915,,*33
$GPRMC,041907,A,4823.7142,N,432.9594,W,10.00,189.19,250915,,*3E
$GPRMC,041907,A,4823.7087,N,432.9607,W,10.00,189.19,250915,,*3F
$GPRMC,041907,A,4823.7032,N,432.9620,W,10.00,189.19,250915,,*34
$GPRMC,041907,A,4823.6977,N,432.9634,W,10.00,189.19,250915,,*38
$GPRMC,041907,A,4823.6922,N,432.9647,W,10.00,189.19,250915,,*3C
$GPRMC,041907,A,4823.6867,N,432.9661,W,10.00,189.19,250915,,*38
$GPRMC,041907,A,4823.6811,N,432.9674,W,10.00,189.19,250915,,*3D
$GPRMC,041907,A,4823.6756,N,432.9687,W,10.00,189.19,250915,,*3D
$GPRMC,041907,A,4823.6701,N,432.9701,W,10.00,189.19,250915,,*30
$GPRMC,041907,A,4823.6646,N,432.9714,W,10.00,189.19,250915,,*36
$GPRMC,041907,A,4823.6591,N,432.9728,W,10.00,189.19,250915,,*30
$GPRMC,041907,A,4823.6536,N,432.9741,W,10.00,189.19,250915,,*32
$GPRMC,041907,A,4823.6481,N,432.9754,W,10.00,189.19,250915,,*3B
$GPRMC,041907,A,4823.6425,N,432.9768,W,10.00,189.19,250915,,*3A
$GPRMC,041907,A,4823.6370,N,432.9781,W,10.00,189.19,250915,,*3A
$GPRMC,041907,A,4823.6315,N,432.9795,W,10.00,189.19,250915,,*3C
$GPRMC,041907,A,4823.6260,N,432.9808,W,10.00,189.19,250915,,*34
$GPRMC,041907,A,4823.6205,N,432.9821,W,10.00,189.19,250915,,*3C
$GPRMC,041907,A,4823.6150,N,432.9835,W,10.00,189.19,250915,,*3A
$GPRMC,041907,A,4823.6095,N,432.9848,W,10.00,189.19,250915,,*38
$GPRMC,041907,A,4823.6040,N,432.9862,W,10.00,189.19,250915,,*38
$GPRMC,041907,A,4823.5984,N,432.9875,W,10.00,189.19,250915,,*3C
$GPRMC,041907,A,4823.5929,N,432.9888,W,10.00,189.19,250915,,*39
$GPRMC,041907,A,4823.5874,N,432.9902,W,10.00,189.19,250915,,*33
$GPRMC,041907,A,4823.5819,N,432.9915,W,10.00,189.19,250915,,*3E
$GPRMC,041907,A,4823.5764,N,432.9928,W,10.00,189.19,250915,,*35
$GPRMC,041907,A,4823.5709,N,432.9942,W,10.00,189.19,250915,,*32
$GPRMC,041907,A,4823.5654,N,432.9955,W,10.00,189.19,250915,,*3D
$GPRMC,041907,A,4823.5598,N,432.9969,W,10.00,189.19,250915,,*31
$GPRMC,041907,A,4823.5543,N,432.9982,W,10.00,189.19,250915,,*32
$GPRMC,041907,A,4823.5488,N,432.9995,W,10.00,189.19,250915,,*32
$GPRMC,041907,A,4823.5433,N,433.0009,W,10.00,189.19,250915,,*36
$GPRMC,041907,A,4823.5378,N,433.0022,W,10.00,189.19,250915,,*37
$GPRMC,041907,A,4823.5323,N,433.0036,W,10.00,189.19,250915,,*3C
$GPRMC,041907,A,4823.5268,N,433.0049,W,10.00,189.19,250915,,*3A
$GPRMC,041907,A,4823.5213,N,433.0062,W,10.00,189.19,250915,,*3F
$GPRMC,041907,A,4823.5157,N,433.0076,W,10.00,189.19,250915,,*39
$GPRMC,041907,A,4823.5102,N,433.0089,W,10.00,189.19,250915,,*39
$GPRMC,041907,A,4823.5047,N,433.0103,W,10.00,189.19,250915,,*3A
$GPRMC,041907,A,4823.4992,N,433.0116,W,10.00,189.19,250915,,*3E
$GPRMC,041907,A,4823.4937,N,433.0129,W,10.00,189.19,250915,,*3D
$GPRMC,041907,A,4823.4882,N,433.0143,W,10.00,189.19,250915,,*3E
$GPRMC,041907,A,4823.4827,N,433.0156,W,10.00,189.19,250915,,*35
$GPRMC,041907,A,4823.4771,N,433.0169,W,10.00,189.19,250915,,*35
$GPRMC,041907,A,4823.4716,N,433.0183,W,10.00,189.19,250915,,*30
$GPRMC,041907,A,4823.4661,N,433.0196,W,10.00,189.19,250915,,*35
$GPRMC,041907,A,4823.4606,N,433.0210,W,10.00,189.19,250915,,*39
$GPRMC,041907,A,4823.4551,N,433.0223,W,10.00,189.19,250915,,*38
$GPRMC,041907,A,4823.4496,N,433.0236,W,10.00,189.19,250915,,*36
$GPRMC,041907,A,4823.4441,N,433.0250,W,10.00,189.19,250915,,*3C
$GPRMC,041907,A,4823.4386,N,433.0263,W,10.00,189.19,250915,,*30
$GPRMC,041907,A,4823.4330,N,433.0277,W,10.00,189.19,250915,,*38
$GPRMC,041907,A,4823.4275,N,433.0290,W,10.00,189.19,250915,,*31
$GPRMC,041907,A,4823.4220,N,433.0303,W,10.00,189.19,250915,,*3A
$GPRMC,041907,A,4823.4165,N,433.0317,W,10.00,189.19,250915,,*3D
$GPRMC,041907,A,4823.4110,N,433.0330,W,10.00,189.19,250915,,*3A
$GPRMC,041907,A,4823.4055,N,433.0344,W,10.00,189.19,250915,,*39
$GPRMC,041907,A,4823.4000,N,433.0357,W,10.00,189.19,250915,,*3B
$GPRMC,041907,A,4823.3944,N,433.0370,W,10.00,189.19,250915,,*30
$GPRMC,041907,A,4823.3889,N,433.0384,W,10.00,189.19,250915,,*3B
$GPRMC,041907,A,4823.3834,N,433.0397,W,10.00,189.19,250915,,*3F
$GPRMC,041907,A,4823.3779,N,433.0411,W,10.00,189.19,250915,,*30
$GPRMC,041907,A,4823.3724,N,433.0424,W,10.00,189.19,250915,,*3E
$GPRMC,041907,A,4823.3669,N,433.0437,W,10.00,189.19,250915,,*34
$GPRMC,041907,A,4823.3614,N,433.0451,W,10.00,189.19,250915,,*3E
$GPRMC,041907,A,4823.3559,N,433.0464,W,10.00,189.19,250915,,*32
$GPRMC,041907,A,4823.3503,N,433.0477,W,10.00,189.19,250915,,*3F
$GPRMC,041907,A,4823.3448,N,433.0491,W,10.00,189.19,250915,,*39
$GPRMC,041907,A,4823.3393,N,433.0504,W,10.00,189.19,250915,,*35
$GPRMC,041907,A,4823.3338,N,433.0518,W,10.00,189.19,250915,,*39
$GPRMC,041907,A,4823.3283,N,433.0531,W,10.00,189.19,250915,,*33
$GPRMC,041907,A,4823.3228,N,433.0544,W,10.00,189.19,250915,,*30
$GPRMC,041907,A,4823.3173,N,433.0558,W,10.00,189.19,250915,,*30
$GPRMC,041907,A,4823.3117,N,433.0571,W,10.00,189.19,250915,,*39
$GPRMC,041907,A,4823.3062,N,433.0585,W,10.00,189.19,250915,,*31
$GPRMC,041907,A,4823.3007,N,433.0598,W,10.00,189.19,250915,,*3E
$GPRMC,041907,A,4823.2952,N,433.0611,W,10.00,189.19,250915,,*34
$GPRMC,041907,A,4823.2897,N,433.0625,W,10.00,189.19,250915,,*3B
$GPRMC,041907,A,4823.2842,N,433.0638,W,10.00,189.19,250915,,*3F
$GPRMC,041907,A,4823.2787,N,433.0652,W,10.00,189.19,250915,,*35
$GPRMC,041907,A,4823.2732,N,433.0665,W,10.00,189.19,250915,,*3F
$GPRMC,041907,A,4823.2676,N,433.0678,W,10.00,189.19,250915,,*32
$GPRMC,041907,A,4823.2621,N,433.0692,W,10.00,189.19,250915,,*34
$GPRMC,041907,A,4823.2566,N,433.0705,W,10.00,189.19,250915,,*3B
$GPRMC,041907,A,4823.2511,N,433.0718,W,10.00,189.19,250915,,*37
$GPRMC,041907,A,4823.2456,N,433.0732,W,10.00,189.19,250915,,*3D
$GPRMC,041907,A,4823.2401,N,433.0745,W,10.00,189.19,250915,,*3F
$GPRMC,041907,A,4823.2346,N,433.0759,W,10.00,189.19,250915,,*36
$GPRMC,041907,A,4823.2290,N,433.0772,W,10.00,189.19,250915,,*35
$GPRMC,041907,A,4823.2235,N,433.0785,W,10.00,189.19,250915,,*32
$GPRMC,041907,A,4823.2180,N,433.0799,W,10.00,189.19,250915,,*32
$GPRMC,041907,A,4823.2125,N,433.0812,W,10.00,189.19,250915,,*31
$GPRMC,041907,A,4823.2070,N,433.0826,W,10.00,189.19,250915,,*37
$GPRMC,041907,A,4823.2015,N,433.0839,W,10.00,189.19,250915,,*3A
$GPRMC,041907,A,4823.1960,N,433.0852,W,10.00,189.19,250915,,*3F
$GPRMC,041907,A,4823.1905,N,433.0866,W,10.00,189.19,250915,,*3B
$GPRMC,041907,A,4823.1849,N,433.0879,W,10.00,189.19,250915,,*3C
$GPRMC,041907,A,4823.1794,N,433.0892,W,10.00,189.19,250915,,*36
$GPRMC,041907,A,4823.1739,N,433.0906,W,10.00,189.19,250915,,*3D
$GPRMC,041907,A,4823.1684,N,433.0919,W,10.00,189.19,250915,,*34
$GPRMC,041907,A,4823.1629,N,433.0933,W,10.00,189.19,250915,,*3B
$GPRMC,041907,A,4823.1574,N,433.0946,W,10.00,189.19,250915,,*32
$GPRMC,041907,A,4823.1519,N,433.0959,W,10.00,189.19,250915,,*37
$GPRMC,041907,A,4823.1463,N,433.0973,W,10.00,189.19,250915,,*33
$GPRMC,041907,A,4823.1408,N,433.0986,W,10.00,189.19,250915,,*34
$GPRMC,041907,A,4823.1353,N,433.1000,W,10.00,189.19,250915,,*3B
$GPRMC,041907,A,4823.1298,N,433.1013,W,10.00,189.19,250915,,*3F
$GPRMC,041907,A,4823.1243,N,433.1026,W,10.00,189.19,250915,,*3F
$GPRMC,041907,A,4823.1188,N,433.1040,W,10.00,189.19,250915,,*3B
$GPRMC,041907,A,4823.1133,N,433.1053,W,10.00,189.19,250915,,*39
$GPRMC,041907,A,4823.1078,N,433.1067,W,10.00,189.19,250915,,*30
$GPRMC,041907,A,4823.1022,N,433.1080,W,10.00,189.19,250915,,*36
$GPRMC,041907,A,4823.0967,N,433.1093,W,10.00,189.19,250915,,*3D
$GPRMC,041907,A,4823.0912,N,433.1107,W,10.00,189.19,250915,,*33
$GPRMC,041907,A,4823.0857,N,433.1120,W,10.00,189.19,250915,,*36
$GPRMC,041907,A,4823.0802,N,433.1133,W,10.00,189.19,250915,,*34
$GPRMC,041907,A,4823.0747,N,433.1147,W,10.00,189.19,250915,,*39
$GPRMC,041907,A,4823.0692,N,433.1160,W,10.00,189.19,250915,,*35
$GPRMC,041907,A,4823.0636,N,433.1174,W,10.00,189.19,250915,,*3E
$GPRMC,041907,A,4823.0581,N,433.1187,W,10.00,189.19,250915,,*3D
$GPRMC,041907,A,4823.0526,N,433.1200,W,10.00,189.19,250915,,*3C
$GPRMC,041907,A,4823.0471,N,433.1214,W,10.00,189.19,250915,,*3A
$GPRMC,041907,A,4823.0416,N,433.1227,W,10.00,189.19,250915,,*3B
$GPRMC,041907,A,4823.0361,N,433.1241,W,10.00,189.19,250915,,*3C
$GPRMC,041907,A,4823.0306,N,433.1254,W,10.00,189.19,250915,,*39
$GPRMC,041907,A,4823.0251,N,433.1267,W,10.00,189.19,250915,,*3A
$GPRMC,041907,A,4823.0195,N,433.1281,W,10.00,189.19,250915,,*39
$GPRMC,041907,A,4823.0140,N,433.1294,W,10.00,189.19,250915,,*35
$GPRMC,041907,A,4823.0085,N,433.1307,W,10.00,189.19,250915,,*36
$GPRMC,041907,A,4823.0030,N,433.1321,W,10.00,189.19,250915,,*3C
$GPRMC,041907,A,4822.9975,N,433.1334,W,10.00,189.19,250915,,*38
$GPRMC,041907,A,4822.9920,N,433.1348,W,10.00,189.19,250915,,*33
$GPRMC,041907,A,4822.9865,N,433.1361,W,10.00,189.19,250915,,*38
$GPRMC,041907,A,4822.9809,N,433.1374,W,10.00,189.19,250915,,*36
$GPRMC,041907,A,4822.9754,N,433.1388,W,10.00,189.19,250915,,*32
$GPRMC,041907,A,4822.9699,N,433.1401,W,10.00,189.19,250915,,*34
$GPRMC,041907,A,4822.9644,N,433.1415,W,10.00,189.19,250915,,*31
$GPRMC,041907,A,4822.9589,N,433.1428,W,10.00,189.19,250915,,*3D
$GPRMC,041907,A,4822.9534,N,433.1441,W,10.00,189.19,250915,,*34
$GPRMC,041907,A,4822.9479,N,433.1455,W,10.00,189.19,250915,,*39
$GPRMC,041907,A,4822.9424,N,433.1468,W,10.00,189.19,250915,,*3F
$GPRMC,041907,A,4822.9368,N,433.1481,W,10.00,189.19,250915,,*37
$GPRMC,041907,A,4822.9313,N,433.1495,W,10.00,189.19,250915,,*3E
$GPRMC,041907,A,4822.9258,N,433.1508,W,10.00,189.19,250915,,*35
$GPRMC,041907,A,4822.9203,N,433.1522,W,10.00,189.19,250915,,*33
$GPRMC,041907,A,4822.9148,N,433.1535,W,10.00,189.19,250915,,*39
$GPRMC,041907,A,4822.9093,N,433.1548,W,10.00,189.19,250915,,*34
$GPRMC,041907,A,4822.9038,N,433.1562,W,10.00,189.19,250915,,*3D
$GPRMC,041907,A,4822.8982,N,433.1575,W,10.00,189.19,250915,,*32
$GPRMC,041907,A,4822.8927,N,433.1589,W,10.00,189.19,250915,,*3E
$GPRMC,041907,A,4822.8872,N,433.1602,W,10.00,189.19,250915,,*3F
$GPRMC,041907,A,4822.8817,N,433.1615,W,10.00,189.19,250915,,*3A
$GPRMC,041907,A,4822.8762,N,433.1629,W,10.00,189.19,250915,,*38
$GPRMC,041907,A,4822.8707,N,433.1642,W,10.00,189.19,250915,,*36
$GPRMC,041907,A,4822.8652,N,433.1655,W,10.00,189.19,250915,,*31
$GPRMC,041907,A,4822.8596,N,433.1669,W,10.00,189.19,250915,,*35
$GPRMC,041907,A,4822.8541,N,433.1682,W,10.00,189.19,250915,,*3A
$GPRMC,041907,A,4822.8486,N,433.1696,W,10.00,189.19,250915,,*35
$GPRMC,041907,A,4822.8431,N,433.1709,W,10.00,189.19,250915,,*3E
$GPRMC,041907,A,4822.8376,N,433.1722,W,10.00,189.19,250915,,*33
$GPRMC,041907,A,4822.8321,N,433.1736,W,10.00,189.19,250915,,*34
$GPRMC,041907,A,4822.8266,N,433.1749,W,10.00,189.19,250915,,*3E
$GPRMC,041907,A,4822.8211,N,433.1763,W,10.00,189.19,250915,,*36
$GPRMC,041907,A,4822.8155,N,433.1776,W,10.00,189.19,250915,,*31
$GPRMC,041907,A,4822.8100,N,433.1789,W,10.00,189.19,250915,,*31
$GPRMC,041907,A,4822.8045,N,433.1803,W,10.00,189.19,250915,,*3C
$GPRMC,041907,A,4822.7990,N,433.1816,W,10.00,189.19,250915,,*36
$GPRMC,041907,A,4822.7935,N,433.1829,W,10.00,189.19,250915,,*35
$GPRMC,041907,A,4822.7880,N,433.1843,W,10.00,189.19,250915,,*36
$GPRMC,041907,A,4822.7825,N,433.1856,W,10.00,189.19,250915,,*3D
$GPRMC,041907,A,4822.7769,N,433.1870,W,10.00,189.19,250915,,*3E
$GPRMC,041907,A,4822.7714,N,433.1883,W,10.00,189.19,250915,,*38
$GPRMC,041907,A,4822.7659,N,433.1896,W,10.00,189.19,250915,,*34
$GPRMC,041907,A,4822.7604,N,433.1910,W,10.00,189.19,250915,,*33
$GPRMC,041907,A,4822.7549,N,433.1923,W,10.00,189.19,250915,,*39
$GPRMC,041907,A,4822.7494,N,433.1937,W,10.00,189.19,250915,,*3D
$GPRMC,041907,A,4822.7439,N,433.1950,W,10.00,189.19,250915,,*3B
$GPRMC,041907,A,4822.7384,N,433.1963,W,10.00,189.19,250915,,*3A
$GPRMC,041907,A,4822.7328,N,433.1977,W,10.00,189.19,250915,,*39
$GPRMC,041907,A,4822.7273,N,433.1990,W,10.00,189.19,250915,,*3F
$GPRMC,041907,A,4822.7218,N,433.2003,W,10.00,189.19,250915,,*32
$GPRMC,041907,A,4822.7163,N,433.2017,W,10.00,189.19,250915,,*38
$GPRMC,041907,A,4822.7108,N,433.2030,W,10.00,189.19,250915,,*30
$GPRMC,041907,A,4822.7053,N,433.2044,W,10.00,189.19,250915,,*3C
$GPRMC,041907,A,4822.6998,N,433.2057,W,10.00,189.19,250915,,*31
$GPRMC,041907,A,4822.6942,N,433.2070,W,10.00,189.19,250915,,*33
$GPRMC,041907,A,4822.6904,N,433.2080,W,10.00,89.52,250915,,*00
$GPRMC,041907,A,4822.6905,N,433.2036,W,10.00,89.52,250915,,*0C
$GPRMC,041907,A,4822.6905,N,433.1992,W,10.00,89.52,250915,,*08
$GPRMC,041907,A,4822.6905,N,433.1949,W,10.00,89.52,250915,,*0E
$GPRMC,041907,A,4822.6905,N,433.1905,W,10.00,89.52,250915,,*06
$GPRMC,041907,A,4822.6906,N,433.1862,W,10.00,89.52,250915,,*05
$GPRMC,041907,A,4822.6906,N,433.1818,W,10.00,89.52,250915,,*08
$GPRMC,041907,A,4822.6906,N,433.1774,W,10.00,89.52,250915,,*0D
$GPRMC,041907,A,4822.6906,N,433.1731,W,10.00,89.52,250915,,*0C
$GPRMC,041907,A,4822.6907,N,433.1687,W,10.00,89.52,250915,,*01
$GPRMC,041907,A,4822.6907,N,433.1644,W,10.00,89.52,250915,,*0E
$GPRMC,041907,A,4822.6907,N,433.1600,W,10.00,89.52,250915,,*0E
$GPRMC,041907,A,4822.6907,N,433.1556,W,10.00,89.52,250915,,*0E
$GPRMC,041907,A,4822.6908,N,433.1513,W,10.00,89.52,250915,,*00
$GPRMC,041907,A,4822.6908,N,433.1469,W,10.00,89.52,250915,,*0C
$GPRMC,041907,A,4822.6908,N,433.1426,W,10.00,89.52,250915,,*07
$GPRMC,041907,A,4822.6908,N,433.1382,W,10.00,89.52,250915,,*0E
$GPRMC,041907,A,4822.6909,N,433.1338,W,10.00,89.52,250915,,*0E
$GPRMC,041907,A,4822.6909,N,433.1295,W,10.00,89.52,250915,,*08
$GPRMC,041907,A,4822.6909,N,433.1251,W,10.00,89.52,250915,,*00
$GPRMC,041907,A,4822.6909,N,433.1208,W,10.00,89.52,250915,,*0C
$GPRMC,041907,A,4822.6909,N,433.1164,W,10.00,89.52,250915,,*05
$GPRMC,041907,A,4822.6910,N,433.1120,W,10.00,89.52,250915,,*0D
$GPRMC,041907,A,4822.6910,N,433.1077,W,10.00,89.52,250915,,*0E
$GPRMC,041907,A,4822.6910,N,433.1033,W,10.00,89.52,250915,,*0E
$GPRMC,041907,A,4822.6910,N,433.0990,W,10.00,89.52,250915,,*0F
$GPRMC,041907,A,4822.6911,N,433.0946,W,10.00,89.52,250915,,*05
$GPRMC,041907,A,4822.6911,N,433.0902,W,10.00,89.52,250915,,*05
$GPRMC,041907,A,4822.6911,N,433.0859,W,10.00,89.52,250915,,*0A
$GPRMC,041907,A,4822.6911,N,433.0815,W,10.00,89.52,250915,,*02
$GPRMC,041907,A,4822.6912,N,433.0772,W,10.00,89.52,250915,,*0F
$GPRMC,041907,A,4822.6912,N,433.0728,W,10.00,89.52,250915,,*00
$GPRMC,041907,A,4822.6912,N,433.0684,W,10.00,89.52,250915,,*07
$GPRMC,041907,A,4822.6912,N,433.0641,W,10.00,89.52,250915,,*0E
$GPRMC,041907,A,4822.6913,N,433.0597,W,10.00,89.52,250915,,*07
$GPRMC,041907,A,4822.6913,N,433.0553,W,10.00,89.52,250915,,*0F
$GPRMC,041907,A,4822.6913,N,433.0510,W,10.00,89.52,250915,,*08
$GPRMC,041907,A,4822.6913,N,433.0466,W,10.00,89.52,250915,,*08
$GPRMC,041907,A,4822.6914,N,433.0423,W,10.00,89.52,250915,,*0E
$GPRMC,041907,A,4822.6914,N,433.0379,W,10.00,89.52,250915,,*06
$GPRMC,041907,A,4822.6914,N,433.0335,W,10.00,89.52,250915,,*0E
$GPRMC,041907,A,4822.6914,N,433.0292,W,10.00,89.52,250915,,*02
$GPRMC,041907,A,4822.6915,N,433.0248,W,10.00,89.52,250915,,*04
$GPRMC,041907,A,4822.6915,N,433.0205,W,10.00,89.52,250915,,*0D
$GPRMC,041907,A,4822.6915,N,433.0161,W,10.00,89.52,250915,,*0C
$GPRMC,041907,A,4822.6915,N,433.0117,W,10.00,89.52,250915,,*0D
$GPRMC,041907,A,4822.6916,N,433.0074,W,10.00,89.52,250915,,*0A
$GPRMC,041907,A,4822.6916,N,433.0030,W,10.00,89.52,250915,,*0A
$GPRMC,041907,A,4822.6916,N,432.9987,W,10.00,89.52,250915,,*07
$GPRMC,041907,A,4822.6916,N,432.9943,W,10.00,89.52,250915,,*0F
$GPRMC,041907,A,4822.6916,N,432.9899,W,10.00,89.52,250915,,*09
$GPRMC,041907,A,4822.6917,N,432.9856,W,10.00,89.52,250915,,*0B
$GPRMC,041907,A,4822.6917,N,432.9812,W,10.00,89.52,250915,,*0B
$GPRMC,041907,A,4822.6917,N,432.9769,W,10.00,89.52,250915,,*08
$GPRMC,041907,A,4822.6917,N,432.9725,W,10.00,89.52,250915,,*00
$GPRMC,041907,A,4822.6918,N,432.9681,W,10.00,89.52,250915,,*00
$GPRMC,041907,A,4822.6918,N,432.9638,W,10.00,89.52,250915,,*02
$GPRMC,041907,A,4822.6918,N,432.9594,W,10.00,89.52,250915,,*07
$GPRMC,041907,A,4822.6918,N,432.9551,W,10.00,89.52,250915,,*0E
$GPRMC,041907,A,4822.6919,N,432.9507,W,10.00,89.52,250915,,*0C
$GPRMC,041907,A,4822.6919,N,432.9463,W,10.00,89.52,250915,,*0F
$GPRMC,041907,A,4822.6919,N,432.9420,W,10.00,89.52,250915,,*08
$GPRMC,041907,A,4822.6919,N,432.9376,W,10.00,89.52,250915,,*0C
$GPRMC,041907,A,4822.6920,N,432.9333,W,10.00,89.52,250915,,*07
$GPRMC,041907,A,4822.6920,N,432.9289,W,10.00,89.52,250915,,*07
$GPRMC,041907,A,4822.6920,N,432.9245,W,10.00,89.52,250915,,*07
$GPRMC,041907,A,4822.6920,N,432.9202,W,10.00,89.52,250915,,*04
$GPRMC,041907,A,4822.6921,N,432.9158,W,10.00,89.52,250915,,*09
$GPRMC,041907,A,4822.6921,N,432.9115,W,10.00,89.52,250915,,*00
$GPRMC,041907,A,4822.6921,N,432.9071,W,10.00,89.52,250915,,*03
$GPRMC,041907,A,4822.6921,N,432.9027,W,10.00,89.52,250915,,*00
$GPRMC,041907,A,4822.6922,N,432.8984,W,10.00,89.52,250915,,*02
$GPRMC,041907,A,4822.6922,N,432.8940,W,10.00,89.52,250915,,*0A
$GPRMC,041907,A,4822.6922,N,432.8897,W,10.00,89.52,250915,,*01
$GPRMC,041907,A,4822.6922,N,432.8853,W,10.00,89.52,250915,,*09
$GPRMC,041907,A,4822.6923,N,432.8809,W,10.00,89.52,250915,,*07
$GPRMC,041907,A,4822.6923,N,432.8766,W,10.00,89.52,250915,,*01
$GPRMC,041907,A,4822.6923,N,432.8722,W,10.00,89.52,250915,,*01
$GPRMC,041907,A,4822.6923,N,432.8679,W,10.00,89.52,250915,,*0E
$GPRMC,041907,A,4822.6923,N,432.8635,W,10.00,89.52,250915,,*06
$GPRMC,041907,A,4822.6924,N,432.8591,W,10.00,89.52,250915,,*0C
$GPRMC,041907,A,4822.6924,N,432.8548,W,10.00,89.52,250915,,*08
$GPRMC,041907,A,4822.6924,N,432.8504,W,10.00,89.52,250915,,*00
$GPRMC,041907,A,4822.6924,N,432.8460,W,10.00,89.52,250915,,*03
$GPRMC,041907,A,4822.6925,N,432.8417,W,10.00,89.52,250915,,*02
$GPRMC,041907,A,4822.6925,N,432.8373,W,10.00,89.52,250915,,*07
$GPRMC,041907,A,4822.6925,N,432.8330,W,10.00,89.52,250915,,*00
$GPRMC,041907,A,4822.6925,N,432.8286,W,10.00,89.52,250915,,*0C
$GPRMC,041907,A,4822.6926,N,432.8242,W,10.00,89.52,250915,,*07
$GPRMC,041907,A,4822.6926,N,432.8199,W,10.00,89.52,250915,,*02
$GPRMC,041907,A,4822.6926,N,432.8155,W,10.00,89.52,250915,,*02
$GPRMC,041907,A,4822.6926,N,432.8112,W,10.00,89.52,250915,,*01
$GPRMC,041907,A,4822.6927,N,432.8068,W,10.00,89.52,250915,,*0C
$GPRMC,041907,A,4822.6927,N,432.8024,W,10.00,89.52,250915,,*04
$GPRMC,041907,A,4822.6927,N,432.7981,W,10.00,89.52,250915,,*0D
$GPRMC,041907,A,4822.6927,N,432.7937,W,10.00,89.52,250915,,*00
$GPRMC,041907,A,4822.6928,N,432.7894,W,10.00,89.52,250915,,*07
$GPRMC,041907,A,4822.6928,N,432.7850,W,10.00,89.52,250915,,*0F
$GPRMC,041907,A,4822.6928,N,432.7806,W,10.00,89.52,250915,,*0C
$GPRMC,041907,A,4822.6928,N,432.7763,W,10.00,89.52,250915,,*00
$GPRMC,041907,A,4822.6929,N,432.7719,W,10.00,89.52,250915,,*0C
$GPRMC,041907,A,4822.6929,N,432.7676,W,10.00,89.52,250915,,*04
$GPRMC,041907,A,4822.6929,N,432.7632,W,10.00,89.52,250915,,*04
$GPRMC,041907,A,4822.6929,N,432.7588,W,10.00,89.52,250915,,*06
$GPRMC,041907,A,4822.6929,N,432.7545,W,10.00,89.52,250915,,*07
$GPRMC,041907,A,4822.6930,N,432.7501,W,10.00,89.52,250915,,*0F
$GPRMC,041907,A,4822.6930,N,432.7458,W,10.00,89.52,250915,,*02
$GPRMC,041907,A,4822.6930,N,432.7414,W,10.00,89.52,250915,,*0A
$GPRMC,041907,A,4822.6930,N,432.7370,W,10.00,89.52,250915,,*0F
$GPRMC,041907,A,4822.6931,N,432.7327,W,10.00,89.52,250915,,*0C
$GPRMC,041907,A,4822.6931,N,432.7283,W,10.00,89.52,250915,,*03
$GPRMC,041907,A,4822.6931,N,432.7240,W,10.00,89.52,250915,,*0C
$GPRMC,041907,A,4822.6931,N,432.7196,W,10.00,89.52,250915,,*04
$GPRMC,041907,A,4822.6932,N,432.7152,W,10.00,89.52,250915,,*0F
$GPRMC,041907,A,4822.6932,N,432.7109,W,10.00,89.52,250915,,*01
$GPRMC,041907,A,4822.6932,N,432.7065,W,10.00,89.52,250915,,*0A
$GPRMC,041907,A,4822.6932,N,432.7022,W,10.00,89.52,250915,,*09
$GPRMC,041907,A,4822.6933,N,432.6978,W,10.00,89.52,250915,,*0F
$GPRMC,041907,A,4822.6933,N,432.6934,W,10.00,89.52,250915,,*07
$GPRMC,041907,A,4822.6933,N,432.6891,W,10.00,89.52,250915,,*09
$GPRMC,041907,A,4822.6933,N,432.6847,W,10.00,89.52,250915,,*02
$GPRMC,041907,A,4822.6934,N,432.6804,W,10.00,89.52,250915,,*02
$GPRMC,041907,A,4822.6934,N,432.6760,W,10.00,89.52,250915,,*0F
$GPRMC,041907,A,4822.6934,N,432.6716,W,10.00,89.52,250915,,*0E
$GPRMC,041907,A,4822.6934,N,432.6673,W,10.00,89.52,250915,,*0C
$GPRMC,041907,A,4822.6935,N,432.6629,W,10.00,89.52,250915,,*02
$GPRMC,041907,A,4822.6935,N,432.6586,W,10.00,89.52,250915,,*04
$GPRMC,041907,A,4822.6935,N,432.6542,W,10.00,89.52,250915,,*0C
$GPRMC,041907,A,4822.6935,N,432.6498,W,10.00,89.52,250915,,*0A
$GPRMC,041907,A,4822.6935,N,432.6455,W,10.00,89.52,250915,,*0B
$GPRMC,041907,A,4822.6936,N,432.6411,W,10.00,89.52,250915,,*08
$GPRMC,041907,A,4822.6936,N,432.6367,W,10.00,89.52,250915,,*0E
$GPRMC,041907,A,4822.6936,N,432.6324,W,10.00,89.52,250915,,*09
$GPRMC,041907,A,4822.6936,N,432.6280,W,10.00,89.52,250915,,*06
$GPRMC,041907,A,4822.6937,N,432.6237,W,10.00,89.52,250915,,*0B
$GPRMC,041907,A,4822.6937,N,432.6193,W,10.00,89.52,250915,,*06
$GPRMC,041907,A,4822.6937,N,432.6149,W,10.00,89.52,250915,,*01
$GPRMC,041907,A,4822.6937,N,432.6106,W,10.00,89.52,250915,,*0A
$GPRMC,041907,A,4822.6938,N,432.6062,W,10.00,89.52,250915,,*06
$GPRMC,041907,A,4822.6938,N,432.6019,W,10.00,89.52,250915,,*0A
$GPRMC,041907,A,4822.6938,N,432.5975,W,10.00,89.52,250915,,*0A
$GPRMC,041907,A,4822.6938,N,432.5931,W,10.00,89.52,250915,,*0A
$GPRMC,041907,A,4822.6939,N,432.5888,W,10.00,89.52,250915,,*08
$GPRMC,041907,A,4822.6939,N,432.5844,W,10.00,89.52,250915,,*08
$GPRMC,041907,A,4822.6939,N,432.5801,W,10.00,89.52,250915,,*09
$GPRMC,041907,A,4822.6939,N,432.5757,W,10.00,89.52,250915,,*05
$GPRMC,041907,A,4822.6940,N,432.5713,W,10.00,89.52,250915,,*0B
$GPRMC,041907,A,4822.6940,N,432.5670,W,10.00,89.52,250915,,*0F
$GPRMC,041907,A,4822.6940,N,432.5626,W,10.00,89.52,250915,,*0C
$GPRMC,041907,A,4822.6940,N,432.5583,W,10.00,89.52,250915,,*00
$GPRMC,041907,A,4822.6940,N,432.5539,W,10.00,89.52,250915,,*01
$GPRMC,041907,A,4822.6941,N,432.5495,W,10.00,89.52,250915,,*07
$GPRMC,041907,A,4822.6941,N,432.5452,W,10.00,89.52,250915,,*0C
$GPRMC,041907,A,4822.6941,N,432.5408,W,10.00,89.52,250915,,*03
$GPRMC,041907,A,4822.6941,N,432.5365,W,10.00,89.52,250915,,*0F
$GPRMC,041907,A,4822.6942,N,432.5321,W,10.00,89.52,250915,,*0C
$GPRMC,041907,A,4822.6942,N,432.5277,W,10.00,89.52,250915,,*0E
$GPRMC,041907,A,4822.6942,N,432.5234,W,10.00,89.52,250915,,*09
$GPRMC,041907,A,4822.6942,N,432.5190,W,10.00,89.52,250915,,*04
$GPRMC,041907,A,4822.6943,N,432.5147,W,10.00,89.52,250915,,*0F
$GPRMC,041907,A,4822.6943,N,432.5103,W,10.00,89.52,250915,,*0F
$GPRMC,041907,A,4822.6943,N,432.5059,W,10.00,89.52,250915,,*01
$GPRMC,041907,A,4822.6943,N,432.5016,W,10.00,89.52,250915,,*0A
$GPRMC,041907,A,4822.6944,N,432.4972,W,10.00,89.52,250915,,*07
$GPRMC,041907,A,4822.6944,N,432.4929,W,10.00,89.52,250915,,*09
$GPRMC,041907,A,4822.6944,N,432.4885,W,10.00,89.52,250915,,*0E
$GPRMC,041907,A,4822.6944,N,432.4841,W,10.00,89.52,250915,,*06
$GPRMC,041907,A,4822.6945,N,432.4798,W,10.00,89.52,250915,,*0C
$GPRMC,041907,A,4822.6945,N,432.4754,W,10.00,89.52,250915,,*0C
$GPRMC,041907,A,4822.6945,N,432.4711,W,10.00,89.52,250915,,*0D
$GPRMC,041907,A,4822.6945,N,432.4667,W,10.00,89.52,250915,,*0D
$GPRMC,041907,A,4822.6945,N,432.4623,W,10.00,89.52,250915,,*0D
$GPRMC,041907,A,4822.6946,N,432.4580,W,10.00,89.52,250915,,*04
$GPRMC,041907,A,4822.6946,N,432.4536,W,10.00,89.52,250915,,*09
$GPRMC,041907,A,4822.6946,N,432.4492,W,10.00,89.52,250915,,*06
$GPRMC,041907,A,4822.6946,N,432.4449,W,10.00,89.52,250915,,*00
$GPRMC,041907,A,4822.6947,N,432.4405,W,10.00,89.52,250915,,*09
$GPRMC,041907,A,4822.6947,N,432.4362,W,10.00,89.52,250915,,*0F
$GPRMC,041907,A,4822.6947,N,432.4318,W,10.00,89.52,250915,,*02
$GPRMC,041907,A,4822.6947,N,432.4274,W,10.00,89.52,250915,,*09
$GPRMC,041907,A,4822.6948,N,432.4231,W,10.00,89.52,250915,,*07
$GPRMC,041907,A,4822.6948,N,432.4187,W,10.00,89.52,250915,,*09
$GPRMC,041907,A,4822.6948,N,432.4144,W,10.00,89.52,250915,,*06
$GPRMC,041907,A,4822.6948,N,432.4100,W,10.00,89.52,250915,,*06
$GPRMC,041907,A,4822.6949,N,432.4056,W,10.00,89.52,250915,,*05
$GPRMC,041907,A,4822.6949,N,432.4013,W,10.00,89.52,250915,,*04
$GPRMC,041907,A,4822.6949,N,432.3969,W,10.00,89.52,250915,,*07
$GPRMC,041907,A,4822.6949,N,432.3926,W,10.00,89.52,250915,,*0C
$GPRMC,041907,A,4822.6950,N,432.3882,W,10.00,89.52,250915,,*0B
$GPRMC,041907,A,4822.6950,N,432.3838,W,10.00,89.52,250915,,*0A
$GPRMC,041907,A,4822.6950,N,432.3795,W,10.00,89.52,250915,,*02
$GPRMC,041907,A,4822.6950,N,432.3751,W,10.00,89.52,250915,,*0A
$GPRMC,041907,A,4822.6950,N,432.3708,W,10.00,89.52,250915,,*06
$GPRMC,041907,A,4822.6951,N,432.3664,W,10.00,89.52,250915,,*0C
$GPRMC,041907,A,4822.6951,N,432.3620,W,10.00,89.52,250915,,*0C
$GPRMC,041907,A,4822.6951,N,432.3577,W,10.00,89.52,250915,,*0D
$GPRMC,041907,A,4822.6951,N,432.3533,W,10.00,89.52,250915,,*0D
$GPRMC,041907,A,4822.6952,N,432.3490,W,10.00,89.52,250915,,*06
$GPRMC,041907,A,4822.6952,N,432.3446,W,10.00,89.52,250915,,*0D
$GPRMC,041907,A,4822.6952,N,432.3402,W,10.00,89.52,250915,,*0D
$GPRMC,041907,A,4822.6952,N,432.3359,W,10.00,89.52,250915,,*04
$GPRMC,041907,A,4822.6953,N,432.3315,W,10.00,89.52,250915,,*0D
$GPRMC,041907,A,4822.6953,N,432.3272,W,10.00,89.52,250915,,*0D
$GPRMC,041907,A,4822.6953,N,432.3228,W,10.00,89.52,250915,,*02
$GPRMC,041907,A,4822.6953,N,432.3184,W,10.00,89.52,250915,,*07
$GPRMC,041907,A,4822.6954,N,432.3141,W,10.00,89.52,250915,,*09
$GPRMC,041907,A,4822.6954,N,432.3097,W,10.00,89.52,250915,,*03
$GPRMC,041907,A,4822.6954,N,432.3054,W,10.00,89.52,250915,,*0C
$GPRMC,041907,A,4822.6954,N,432.3010,W,10.00,89.52,250915,,*0C
$GPRMC,041907,A,4822.6955,N,432.2966,W,10.00,89.52,250915,,*04
$GPRMC,041907,A,4822.6955,N,432.2923,W,10.00,89.52,250915,,*05
$GPRMC,041907,A,4822.6955,N,432.2879,W,10.00,89.52,250915,,*0B
$GPRMC,041907,A,4822.6955,N,432.2836,W,10.00,89.52,250915,,*00
$GPRMC,041907,A,4822.6955,N,432.2792,W,10.00,89.52,250915,,*01
$GPRMC,041907,A,4822.6956,N,432.2748,W,10.00,89.52,250915,,*05
$GPRMC,041907,A,4822.6956,N,432.2705,W,10.00,89.52,250915,,*0C
$GPRMC,041907,A,4822.6956,N,432.2661,W,10.00,89.52,250915,,*0F
$GPRMC,041907,A,4822.6956,N,432.2618,W,10.00,89.52,250915,,*01
$GPRMC,041907,A,4822.6957,N,432.2574,W,10.00,89.52,250915,,*09
$GPRMC,041907,A,4822.6957,N,432.2530,W,10.00,89.52,250915,,*09
$GPRMC,041907,A,4822.6957,N,432.2487,W,10.00,89.52,250915,,*04
$GPRMC,041907,A,4822.6957,N,432.2443,W,10.00,89.52,250915,,*0C
$GPRMC,041907,A,4822.6958,N,432.2399,W,10.00,89.52,250915,,*03
$GPRMC,041907,A,4822.6958,N,432.2356,W,10.00,89.52,250915,,*00
$GPRMC,041907,A,4822.6958,N,432.2312,W,10.00,89.52,250915,,*00
$GPRMC,041907,A,4822.6958,N,432.2269,W,10.00,89.52,250915,,*0D
$GPRMC,041907,A,4822.6959,N,432.2225,W,10.00,89.52,250915,,*04
$GPRMC,041907,A,4822.6959,N,432.2181,W,10.00,89.52,250915,,*09
$GPRMC,041907,A,4822.6959,N,432.2138,W,10.00,89.52,250915,,*0B
$GPRMC,041907,A,4822.6959,N,432.2094,W,10.00,89.52,250915,,*0C
$GPRMC,041907,A,4822.6959,N,432.2051,W,10.00,89.52,250915,,*05
$GPRMC,041907,A,4822.6960,N,432.2007,W,10.00,89.52,250915,,*0C
$GPRMC,041907,A,4822.6960,N,432.1963,W,10.00,89.52,250915,,*04
$GPRMC,041907,A,4822.6960,N,432.1920,W,10.00,89.52,250915,,*03
$GPRMC,041907,A,4822.6960,N,432.1876,W,10.00,89.52,250915,,*01
$GPRMC,041907,A,4822.6961,N,432.1833,W,10.00,89.52,250915,,*01
$GPRMC,041907,A,4822.6961,N,432.1789,W,10.00,89.52,250915,,*0F
$GPRMC,041907,A,4822.6961,N,432.1745,W,10.00,89.52,250915,,*0F
$GPRMC,041907,A,4822.6961,N,432.1702,W,10.00,89.52,250915,,*0C
$GPRMC,041907,A,4822.6962,N,432.1658,W,10.00,89.52,250915,,*01
$GPRMC,041907,A,4822.6962,N,432.1615,W,10.00,89.52,250915,,*08
$GPRMC,041907,A,4822.6962,N,432.1571,W,10.00,89.52,250915,,*09
$GPRMC,041907,A,4822.6962,N,432.1527,W,10.00,89.52,250915,,*0A
$GPRMC,041907,A,4822.6963,N,432.1484,W,10.00,89.52,250915,,*03
$GPRMC,041907,A,4822.6963,N,432.1440,W,10.00,89.52,250915,,*0B
$GPRMC,041907,A,4822.6963,N,432.1397,W,10.00,89.52,250915,,*06
$GPRMC,041907,A,4822.6963,N,432.1353,W,10.00,89.52,250915,,*0E
$GPRMC,041907,A,4822.6964,N,432.1309,W,10.00,89.52,250915,,*06
$GPRMC,041907,A,4822.6964,N,432.1266,W,10.00,89.52,250915,,*0E
$GPRMC,041907,A,4822.6964,N,432.1222,W,10.00,89.52,250915,,*0E
$GPRMC,041907,A,4822.6964,N,432.1179,W,10.00,89.52,250915,,*03
$GPRMC,041907,A,4822.6964,N,432.1135,W,10.00,89.52,250915,,*0B
$GPRMC,041907,A,4822.6965,N,432.1091,W,10.00,89.52,250915,,*05
$GPRMC,041907,A,4822.6965,N,432.1048,W,10.00,89.52,250915,,*01
$GPRMC,041907,A,4822.6965,N,432.1004,W,10.00,89.52,250915,,*09
$GPRMC,041907,A,4822.6965,N,432.0961,W,10.00,89.52,250915,,*02
$GPRMC,041907,A,4822.6966,N,432.0917,W,10.00,89.52,250915,,*00
$GPRMC,041907,A,4822.6966,N,432.0873,W,10.00,89.52,250915,,*03
$GPRMC,041907,A,4822.6966,N,432.0830,W,10.00,89.52,250915,,*04
$GPRMC,041907,A,4822.6966,N,432.0786,W,10.00,89.52,250915,,*06
$GPRMC,041907,A,4822.6967,N,432.0743,W,10.00,89.52,250915,,*0E
$GPRMC,041907,A,4822.6967,N,432.0699,W,10.00,89.52,250915,,*08
$GPRMC,041907,A,4822.6967,N,432.0655,W,10.00,89.52,250915,,*08
$GPRMC,041907,A,4822.6967,N,432.0612,W,10.00,89.52,250915,,*0B
$GPRMC,041907,A,4822.6968,N,432.0568,W,10.00,89.52,250915,,*0A
$GPRMC,041907,A,4822.6968,N,432.0524,W,10.00,89.52,250915,,*02
$GPRMC,041907,A,4822.6968,N,432.0481,W,10.00,89.52,250915,,*0C
$GPRMC,041907,A,4822.6968,N,432.0437,W,10.00,89.52,250915,,*01
$GPRMC,041907,A,4822.6968,N,432.0394,W,10.00,89.52,250915,,*0F
$GPRMC,041907,A,4822.6969,N,432.0350,W,10.00,89.52,250915,,*06
$GPRMC,041907,A,4822.6969,N,432.0306,W,10.00,89.52,250915,,*05
$GPRMC,041907,A,4822.6969,N,432.0263,W,10.00,89.52,250915,,*07
$GPRMC,041907,A,4822.6969,N,432.0219,W,10.00,89.52,250915,,*0A
$GPRMC,041907,A,4822.6970,N,432.0176,W,10.00,89.52,250915,,*08
$GPRMC,041907,A,4822.6970,N,432.0132,W,10.00,89.52,250915,,*08
$GPRMC,041907,A,4822.6970,N,432.0088,W,10.00,89.52,250915,,*08
$GPRMC,041907,A,4822.6970,N,432.0045,W,10.00,89.52,250915,,*09
$GPRMC,041907,A,4822.6971,N,432.0001,W,10.00,89.52,250915,,*08
$GPRMC,041907,A,4822.6971,N,431.9958,W,10.00,89.52,250915,,*07
$GPRMC,041907,A,4822.6971,N,431.9914,W,10.00,89.52,250915,,*0F
$GPRMC,041907,A,4822.6971,N,431.9870,W,10.00,89.52,250915,,*0C
$GPRMC,041907,A,4822.6972,N,431.9827,W,10.00,89.52,250915,,*0D
$GPRMC,041907,A,4822.6972,N,431.9783,W,10.00,89.52,250915,,*0C
$GPRMC,041907,A,4822.6972,N,431.9740,W,10.00,89.52,250915,,*03
$GPRMC,041907,A,4822.6972,N,431.9696,W,10.00,89.52,250915,,*09
$GPRMC,041907,A,4822.6972,N,431.9652,W,10.00,89.52,250915,,*01
$GPRMC,041907,A,4822.6973,N,431.9609,W,10.00,89.52,250915,,*0E
$GPRMC,041907,A,4822.6973,N,431.9565,W,10.00,89.52,250915,,*07
$GPRMC,041907,A,4822.6973,N,431.9522,W,10.00,89.52,250915,,*04
$GPRMC,041907,A,4822.6973,N,431.9478,W,10.00,89.52,250915,,*0A
$GPRMC,041907,A,4822.6974,N,431.9434,W,10.00,89.52,250915,,*05
$GPRMC,041907,A,4822.6974,N,431.9391,W,10.00,89.52,250915,,*0D
$GPRMC,041907,A,4822.6974,N,431.9347,W,10.00,89.52,250915,,*06
$GPRMC,041907,A,4822.6974,N,431.9304,W,10.00,89.52,250915,,*01
$GPRMC,041907,A,4822.6975,N,431.9260,W,10.00,89.52,250915,,*03
$GPRMC,041907,A,4822.6975,N,431.9216,W,10.00,89.52,250915,,*02
$GPRMC,041907,A,4822.6975,N,431.9173,W,10.00,89.52,250915,,*02
$GPRMC,041907,A,4822.6975,N,431.9129,W,10.00,89.52,250915,,*0D
$GPRMC,041907,A,4822.6976,N,431.9086,W,10.00,89.52,250915,,*0A
$GPRMC,041907,A,4822.6976,N,431.9042,W,10.00,89.52,250915,,*02
$GPRMC,041907,A,4822.6976,N,431.8998,W,10.00,89.52,250915,,*0D
$GPRMC,041907,A,4822.6976,N,431.8955,W,10.00,89.52,250915,,*0C
$GPRMC,041907,A,4822.6976,N,431.8911,W,10.00,89.52,250915,,*0C
$GPRMC,041907,A,4822.6977,N,431.8868,W,10.00,89.52,250915,,*02
$GPRMC,041907,A,4822.6977,N,431.8824,W,10.00,89.52,250915,,*0A
$GPRMC,041907,A,4822.6977,N,431.8780,W,10.00,89.52,250915,,*0B
$GPRMC,041907,A,4822.6977,N,431.8737,W,10.00,89.52,250915,,*07
$GPRMC,041907,A,4822.6978,N,431.8693,W,10.00,89.52,250915,,*07
$GPRMC,041907,A,4822.6978,N,431.8649,W,10.00,89.52,250915,,*00
$GPRMC,041907,A,4822.6978,N,431.8606,W,10.00,89.52,250915,,*0B
$GPRMC,041907,A,4822.6978,N,431.8562,W,10.00,89.52,250915,,*0A
$GPRMC,041907,A,4822.6979,N,431.8519,W,10.00,89.52,250915,,*07
$GPRMC,041907,A,4822.6979,N,431.8475,W,10.00,89.52,250915,,*0C
$GPRMC,041907,A,4822.6979,N,431.8431,W,10.00,89.52,250915,,*0C
$GPRMC,041907,A,4822.6979,N,431.8388,W,10.00,89.52,250915,,*09
$GPRMC,041907,A,4822.6980,N,431.8344,W,10.00,89.52,250915,,*0F
$GPRMC,041907,A,4822.6980,N,431.8301,W,10.00,89.52,250915,,*0E
$GPRMC,041907,A,4822.6980,N,431.8257,W,10.00,89.52,250915,,*0C
$GPRMC,041907,A,4822.6980,N,431.8213,W,10.00,89.52,250915,,*0C
$GPRMC,041907,A,4822.6980,N,431.8170,W,10.00,89.52,250915,,*0A
$GPRMC,041907,A,4822.6981,N,431.8126,W,10.00,89.52,250915,,*08
$GPRMC,041907,A,4822.6981,N,431.8083,W,10.00,89.52,250915,,*06
$GPRMC,041907,A,4822.6981,N,431.8039,W,10.00,89.52,250915,,*07
$GPRMC,041907,A,4822.6981,N,431.7995,W,10.00,89.52,250915,,*07
$GPRMC,041907,A,4822.6982,N,431.7952,W,10.00,89.52,250915,,*0F
$GPRMC,041907,A,4822.6982,N,431.7908,W,10.00,89.52,250915,,*00
$GPRMC,041907,A,4822.6982,N,431.7865,W,10.00,89.52,250915,,*0A
$GPRMC,041907,A,4822.6982,N,431.7821,W,10.00,89.52,250915,,*0A
$GPRMC,041907,A,4822.6983,N,431.7777,W,10.00,89.52,250915,,*07
$GPRMC,041907,A,4822.6983,N,431.7734,W,10.00,89.52,250915,,*00
$GPRMC,041907,A,4822.6983,N,431.7690,W,10.00,89.52,250915,,*0F
$GPRMC,041907,A,4822.6983,N,431.7647,W,10.00,89.52,250915,,*05
$GPRMC,041907,A,4822.6983,N,431.7603,W,10.00,89.52,250915,,*05
$GPRMC,041907,A,4822.6984,N,431.7559,W,10.00,89.52,250915,,*0E
$GPRMC,041907,A,4822.6984,N,431.7516,W,10.00,89.52,250915,,*05
$GPRMC,041907,A,4822.6984,N,431.7472,W,10.00,89.52,250915,,*06
$GPRMC,041907,A,4822.6984,N,431.7429,W,10.00,89.52,250915,,*08
$GPRMC,041907,A,4822.6985,N,431.7385,W,10.00,89.52,250915,,*08
$GPRMC,041907,A,4822.6985,N,431.7341,W,10.00,89.52,250915,,*00
$GPRMC,041907,A,4822.6985,N,431.7298,W,10.00,89.52,250915,,*05
$GPRMC,041907,A,4822.6985,N,431.7254,W,10.00,89.52,250915,,*05
$GPRMC,041907,A,4822.6986,N,431.7211,W,10.00,89.52,250915,,*07
$GPRMC,041907,A,4822.6986,N,431.7167,W,10.00,89.52,250915,,*05
$GPRMC,041907,A,4822.6986,N,431.7123,W,10.00,89.52,250915,,*05
$GPRMC,041907,A,4822.6986,N,431.7080,W,10.00,89.52,250915,,*0D
$GPRMC,041907,A,4822.6987,N,431.7036,W,10.00,89.52,250915,,*01
$GPRMC,041907,A,4822.6987,N,431.6993,W,10.00,89.52,250915,,*06
$GPRMC,041907,A,4822.6987,N,431.6949,W,10.00,89.52,250915,,*01
$GPRMC,041907,A,4822.6987,N,431.6905,W,10.00,89.52,250915,,*09
$GPRMC,041907,A,4822.6987,N,431.6862,W,10.00,89.52,250915,,*09
$GPRMC,041907,A,4822.6988,N,431.6818,W,10.00,89.52,250915,,*0B
$GPRMC,041907,A,4822.6988,N,431.6775,W,10.00,89.52,250915,,*0F
$GPRMC,041907,A,4822.6988,N,431.6731,W,10.00,89.52,250915,,*0F
$GPRMC,041907,A,4822.6988,N,431.6687,W,10.00,89.52,250915,,*03
$GPRMC,041907,A,4822.6989,N,431.6644,W,10.00,89.52,250915,,*0D
$GPRMC,041907,A,4822.6989,N,431.6600,W,10.00,89.52,250915,,*0D
$GPRMC,041907,A,4822.6989,N,431.6556,W,10.00,89.52,250915,,*0D
$GPRMC,041907,A,4822.6989,N,431.6513,W,10.00,89.52,250915,,*0C
$GPRMC,041907,A,4822.6990,N,431.6469,W,10.00,89.52,250915,,*08
$GPRMC,041907,A,4822.6990,N,431.6426,W,10.00,89.52,250915,,*03
$GPRMC,041907,A,4822.6990,N,431.6382,W,10.00,89.52,250915,,*0A
$GPRMC,041907,A,4822.6990,N,431.6338,W,10.00,89.52,250915,,*0B
$GPRMC,041907,A,4822.6990,N,431.6295,W,10.00,89.52,250915,,*0D
$GPRMC,041907,A,4822.6991,N,431.6251,W,10.00,89.52,250915,,*04
$GPRMC,041907,A,4822.6991,N,431.6208,W,10.00,89.52,250915,,*08
$GPRMC,041907,A,4822.6991,N,431.6164,W,10.00,89.52,250915,,*01
$GPRMC,041907,A,4822.6991,N,431.6120,W,10.00,89.52,250915,,*01
$GPRMC,041907,A,4822.6992,N,431.6077,W,10.00,89.52,250915,,*01
$GPRMC,041907,A,4822.6992,N,431.6033,W,10.00,89.52,250915,,*01
$GPRMC,041907,A,4822.6992,N,431.5990,W,10.00,89.52,250915,,*02
$GPRMC,041907,A,4822.6992,N,431.5946,W,10.00,89.52,250915,,*09
$GPRMC,041907,A,4822.6993,N,431.5902,W,10.00,89.52,250915,,*08
$GPRMC,041907,A,4822.6993,N,431.5859,W,10.00,89.52,250915,,*07
$GPRMC,041907,A,4822.6993,N,431.5815,W,10.00,89.52,250915,,*0F
$GPRMC,041907,A,4822.6993,N,431.5772,W,10.00,89.52,250915,,*01
$GPRMC,041907,A,4822.6994,N,431.5728,W,10.00,89.52,250915,,*09
$GPRMC,041907,A,4822.6994,N,431.5684,W,10.00,89.52,250915,,*0E
$GPRMC,041907,A,4822.6994,N,431.5641,W,10.00,89.52,250915,,*07
$GPRMC,041907,A,4822.6994,N,431.5597,W,10.00,89.52,250915,,*0F
$GPRMC,041907,A,4822.6994,N,431.5554,W,10.00,89.52,250915,,*00
$GPRMC,041907,A,4822.6995,N,431.5510,W,10.00,89.52,250915,,*01
$GPRMC,041907,A,4822.6995,N,431.5466,W,10.00,89.52,250915,,*01
$GPRMC,041907,A,4822.6995,N,431.5423,W,10.00,89.52,250915,,*00
$GPRMC,041907,A,4822.6995,N,431.5379,W,10.00,89.52,250915,,*08
$GPRMC,041907,A,4822.6996,N,431.5336,W,10.00,89.52,250915,,*00
$GPRMC,041907,A,4822.6996,N,431.5292,W,10.00,89.52,250915,,*0F
$GPRMC,041907,A,4822.6996,N,431.5248,W,10.00,89.52,250915,,*08
$GPRMC,041907,A,4822.6996,N,431.5205,W,10.00,89.52,250915,,*01
$GPRMC,041907,A,4822.6997,N,431.5161,W,10.00,89.52,250915,,*01
$GPRMC,041907,A,4822.6997,N,431.5118,W,10.00,89.52,250915,,*0F
$GPRMC,041907,A,4822.6997,N,431.5074,W,10.00,89.52,250915,,*04
$GPRMC,041907,A,4822.6997,N,431.5030,W,10.00,89.52,250915,,*04
$GPRMC,041907,A,4822.6997,N,431.4987,W,10.00,89.52,250915,,*00
$GPRMC,041907,A,4822.6998,N,431.4943,W,10.00,89.52,250915,,*07
$GPRMC,041907,A,4822.6998,N,431.4900,W,10.00,89.52,250915,,*00
$GPRMC,041907,A,4822.6998,N,431.4856,W,10.00,89.52,250915,,*02
$GPRMC,041907,A,4822.6998,N,431.4812,W,10.00,89.52,250915,,*02
$GPRMC,041907,A,4822.6999,N,431.4769,W,10.00,89.52,250915,,*00
$GPRMC,041907,A,4822.6999,N,431.4725,W,10.00,89.52,250915,,*08
$GPRMC,041907,A,4822.6999,N,431.4681,W,10.00,89.52,250915,,*07
$GPRMC,041907,A,4822.6999,N,431.4638,W,10.00,89.52,250915,,*05
$GPRMC,041907,A,4822.7000,N,431.4594,W,10.00,89.52,250915,,*08
$GPRMC,041907,A,4822.7000,N,431.4551,W,10.00,89.52,250915,,*01
$GPRMC,041907,A,4822.7000,N,431.4507,W,10.00,89.52,250915,,*02
$GPRMC,041907,A,4822.7000,N,431.4463,W,10.00,89.52,250915,,*01
$GPRMC,041907,A,4822.7000,N,431.4420,W,10.00,89.52,250915,,*06
$GPRMC,041907,A,4822.7001,N,431.4376,W,10.00,89.52,250915,,*03
$GPRMC,041907,A,4822.7001,N,431.4333,W,10.00,89.52,250915,,*02
$GPRMC,041907,A,4822.7001,N,431.4289,W,10.00,89.52,250915,,*02
$GPRMC,041907,A,4822.7001,N,431.4245,W,10.00,89.52,250915,,*02
$GPRMC,041907,A,4822.7002,N,431.4202,W,10.00,89.52,250915,,*02
$GPRMC,041907,A,4822.7002,N,431.4158,W,10.00,89.52,250915,,*0E
$GPRMC,041907,A,4822.7002,N,431.4115,W,10.00,89.52,250915,,*07
$GPRMC,041907,A,4822.7002,N,431.4071,W,10.00,89.52,250915,,*04
$GPRMC,041907,A,4822.7003,N,431.4027,W,10.00,89.52,250915,,*06
$GPRMC,041907,A,4822.7003,N,431.3984,W,10.00,89.52,250915,,*01
$GPRMC,041907,A,4822.7003,N,431.3940,W,10.00,89.52,250915,,*09
$GPRMC,041907,A,4822.7003,N,431.3897,W,10.00,89.52,250915,,*02
$GPRMC,041907,A,4822.7003,N,431.3853,W,10.00,89.52,250915,,*0A
$GPRMC,041907,A,4822.7004,N,431.3809,W,10.00,89.52,250915,,*02
$GPRMC,041907,A,4822.7004,N,431.3766,W,10.00,89.52,250915,,*04
$GPRMC,041907,A,4822.7004,N,431.3722,W,10.00,89.52,250915,,*04
$GPRMC,041907,A,4822.7004,N,431.3679,W,10.00,89.52,250915,,*0B
$GPRMC,041907,A,4822.7005,N,431.3635,W,10.00,89.52,250915,,*02
$GPRMC,041907,A,4822.7005,N,431.3591,W,10.00,89.52,250915,,*0F
$GPRMC,041907,A,4822.7005,N,431.3548,W,10.00,89.52,250915,,*0B
$GPRMC,041907,A,4822.7005,N,431.3504,W,10.00,89.52,250915,,*03
$GPRMC,041907,A,4822.7006,N,431.3461,W,10.00,89.52,250915,,*02
$GPRMC,041907,A,4822.7006,N,431.3417,W,10.00,89.52,250915,,*03
$GPRMC,041907,A,4822.7006,N,431.3373,W,10.00,89.52,250915,,*06
$GPRMC,041907,A,4822.7006,N,431.3330,W,10.00,89.52,250915,,*01
$GPRMC,041907,A,4822.7006,N,431.3286,W,10.00,89.52,250915,,*0D
$GPRMC,041907,A,4822.7007,N,431.3243,W,10.00,89.52,250915,,*05
$GPRMC,041907,A,4822.7007,N,431.3199,W,10.00,89.52,250915,,*01
$GPRMC,041907,A,4822.7007,N,431.3155,W,10.00,89.52,250915,,*01
$GPRMC,041907,A,4822.7007,N,431.3112,W,10.00,89.52,250915,,*02
$GPRMC,041907,A,4822.7008,N,431.3068,W,10.00,89.52,250915,,*01
$GPRMC,041907,A,4822.7008,N,431.3025,W,10.00,89.52,250915,,*08
$GPRMC,041907,A,4822.7008,N,431.2981,W,10.00,89.52,250915,,*0E
$GPRMC,041907,A,4822.7008,N,431.2937,W,10.00,89.52,250915,,*03
$GPRMC,041907,A,4822.7009,N,431.2894,W,10.00,89.52,250915,,*0A
$GPRMC,041907,A,4822.7009,N,431.2850,W,10.00,89.52,250915,,*02
$GPRMC,041907,A,4822.7009,N,431.2806,W,10.00,89.52,250915,,*01
$GPRMC,041907,A,4822.7009,N,431.2763,W,10.00,89.52,250915,,*0D
$GPRMC,041907,A,4822.7009,N,431.2719,W,10.00,89.52,250915,,*00
$GPRMC,041907,A,4822.7010,N,431.2676,W,10.00,89.52,250915,,*00
$GPRMC,041907,A,4822.7010,N,431.2632,W,10.00,89.52,250915,,*00
$GPRMC,041907,A,4822.7010,N,431.2588,W,10.00,89.52,250915,,*02
$GPRMC,041907,A,4822.7010,N,431.2545,W,10.00,89.52,250915,,*03
$GPRMC,041907,A,4822.7011,N,431.2501,W,10.00,89.52,250915,,*02
$GPRMC,041907,A,4822.7011,N,431.2458,W,10.00,89.52,250915,,*0F
$GPRMC,041907,A,4822.7011,N,431.2414,W,10.00,89.52,250915,,*07
$GPRMC,041907,A,4822.7011,N,431.2370,W,10.00,89.52,250915,,*02
$GPRMC,041907,A,4822.7012,N,431.2327,W,10.00,89.52,250915,,*03
$GPRMC,041907,A,4822.7012,N,431.2283,W,10.00,89.52,250915,,*0C
$GPRMC,041907,A,4822.7012,N,431.2240,W,10.00,89.52,250915,,*03
$GPRMC,041907,A,4822.7012,N,431.2196,W,10.00,89.52,250915,,*0B
$GPRMC,041907,A,4822.7012,N,431.2152,W,10.00,89.52,250915,,*03
$GPRMC,041907,A,4822.7013,N,431.2109,W,10.00,89.52,250915,,*0C
$GPRMC,041907,A,4822.7013,N,431.2065,W,10.00,89.52,250915,,*07
$GPRMC,041907,A,4822.7013,N,431.2022,W,10.00,89.52,250915,,*04
$GPRMC,041907,A,4822.7013,N,431.1978,W,10.00,89.52,250915,,*01
$GPRMC,041907,A,4822.7014,N,431.1934,W,10.00,89.52,250915,,*0E
$GPRMC,041907,A,4822.7014,N,431.1891,W,10.00,89.52,250915,,*00
$GPRMC,041907,A,4822.7014,N,431.1847,W,10.00,89.52,250915,,*0B
$GPRMC,041907,A,4822.7014,N,431.1804,W,10.00,89.52,250915,,*0C
$GPRMC,041907,A,4822.7015,N,431.1760,W,10.00,89.52,250915,,*00
$GPRMC,041907,A,4822.7015,N,431.1716,W,10.00,89.52,250915,,*01
$GPRMC,041907,A,4822.7015,N,431.1673,W,10.00,89.52,250915,,*03
$GPRMC,041907,A,4822.7015,N,431.1629,W,10.00,89.52,250915,,*0C
$GPRMC,041907,A,4822.7015,N,431.1586,W,10.00,89.52,250915,,*0A
$GPRMC,041907,A,4822.7016,N,431.1542,W,10.00,89.52,250915,,*01
$GPRMC,041907,A,4822.7016,N,431.1498,W,10.00,89.52,250915,,*07
$GPRMC,041907,A,4822.7016,N,431.1455,W,10.00,89.52,250915,,*06
$GPRMC,041907,A,4822.7016,N,431.1411,W,10.00,89.52,250915,,*06
$GPRMC,041907,A,4822.7017,N,431.1368,W,10.00,89.52,250915,,*0E
$GPRMC,041907,A,4822.7017,N,431.1324,W,10.00,89.52,250915,,*06
