$GPGGA,090000.00,4822.57029897,N,00429.85330167,W,1,05,2.87,160.00,M,-21.3213,M,,*64
$GPGGA,090001.00,4822.57029897,N,00429.85330167,W,1,05,2.87,160.00,M,-21.3213,M,,*65
$GPGGA,090002.00,4822.57029897,N,00429.85330167,W,1,05,2.87,160.00,M,-21.3213,M,,*66
$GPGGA,090003.00,4822.57029897,N,00429.85330167,W,1,05,2.87,160.00,M,-21.3213,M,,*67
$GPGGA,090004.00,4822.57029897,N,00429.85330167,W,1,05,2.87,160.00,M,-21.3213,M,,*60
$GPGGA,090005.00,4822.57029897,N,00429.85330167,W,1,05,2.87,160.00,M,-21.3213,M,,*61
$GPGGA,090006.00,4822.57029897,N,00429.85330167,W,1,05,2.87,160.00,M,-21.3213,M,,*62
$GPGGA,090007.00,4822.57029897,N,00429.85330167,W,1,05,2.87,160.00,M,-21.3213,M,,*63
$GPGGA,090008.00,4822.57029897,N,00429.85330167,W,1,05,2.87,160.00,M,-21.3213,M,,*6C
$GPGGA,090009.00,4822.57029897,N,00429.85330167,W,1,05,2.87,160.00,M,-21.3213,M,,*6D
$GPGGA,090010.00,4822.56539899,N,00429.84753542,W,1,05,2.87,160.00,M,-21.3213,M,,*6D
$GPGGA,090011.00,4822.55947916,N,00429.84056905,W,1,05,2.87,160.00,M,-21.3213,M,,*61
$GPGGA,090012.00,4822.55360118,N,00429.83365197,W,1,05,2.87,160.00,M,-21.3213,M,,*6C
$GPGGA,090013.00,4822.54763712,N,00429.82663362,W,1,05,2.87,160.00,M,-21.3213,M,,*6D
$GPGGA,090014.00,4822.54173746,N,00429.81969109,W,1,05,2.87,160.00,M,-21.3213,M,,*65
$GPGGA,090015.00,4822.53591699,N,00429.81284179,W,1,05,2.87,160.00,M,-21.3213,M,,*67
$GPGGA,090016.00,4822.53001033,N,00429.80589110,W,1,05,2.87,160.00,M,-21.3213,M,,*6A
$GPGGA,090017.00,4822.52410335,N,00429.79894007,W,1,05,2.87,160.00,M,-21.3213,M,,*6B
$GPGGA,090018.00,4822.51819628,N,00429.79198896,W,1,05,2.87,160.00,M,-21.3213,M,,*6E
$GPGGA,090019.00,4822.51228919,N,00429.78503787,W,1,05,2.87,160.00,M,-21.3213,M,,*62
$GPGGA,090020.00,4822.50638208,N,00429.77808679,W,1,05,2.87,160.00,M,-21.3213,M,,*6E
$GPGGA,090021.00,4822.50047497,N,00429.77113574,W,1,05,2.87,160.00,M,-21.3213,M,,*6C
$GPGGA,090022.00,4822.49456785,N,00429.76418471,W,1,05,2.87,160.00,M,-21.3213,M,,*68
$GPGGA,090023.00,4822.48866072,N,00429.75723371,W,1,05,2.87,160.00,M,-21.3213,M,,*67
$GPGGA,090024.00,4822.48283851,N,00429.75038267,W,1,05,2.87,160.00,M,-21.3213,M,,*63
$GPGGA,090025.00,4822.47693137,N,00429.74343173,W,1,05,2.87,160.00,M,-21.3213,M,,*69
$GPGGA,090026.00,4822.47102422,N,00429.73648081,W,1,05,2.87,160.00,M,-21.3213,M,,*61
$GPGGA,090027.00,4822.46511706,N,00429.72952992,W,1,05,2.87,160.00,M,-21.3213,M,,*6C
$GPGGA,090028.00,4822.45920989,N,00429.72257905,W,1,05,2.87,160.00,M,-21.3213,M,,*67
$GPGGA,090029.00,4822.45330272,N,00429.71562821,W,1,05,2.87,160.00,M,-21.3213,M,,*67
$GPGGA,090030.00,4822.44739554,N,00429.70867740,W,1,05,2.87,160.00,M,-21.3213,M,,*61
$GPGGA,090031.00,4822.44148836,N,00429.70172661,W,1,05,2.87,160.00,M,-21.3213,M,,*66
$GPGGA,090032.00,4822.43558116,N,00429.69477586,W,1,05,2.87,160.00,M,-21.3213,M,,*6E
$GPGGA,090033.00,4822.42975889,N,00429.68792505,W,1,05,2.87,160.00,M,-21.3213,M,,*60
$GPGGA,090034.00,4822.42385168,N,00429.68097435,W,1,05,2.87,160.00,M,-21.3213,M,,*64
$GPGGA,090035.00,4822.41794447,N,00429.67402367,W,1,05,2.87,160.00,M,-21.3213,M,,*6D
$GPGGA,090036.00,4822.41203725,N,00429.66707302,W,1,05,2.87,160.00,M,-21.3213,M,,*66
$GPGGA,090037.00,4822.40613002,N,00429.66012239,W,1,05,2.87,160.00,M,-21.3213,M,,*6B
$GPGGA,090038.00,4822.40022278,N,00429.65317179,W,1,05,2.87,160.00,M,-21.3213,M,,*6D
$GPGGA,090039.00,4822.39431554,N,00429.64622122,W,1,05,2.87,160.00,M,-21.3213,M,,*61
$GPGGA,090040.00,4822.38840829,N,00429.63927068,W,1,05,2.87,160.00,M,-21.3213,M,,*61
$GPGGA,090041.00,4822.38250103,N,00429.63232016,W,1,05,2.87,160.00,M,-21.3213,M,,*6C
$GPGGA,090042.00,4822.37667811,N,00429.62546890,W,1,05,2.87,160.00,M,-21.3213,M,,*69
$GPGGA,090043.00,4822.37077083,N,00429.61851843,W,1,05,2.87,160.00,M,-21.3213,M,,*6A
$GPGGA,090044.00,4822.36486355,N,00429.61156799,W,1,05,2.87,160.00,M,-21.3213,M,,*68
$GPGGA,090045.00,4822.35895627,N,00429.60461758,W,1,05,2.87,160.00,M,-21.3213,M,,*69
$GPGGA,090046.00,4822.35304897,N,00429.59766720,W,1,05,2.87,160.00,M,-21.3213,M,,*6D
$GPGGA,090047.00,4822.34714167,N,00429.59071684,W,1,05,2.87,160.00,M,-21.3213,M,,*60
$GPGGA,090048.00,4822.34123437,N,00429.58376650,W,1,05,2.87,160.00,M,-21.3213,M,,*61
$GPGGA,090049.00,4822.33532705,N,00429.57681620,W,1,05,2.87,160.00,M,-21.3213,M,,*64
$GPGGA,090050.00,4822.32941973,N,00429.56986592,W,1,05,2.87,160.00,M,-21.3213,M,,*69
$GPGGA,090051.00,4822.32359733,N,00429.56301559,W,1,05,2.87,160.00,M,-21.3213,M,,*63
$GPGGA,090052.00,4822.31768999,N,00429.55606537,W,1,05,2.87,160.00,M,-21.3213,M,,*62
$GPGGA,090053.00,4822.31178265,N,00429.54911517,W,1,05,2.87,160.00,M,-21.3213,M,,*66
$GPGGA,090054.00,4822.30587530,N,00429.54216500,W,1,05,2.87,160.00,M,-21.3213,M,,*69
$GPGGA,090055.00,4822.29996794,N,00429.53521485,W,1,05,2.87,160.00,M,-21.3213,M,,*68
$GPGGA,090056.00,4822.29406058,N,00429.52826473,W,1,05,2.87,160.00,M,-21.3213,M,,*6A
$GPGGA,090057.00,4822.28815321,N,00429.52131464,W,1,05,2.87,160.00,M,-21.3213,M,,*60
$GPGGA,090058.00,4822.28224583,N,00429.51436457,W,1,05,2.87,160.00,M,-21.3213,M,,*68
$GPGGA,090059.00,4822.27633844,N,00429.50741454,W,1,05,2.87,160.00,M,-21.3213,M,,*63
$GPGGA,090100.00,4822.27051598,N,00429.50056444,W,1,05,2.87,160.00,M,-21.3213,M,,*60
$GPGGA,090101.00,4822.26460858,N,00429.49361446,W,1,05,2.87,160.00,M,-21.3213,M,,*6A
$GPGGA,090102.00,4822.25870117,N,00429.48666450,W,1,05,2.87,160.00,M,-21.3213,M,,*61
$GPGGA,090103.00,4822.25279375,N,00429.47971457,W,1,05,2.87,160.00,M,-21.3213,M,,*64
$GPGGA,090104.00,4822.24688633,N,00429.47276466,W,1,05,2.87,160.00,M,-21.3213,M,,*61
$GPGGA,090105.00,4822.24097890,N,00429.46581478,W,1,05,2.87,160.00,M,-21.3213,M,,*6E
$GPGGA,090106.00,4822.23507147,N,00429.45886493,W,1,05,2.87,160.00,M,-21.3213,M,,*69
$GPGGA,090107.00,4822.22916402,N,00429.45191511,W,1,05,2.87,160.00,M,-21.3213,M,,*65
$GPGGA,090108.00,4822.22325657,N,00429.44496531,W,1,05,2.87,160.00,M,-21.3213,M,,*63
$GPGGA,090109.00,4822.21743404,N,00429.43811545,W,1,05,2.87,160.00,M,-21.3213,M,,*66
$GPGGA,090110.00,4822.21152658,N,00429.43116571,W,1,05,2.87,160.00,M,-21.3213,M,,*6A
$GPGGA,090111.00,4822.20561911,N,00429.42421599,W,1,05,2.87,160.00,M,-21.3213,M,,*6A
$GPGGA,090112.00,4822.19971163,N,00429.41726630,W,1,05,2.87,160.00,M,-21.3213,M,,*64
$GPGGA,090113.00,4822.19380414,N,00429.41031663,W,1,05,2.87,160.00,M,-21.3213,M,,*63
$GPGGA,090114.00,4822.18789665,N,00429.40336700,W,1,05,2.87,160.00,M,-21.3213,M,,*6D
$GPGGA,090115.00,4822.18198915,N,00429.39641738,W,1,05,2.87,160.00,M,-21.3213,M,,*62
$GPGGA,090116.00,4822.17608164,N,00429.38946780,W,1,05,2.87,160.00,M,-21.3213,M,,*64
$GPGGA,090117.00,4822.17017412,N,00429.38251824,W,1,05,2.87,160.00,M,-21.3213,M,,*65
$GPGGA,090118.00,4822.16435153,N,00429.37566862,W,1,05,2.87,160.00,M,-21.3213,M,,*61
$GPGGA,090119.00,4822.15844400,N,00429.36871912,W,1,05,2.87,160.00,M,-21.3213,M,,*66
$GPGGA,090120.00,4822.15253647,N,00429.36176964,W,1,05,2.87,160.00,M,-21.3213,M,,*6E
$GPGGA,090121.00,4822.14662892,N,00429.35482019,W,1,05,2.87,160.00,M,-21.3213,M,,*60
$GPGGA,090122.00,4822.14072137,N,00429.34787076,W,1,05,2.87,160.00,M,-21.3213,M,,*6C
$GPGGA,090123.00,4822.13481381,N,00429.34092137,W,1,05,2.87,160.00,M,-21.3213,M,,*6A
$GPGGA,090124.00,4822.12890624,N,00429.33397201,W,1,05,2.87,160.00,M,-21.3213,M,,*6D
$GPGGA,090125.00,4822.12299865,N,00429.32702274,W,1,05,2.87,160.00,M,-21.3213,M,,*6F
$GPGGA,090126.00,4822.11709098,N,00429.32007371,W,1,05,2.87,160.00,M,-21.3213,M,,*6F
$GPGGA,090127.00,4822.11126797,N,00429.31322548,W,1,05,2.87,160.00,M,-21.3213,M,,*66
$GPGGA,090128.00,4822.10535895,N,00429.30628089,W,1,05,2.87,160.00,M,-21.3213,M,,*65
$GPGGA,090129.00,4822.09944553,N,00429.29935056,W,1,05,2.87,160.00,M,-21.3213,M,,*68
$GPGGA,090130.00,4822.09351429,N,00429.29247760,W,1,05,2.87,160.00,M,-21.3213,M,,*6E
$GPGGA,090131.00,4822.08742135,N,00429.28574070,W,1,05,2.87,160.00,M,-21.3213,M,,*60
$GPGGA,090132.00,4822.08111061,N,00429.27992059,W,1,05,2.87,160.00,M,-21.3213,M,,*63
$GPGGA,090133.00,4822.07433878,N,00429.27486334,W,1,05,2.87,160.00,M,-21.3213,M,,*68
$GPGGA,090134.00,4822.06755018,N,00429.27010631,W,1,05,2.87,160.00,M,-21.3213,M,,*68
$GPGGA,090135.00,4822.06073314,N,00429.26540465,W,1,05,2.87,160.00,M,-21.3213,M,,*67
$GPGGA,090136.00,4822.05400715,N,00429.26078406,W,1,05,2.87,160.00,M,-21.3213,M,,*69
$GPGGA,090137.00,4822.04718128,N,00429.25609947,W,1,05,2.87,160.00,M,-21.3213,M,,*60
$GPGGA,090138.00,4822.04035496,N,00429.25141575,W,1,05,2.87,160.00,M,-21.3213,M,,*61
$GPGGA,090139.00,4822.03352853,N,00429.24673227,W,1,05,2.87,160.00,M,-21.3213,M,,*67
$GPGGA,090140.00,4822.02670207,N,00429.24204886,W,1,05,2.87,160.00,M,-21.3213,M,,*63
$GPGGA,090141.00,4822.01987560,N,00429.23736548,W,1,05,2.87,160.00,M,-21.3213,M,,*6C
$GPGGA,090142.00,4822.01304913,N,00429.23268213,W,1,05,2.87,160.00,M,-21.3213,M,,*61
$GPGGA,090143.00,4822.00622265,N,00429.22799880,W,1,05,2.87,160.00,M,-21.3213,M,,*60
$GPGGA,090144.00,4821.99939617,N,00429.22331549,W,1,05,2.87,160.00,M,-21.3213,M,,*6E
$GPGGA,090145.00,4821.99256968,N,00429.21863220,W,1,05,2.87,160.00,M,-21.3213,M,,*6D
$GPGGA,090146.00,4821.98584134,N,00429.21401626,W,1,05,2.87,160.00,M,-21.3213,M,,*6C
$GPGGA,090147.00,4821.97901485,N,00429.20933302,W,1,05,2.87,160.00,M,-21.3213,M,,*62
$GPGGA,090148.00,4821.97218835,N,00429.20464979,W,1,05,2.87,160.00,M,-21.3213,M,,*60
$GPGGA,090149.00,4821.96536186,N,00429.19996658,W,1,05,2.87,160.00,M,-21.3213,M,,*6C
$GPGGA,090150.00,4821.95853535,N,00429.19528340,W,1,05,2.87,160.00,M,-21.3213,M,,*60
$GPGGA,090151.00,4821.95170885,N,00429.19060023,W,1,05,2.87,160.00,M,-21.3213,M,,*60
$GPGGA,090152.00,4821.94488234,N,00429.18591709,W,1,05,2.87,160.00,M,-21.3213,M,,*65
$GPGGA,090153.00,4821.93805583,N,00429.18123396,W,1,05,2.87,160.00,M,-21.3213,M,,*6E
$GPGGA,090154.00,4821.93122931,N,00429.17655086,W,1,05,2.87,160.00,M,-21.3213,M,,*6B
$GPGGA,090155.00,4821.92450094,N,00429.17193511,W,1,05,2.87,160.00,M,-21.3213,M,,*6B
$GPGGA,090156.00,4821.91767442,N,00429.16725205,W,1,05,2.87,160.00,M,-21.3213,M,,*6B
$GPGGA,090157.00,4821.91084789,N,00429.16256901,W,1,05,2.87,160.00,M,-21.3213,M,,*6A
$GPGGA,090158.00,4821.90402136,N,00429.15788599,W,1,05,2.87,160.00,M,-21.3213,M,,*64
$GPGGA,090159.00,4821.89719483,N,00429.15320299,W,1,05,2.87,160.00,M,-21.3213,M,,*6E
$GPGGA,090200.00,4821.89036829,N,00429.14852001,W,1,05,2.87,160.00,M,-21.3213,M,,*6B
$GPGGA,090201.00,4821.88354175,N,00429.14383705,W,1,05,2.87,160.00,M,-21.3213,M,,*68
$GPGGA,090202.00,4821.87671521,N,00429.13915412,W,1,05,2.87,160.00,M,-21.3213,M,,*64
$GPGGA,090203.00,4821.86988867,N,00429.13447120,W,1,05,2.87,160.00,M,-21.3213,M,,*6C
$GPGGA,090204.00,4821.86316026,N,00429.12985563,W,1,05,2.87,160.00,M,-21.3213,M,,*6A
$GPGGA,090205.00,4821.85633371,N,00429.12517276,W,1,05,2.87,160.00,M,-21.3213,M,,*6F
$GPGGA,090206.00,4821.84950715,N,00429.12048991,W,1,05,2.87,160.00,M,-21.3213,M,,*6C
$GPGGA,090207.00,4821.84268059,N,00429.11580707,W,1,05,2.87,160.00,M,-21.3213,M,,*61
$GPGGA,090208.00,4821.83585403,N,00429.11112426,W,1,05,2.87,160.00,M,-21.3213,M,,*69
$GPGGA,090209.00,4821.82902746,N,00429.10644147,W,1,05,2.87,160.00,M,-21.3213,M,,*6F
$GPGGA,090210.00,4821.82220089,N,00429.10175870,W,1,05,2.87,160.00,M,-21.3213,M,,*60
$GPGGA,090211.00,4821.81537432,N,00429.09707595,W,1,05,2.87,160.00,M,-21.3213,M,,*6A
$GPGGA,090212.00,4821.80854774,N,00429.09239322,W,1,05,2.87,160.00,M,-21.3213,M,,*63
$GPGGA,090213.00,4821.80181931,N,00429.08777784,W,1,05,2.87,160.00,M,-21.3213,M,,*6A
$GPGGA,090214.00,4821.79499273,N,00429.08309515,W,1,05,2.87,160.00,M,-21.3213,M,,*6D
$GPGGA,090215.00,4821.78816614,N,00429.07841249,W,1,05,2.87,160.00,M,-21.3213,M,,*65
$GPGGA,090216.00,4821.78133955,N,00429.07372984,W,1,05,2.87,160.00,M,-21.3213,M,,*63
$GPGGA,090217.00,4821.77451296,N,00429.06904721,W,1,05,2.87,160.00,M,-21.3213,M,,*63
$GPGGA,090218.00,4821.76768636,N,00429.06436461,W,1,05,2.87,160.00,M,-21.3213,M,,*61
$GPGGA,090219.00,4821.76085976,N,00429.05968203,W,1,05,2.87,160.00,M,-21.3213,M,,*68
$GPGGA,090220.00,4821.75403316,N,00429.05499947,W,1,05,2.87,160.00,M,-21.3213,M,,*6F
$GPGGA,090221.00,4821.74720655,N,00429.05031692,W,1,05,2.87,160.00,M,-21.3213,M,,*6E
$GPGGA,090222.00,4821.74047809,N,00429.04570172,W,1,05,2.87,160.00,M,-21.3213,M,,*64
$GPGGA,090223.00,4821.73365147,N,00429.04101922,W,1,05,2.87,160.00,M,-21.3213,M,,*6D
$GPGGA,090224.00,4821.72682486,N,00429.03633674,W,1,05,2.87,160.00,M,-21.3213,M,,*62
$GPGGA,090225.00,4821.71999823,N,00429.03165428,W,1,05,2.87,160.00,M,-21.3213,M,,*69
$GPGGA,090226.00,4821.71317161,N,00429.02697185,W,1,05,2.87,160.00,M,-21.3213,M,,*60
$GPGGA,090227.00,4821.70634498,N,00429.02228943,W,1,05,2.87,160.00,M,-21.3213,M,,*65
$GPGGA,090228.00,4821.69951835,N,00429.01760703,W,1,05,2.87,160.00,M,-21.3213,M,,*65
$GPGGA,090229.00,4821.69269172,N,00429.01292466,W,1,05,2.87,160.00,M,-21.3213,M,,*66
$GPGGA,090230.00,4821.68586508,N,00429.00824230,W,1,05,2.87,160.00,M,-21.3213,M,,*63
$GPGGA,090231.00,4821.67913659,N,00429.00362729,W,1,05,2.87,160.00,M,-21.3213,M,,*6E
$GPGGA,090232.00,4821.67230994,N,00428.99894497,W,1,05,2.87,160.00,M,-21.3213,M,,*6C
$GPGGA,090233.00,4821.66548330,N,00428.99426268,W,1,05,2.87,160.00,M,-21.3213,M,,*63
$GPGGA,090234.00,4821.65865664,N,00428.98958041,W,1,05,2.87,160.00,M,-21.3213,M,,*6D
$GPGGA,090235.00,4821.65182999,N,00428.98489816,W,1,05,2.87,160.00,M,-21.3213,M,,*6A
$GPGGA,090236.00,4821.64500333,N,00428.98021593,W,1,05,2.87,160.00,M,-21.3213,M,,*6A
$GPGGA,090237.00,4821.63817667,N,00428.97553372,W,1,05,2.87,160.00,M,-21.3213,M,,*65
$GPGGA,090238.00,4821.63135001,N,00428.97085153,W,1,05,2.87,160.00,M,-21.3213,M,,*6A
$GPGGA,090239.00,4821.62452334,N,00428.96616936,W,1,05,2.87,160.00,M,-21.3213,M,,*6D
$GPGGA,090240.00,4821.61779481,N,00428.96155453,W,1,05,2.87,160.00,M,-21.3213,M,,*6D
$GPGGA,090241.00,4821.61096814,N,00428.95687240,W,1,05,2.87,160.00,M,-21.3213,M,,*65
$GPGGA,090242.00,4821.60414146,N,00428.95219030,W,1,05,2.87,160.00,M,-21.3213,M,,*61
$GPGGA,090243.00,4821.59731478,N,00428.94750821,W,1,05,2.87,160.00,M,-21.3213,M,,*67
$GPGGA,090244.00,4821.59048810,N,00428.94282615,W,1,05,2.87,160.00,M,-21.3213,M,,*68
$GPGGA,090245.00,4821.58366141,N,00428.93814411,W,1,05,2.87,160.00,M,-21.3213,M,,*6E
$GPGGA,090246.00,4821.57683472,N,00428.93346208,W,1,05,2.87,160.00,M,-21.3213,M,,*6B
$GPGGA,090247.00,4821.57000802,N,00428.92878008,W,1,05,2.87,160.00,M,-21.3213,M,,*69
$GPGGA,090248.00,4821.56318132,N,00428.92409810,W,1,05,2.87,160.00,M,-21.3213,M,,*6C
$GPGGA,090249.00,4821.55645277,N,00428.91948345,W,1,05,2.87,160.00,M,-21.3213,M,,*61
$GPGGA,090250.00,4821.54962606,N,00428.91480151,W,1,05,2.87,160.00,M,-21.3213,M,,*6E
$GPGGA,090251.00,4821.54279935,N,00428.91011959,W,1,05,2.87,160.00,M,-21.3213,M,,*6D
$GPGGA,090252.00,4821.53597264,N,00428.90543770,W,1,05,2.87,160.00,M,-21.3213,M,,*67
$GPGGA,090253.00,4821.52914593,N,00428.90075582,W,1,05,2.87,160.00,M,-21.3213,M,,*60
$GPGGA,090254.00,4821.52231921,N,00428.89607396,W,1,05,2.87,160.00,M,-21.3213,M,,*66
$GPGGA,090255.00,4821.51549249,N,00428.89139213,W,1,05,2.87,160.00,M,-21.3213,M,,*6F
$GPGGA,090256.00,4821.50866576,N,00428.88671031,W,1,05,2.87,160.00,M,-21.3213,M,,*6E
$GPGGA,090257.00,4821.50183903,N,00428.88202852,W,1,05,2.87,160.00,M,-21.3213,M,,*6E
$GPGGA,090258.00,4821.49511045,N,00428.87741405,W,1,05,2.87,160.00,M,-21.3213,M,,*6E
$GPGGA,090259.00,4821.48828371,N,00428.87273230,W,1,05,2.87,160.00,M,-21.3213,M,,*69
$GPGGA,090300.00,4821.48145697,N,00428.86805057,W,1,05,2.87,160.00,M,-21.3213,M,,*62
$GPGGA,090301.00,4821.47463023,N,00428.86336886,W,1,05,2.87,160.00,M,-21.3213,M,,*6B
$GPGGA,090302.00,4821.46780348,N,00428.85868717,W,1,05,2.87,160.00,M,-21.3213,M,,*6D
$GPGGA,090303.00,4821.46097673,N,00428.85400550,W,1,05,2.87,160.00,M,-21.3213,M,,*63
$GPGGA,090304.00,4821.45414998,N,00428.84932385,W,1,05,2.87,160.00,M,-21.3213,M,,*61
$GPGGA,090305.00,4821.44732323,N,00428.84464222,W,1,05,2.87,160.00,M,-21.3213,M,,*6E
$GPGGA,090306.00,4821.44049647,N,00428.83996062,W,1,05,2.87,160.00,M,-21.3213,M,,*60
$GPGGA,090307.00,4821.43376785,N,00428.83534634,W,1,05,2.87,160.00,M,-21.3213,M,,*67
$GPGGA,090308.00,4821.42694109,N,00428.83066477,W,1,05,2.87,160.00,M,-21.3213,M,,*65
$GPGGA,090309.00,4821.42011432,N,00428.82598322,W,1,05,2.87,160.00,M,-21.3213,M,,*60
$GPGGA,090310.00,4821.41328754,N,00428.82130170,W,1,05,2.87,160.00,M,-21.3213,M,,*62
$GPGGA,090311.00,4821.40646077,N,00428.81662020,W,1,05,2.87,160.00,M,-21.3213,M,,*6E
$GPGGA,090312.00,4821.39963399,N,00428.81193871,W,1,05,2.87,160.00,M,-21.3213,M,,*6D
$GPGGA,090313.00,4821.39280721,N,00428.80725725,W,1,05,2.87,160.00,M,-21.3213,M,,*69
$GPGGA,090314.00,4821.38598042,N,00428.80257581,W,1,05,2.87,160.00,M,-21.3213,M,,*6F
$GPGGA,090315.00,4821.37915363,N,00428.79789439,W,1,05,2.87,160.00,M,-21.3213,M,,*6A
$GPGGA,090316.00,4821.37242498,N,00428.79328030,W,1,05,2.87,160.00,M,-21.3213,M,,*61
$GPGGA,090317.00,4821.36559819,N,00428.78859892,W,1,05,2.87,160.00,M,-21.3213,M,,*65
$GPGGA,090318.00,4821.35877139,N,00428.78391756,W,1,05,2.87,160.00,M,-21.3213,M,,*6B
$GPGGA,090319.00,4821.35194458,N,00428.77923622,W,1,05,2.87,160.00,M,-21.3213,M,,*62
$GPGGA,090320.00,4821.34511778,N,00428.77455490,W,1,05,2.87,160.00,M,-21.3213,M,,*66
$GPGGA,090321.00,4821.33829097,N,00428.76987361,W,1,05,2.87,160.00,M,-21.3213,M,,*6A
$GPGGA,090322.00,4821.33146415,N,00428.76519233,W,1,05,2.87,160.00,M,-21.3213,M,,*6A
$GPGGA,090323.00,4821.32463734,N,00428.76051108,W,1,05,2.87,160.00,M,-21.3213,M,,*6A
$GPGGA,090324.00,4821.31781052,N,00428.75582985,W,1,05,2.87,160.00,M,-21.3213,M,,*63
$GPGGA,090325.00,4821.31108184,N,00428.75121593,W,1,05,2.87,160.00,M,-21.3213,M,,*69
$GPGGA,090326.00,4821.30425502,N,00428.74653474,W,1,05,2.87,160.00,M,-21.3213,M,,*60
$GPGGA,090327.00,4821.29742819,N,00428.74185357,W,1,05,2.87,160.00,M,-21.3213,M,,*66
$GPGGA,090328.00,4821.29060135,N,00428.73717242,W,1,05,2.87,160.00,M,-21.3213,M,,*66
$GPGGA,090329.00,4821.28377451,N,00428.73249129,W,1,05,2.87,160.00,M,-21.3213,M,,*64
$GPGGA,090330.00,4821.27694767,N,00428.72781018,W,1,05,2.87,160.00,M,-21.3213,M,,*6E
$GPGGA,090331.00,4821.27012083,N,00428.72312909,W,1,05,2.87,160.00,M,-21.3213,M,,*6D
$GPGGA,090332.00,4821.26329398,N,00428.71844803,W,1,05,2.87,160.00,M,-21.3213,M,,*6D
$GPGGA,090333.00,4821.25646713,N,00428.71376698,W,1,05,2.87,160.00,M,-21.3213,M,,*62
$GPGGA,090334.00,4821.24973843,N,00428.70915325,W,1,05,2.87,160.00,M,-21.3213,M,,*6A
$GPGGA,090335.00,4821.24291157,N,00428.70447225,W,1,05,2.87,160.00,M,-21.3213,M,,*6B
$GPGGA,090336.00,4821.23608471,N,00428.69979126,W,1,05,2.87,160.00,M,-21.3213,M,,*62
$GPGGA,090337.00,4821.22925784,N,00428.69511030,W,1,05,2.87,160.00,M,-21.3213,M,,*6F
$GPGGA,090338.00,4821.22243098,N,00428.69042936,W,1,05,2.87,160.00,M,-21.3213,M,,*6D
$GPGGA,090339.00,4821.21560411,N,00428.68574843,W,1,05,2.87,160.00,M,-21.3213,M,,*6E
$GPGGA,090340.00,4821.20877723,N,00428.68106753,W,1,05,2.87,160.00,M,-21.3213,M,,*67
$GPGGA,090341.00,4821.20195035,N,00428.67638666,W,1,05,2.87,160.00,M,-21.3213,M,,*61
$GPGGA,090342.00,4821.19512347,N,00428.67170581,W,1,05,2.87,160.00,M,-21.3213,M,,*64
$GPGGA,090343.00,4821.18839473,N,00428.66709232,W,1,05,2.87,160.00,M,-21.3213,M,,*66
$GPGGA,090344.00,4821.18156784,N,00428.66241174,W,1,05,2.87,160.00,M,-21.3213,M,,*62
$GPGGA,090345.00,4821.17474090,N,00428.65773187,W,1,05,2.87,160.00,M,-21.3213,M,,*60
$GPGGA,090346.00,4821.16791381,N,00428.65305487,W,1,05,2.87,160.00,M,-21.3213,M,,*69
$GPGGA,090347.00,4821.16108612,N,00428.64838938,W,1,05,2.87,160.00,M,-21.3213,M,,*6C
$GPGGA,090348.00,4821.15425596,N,00428.64377029,W,1,05,2.87,160.00,M,-21.3213,M,,*6C
$GPGGA,090349.00,4821.14741488,N,00428.63933679,W,1,05,2.87,160.00,M,-21.3213,M,,*6D
$GPGGA,090350.00,4821.14030808,N,00428.63553969,W,1,05,2.87,160.00,M,-21.3213,M,,*64
$GPGGA,090351.00,4821.13289914,N,00428.63360517,W,1,05,2.87,160.00,M,-21.3213,M,,*6D
$GPGGA,090352.00,4821.12548959,N,00428.63258826,W,1,05,2.87,160.00,M,-21.3213,M,,*69
$GPGGA,090353.00,4821.11801999,N,00428.63178259,W,1,05,2.87,160.00,M,-21.3213,M,,*64
$GPGGA,090354.00,4821.11053499,N,00428.63102957,W,1,05,2.87,160.00,M,-21.3213,M,,*69
$GPGGA,090355.00,4821.10304617,N,00428.63028958,W,1,05,2.87,160.00,M,-21.3213,M,,*6A
$GPGGA,090356.00,4821.09555639,N,00428.62955282,W,1,05,2.87,160.00,M,-21.3213,M,,*61
$GPGGA,090357.00,4821.08806637,N,00428.62881686,W,1,05,2.87,160.00,M,-21.3213,M,,*6C
$GPGGA,090358.00,4821.08057630,N,00428.62808109,W,1,05,2.87,160.00,M,-21.3213,M,,*69
$GPGGA,090359.00,4821.07308621,N,00428.62734538,W,1,05,2.87,160.00,M,-21.3213,M,,*68
$GPGGA,090400.00,4821.06570380,N,00428.62662027,W,1,05,2.87,160.00,M,-21.3213,M,,*6C
$GPGGA,090401.00,4821.05821370,N,00428.62588458,W,1,05,2.87,160.00,M,-21.3213,M,,*63
$GPGGA,090402.00,4821.05072361,N,00428.62514890,W,1,05,2.87,160.00,M,-21.3213,M,,*63
$GPGGA,090403.00,4821.04323351,N,00428.62441322,W,1,05,2.87,160.00,M,-21.3213,M,,*64
$GPGGA,090404.00,4821.03574342,N,00428.62367754,W,1,05,2.87,160.00,M,-21.3213,M,,*64
$GPGGA,090405.00,4821.02825332,N,00428.62294187,W,1,05,2.87,160.00,M,-21.3213,M,,*6F
$GPGGA,090406.00,4821.02076323,N,00428.62220620,W,1,05,2.87,160.00,M,-21.3213,M,,*67
$GPGGA,090407.00,4821.01327313,N,00428.62147054,W,1,05,2.87,160.00,M,-21.3213,M,,*66
$GPGGA,090408.00,4821.00589072,N,00428.62074545,W,1,05,2.87,160.00,M,-21.3213,M,,*6A
$GPGGA,090409.00,4820.99840062,N,00428.62000980,W,1,05,2.87,160.00,M,-21.3213,M,,*65
$GPGGA,090410.00,4820.99091052,N,00428.61927414,W,1,05,2.87,160.00,M,-21.3213,M,,*65
$GPGGA,090411.00,4820.98342043,N,00428.61853849,W,1,05,2.87,160.00,M,-21.3213,M,,*6E
$GPGGA,090412.00,4820.97593033,N,00428.61780284,W,1,05,2.87,160.00,M,-21.3213,M,,*65
$GPGGA,090413.00,4820.96844023,N,00428.61706720,W,1,05,2.87,160.00,M,-21.3213,M,,*66
$GPGGA,090414.00,4820.96095013,N,00428.61633156,W,1,05,2.87,160.00,M,-21.3213,M,,*66
$GPGGA,090415.00,4820.95346003,N,00428.61559592,W,1,05,2.87,160.00,M,-21.3213,M,,*6B
$GPGGA,090416.00,4820.94596993,N,00428.61486029,W,1,05,2.87,160.00,M,-21.3213,M,,*64
$GPGGA,090417.00,4820.93858752,N,00428.61413524,W,1,05,2.87,160.00,M,-21.3213,M,,*6A
$GPGGA,090418.00,4820.93109742,N,00428.61339961,W,1,05,2.87,160.00,M,-21.3213,M,,*6B
$GPGGA,090419.00,4820.92360732,N,00428.61266399,W,1,05,2.87,160.00,M,-21.3213,M,,*67
$GPGGA,090420.00,4820.91611722,N,00428.61192837,W,1,05,2.87,160.00,M,-21.3213,M,,*6B
$GPGGA,090421.00,4820.90862712,N,00428.61119276,W,1,05,2.87,160.00,M,-21.3213,M,,*6E
$GPGGA,090422.00,4820.90113701,N,00428.61045715,W,1,05,2.87,160.00,M,-21.3213,M,,*68
$GPGGA,090423.00,4820.89364691,N,00428.60972154,W,1,05,2.87,160.00,M,-21.3213,M,,*64
$GPGGA,090424.00,4820.88615681,N,00428.60898594,W,1,05,2.87,160.00,M,-21.3213,M,,*6D
$GPGGA,090425.00,4820.87866671,N,00428.60825034,W,1,05,2.87,160.00,M,-21.3213,M,,*6F
$GPGGA,090426.00,4820.87128429,N,00428.60752531,W,1,05,2.87,160.00,M,-21.3213,M,,*6F
$GPGGA,090427.00,4820.86379419,N,00428.60678972,W,1,05,2.87,160.00,M,-21.3213,M,,*68
$GPGGA,090428.00,4820.85630408,N,00428.60605413,W,1,05,2.87,160.00,M,-21.3213,M,,*6C
$GPGGA,090429.00,4820.84881398,N,00428.60531854,W,1,05,2.87,160.00,M,-21.3213,M,,*6D
$GPGGA,090430.00,4820.84132388,N,00428.60458296,W,1,05,2.87,160.00,M,-21.3213,M,,*6F
$GPGGA,090431.00,4820.83383377,N,00428.60384738,W,1,05,2.87,160.00,M,-21.3213,M,,*66
$GPGGA,090432.00,4820.82634367,N,00428.60311181,W,1,05,2.87,160.00,M,-21.3213,M,,*64
$GPGGA,090433.00,4820.81885356,N,00428.60237624,W,1,05,2.87,160.00,M,-21.3213,M,,*6D
$GPGGA,090434.00,4820.81136346,N,00428.60164067,W,1,05,2.87,160.00,M,-21.3213,M,,*6E
$GPGGA,090435.00,4820.80398103,N,00428.60091568,W,1,05,2.87,160.00,M,-21.3213,M,,*6A
$GPGGA,090436.00,4820.79649093,N,00428.60018012,W,1,05,2.87,160.00,M,-21.3213,M,,*67
$GPGGA,090437.00,4820.78900082,N,00428.59944456,W,1,05,2.87,160.00,M,-21.3213,M,,*6B
$GPGGA,090438.00,4820.78151072,N,00428.59870901,W,1,05,2.87,160.00,M,-21.3213,M,,*6E
$GPGGA,090439.00,4820.77402061,N,00428.59797346,W,1,05,2.87,160.00,M,-21.3213,M,,*6E
$GPGGA,090440.00,4820.76653050,N,00428.59723791,W,1,05,2.87,160.00,M,-21.3213,M,,*64
$GPGGA,090441.00,4820.75904039,N,00428.59650237,W,1,05,2.87,160.00,M,-21.3213,M,,*68
$GPGGA,090442.00,4820.75155029,N,00428.59576683,W,1,05,2.87,160.00,M,-21.3213,M,,*6A
$GPGGA,090443.00,4820.74406018,N,00428.59503129,W,1,05,2.87,160.00,M,-21.3213,M,,*6E
$GPGGA,090444.00,4820.73667775,N,00428.59430633,W,1,05,2.87,160.00,M,-21.3213,M,,*6A
$GPGGA,090445.00,4820.72918764,N,00428.59357080,W,1,05,2.87,160.00,M,-21.3213,M,,*65
$GPGGA,090446.00,4820.72169753,N,00428.59283528,W,1,05,2.87,160.00,M,-21.3213,M,,*63
$GPGGA,090447.00,4820.71420742,N,00428.59209976,W,1,05,2.87,160.00,M,-21.3213,M,,*6C
$GPGGA,090448.00,4820.70671731,N,00428.59136424,W,1,05,2.87,160.00,M,-21.3213,M,,*65
$GPGGA,090449.00,4820.69922720,N,00428.59062872,W,1,05,2.87,160.00,M,-21.3213,M,,*6A
$GPGGA,090450.00,4820.69173709,N,00428.58989321,W,1,05,2.87,160.00,M,-21.3213,M,,*65
$GPGGA,090451.00,4820.68424698,N,00428.58915771,W,1,05,2.87,160.00,M,-21.3213,M,,*6F
$GPGGA,090452.00,4820.67675687,N,00428.58842220,W,1,05,2.87,160.00,M,-21.3213,M,,*69
$GPGGA,090453.00,4820.66937444,N,00428.58769728,W,1,05,2.87,160.00,M,-21.3213,M,,*66
$GPGGA,090454.00,4820.66188508,N,00428.58696185,W,1,05,2.87,160.00,M,-21.3213,M,,*64
$GPGGA,090455.00,4820.65439497,N,00428.58622636,W,1,05,2.87,160.00,M,-21.3213,M,,*6E
$GPGGA,090456.00,4820.64690486,N,00428.58549087,W,1,05,2.87,160.00,M,-21.3213,M,,*6F
$GPGGA,090457.00,4820.63941474,N,00428.58475538,W,1,05,2.87,160.00,M,-21.3213,M,,*68
$GPGGA,090458.00,4820.63192463,N,00428.58401990,W,1,05,2.87,160.00,M,-21.3213,M,,*6A
$GPGGA,090459.00,4820.62443452,N,00428.58328442,W,1,05,2.87,160.00,M,-21.3213,M,,*6F
$GPGGA,090500.00,4820.61694440,N,00428.58254895,W,1,05,2.87,160.00,M,-21.3213,M,,*66
$GPGGA,090501.00,4820.60945429,N,00428.58181348,W,1,05,2.87,160.00,M,-21.3213,M,,*6A
$GPGGA,090502.00,4820.60207186,N,00428.58108858,W,1,05,2.87,160.00,M,-21.3213,M,,*6F
$GPGGA,090503.00,4820.59458174,N,00428.58035312,W,1,05,2.87,160.00,M,-21.3213,M,,*6F
$GPGGA,090504.00,4820.58709163,N,00428.57961766,W,1,05,2.87,160.00,M,-21.3213,M,,*68
$GPGGA,090505.00,4820.57960151,N,00428.57888220,W,1,05,2.87,160.00,M,-21.3213,M,,*67
$GPGGA,090506.00,4820.57211139,N,00428.57814675,W,1,05,2.87,160.00,M,-21.3213,M,,*66
$GPGGA,090507.00,4820.56462128,N,00428.57741130,W,1,05,2.87,160.00,M,-21.3213,M,,*6D
$GPGGA,090508.00,4820.55713116,N,00428.57667585,W,1,05,2.87,160.00,M,-21.3213,M,,*66
$GPGGA,090509.00,4820.54964104,N,00428.57594041,W,1,05,2.87,160.00,M,-21.3213,M,,*69
$GPGGA,090510.00,4820.54215093,N,00428.57520497,W,1,05,2.87,160.00,M,-21.3213,M,,*63
$GPGGA,090511.00,4820.53476849,N,00428.57448010,W,1,05,2.87,160.00,M,-21.3213,M,,*6D
$GPGGA,090512.00,4820.52727838,N,00428.57374467,W,1,05,2.87,160.00,M,-21.3213,M,,*62
$GPGGA,090513.00,4820.51978826,N,00428.57300924,W,1,05,2.87,160.00,M,-21.3213,M,,*62
$GPGGA,090514.00,4820.51229814,N,00428.57227382,W,1,05,2.87,160.00,M,-21.3213,M,,*69
$GPGGA,090515.00,4820.50480802,N,00428.57153840,W,1,05,2.87,160.00,M,-21.3213,M,,*6E
$GPGGA,090516.00,4820.49731790,N,00428.57080298,W,1,05,2.87,160.00,M,-21.3213,M,,*68
$GPGGA,090517.00,4820.48982778,N,00428.57006756,W,1,05,2.87,160.00,M,-21.3213,M,,*61
$GPGGA,090518.00,4820.48233766,N,00428.56933215,W,1,05,2.87,160.00,M,-21.3213,M,,*6C
$GPGGA,090519.00,4820.47484754,N,00428.56859675,W,1,05,2.87,160.00,M,-21.3213,M,,*66
$GPGGA,090520.00,4820.46746511,N,00428.56787192,W,1,05,2.87,160.00,M,-21.3213,M,,*61
$GPGGA,090521.00,4820.45997498,N,00428.56713652,W,1,05,2.87,160.00,M,-21.3213,M,,*67
$GPGGA,090522.00,4820.45248486,N,00428.56640112,W,1,05,2.87,160.00,M,-21.3213,M,,*66
$GPGGA,090523.00,4820.44499474,N,00428.56566573,W,1,05,2.87,160.00,M,-21.3213,M,,*65
$GPGGA,090524.00,4820.43750462,N,00428.56493034,W,1,05,2.87,160.00,M,-21.3213,M,,*69
$GPGGA,090525.00,4820.43001450,N,00428.56419495,W,1,05,2.87,160.00,M,-21.3213,M,,*67
$GPGGA,090526.00,4820.42252438,N,00428.56345957,W,1,05,2.87,160.00,M,-21.3213,M,,*62
$GPGGA,090527.00,4820.41503425,N,00428.56272419,W,1,05,2.87,160.00,M,-21.3213,M,,*6D
$GPGGA,090528.00,4820.40754413,N,00428.56198882,W,1,05,2.87,160.00,M,-21.3213,M,,*6F
$GPGGA,090529.00,4820.40016169,N,00428.56126402,W,1,05,2.87,160.00,M,-21.3213,M,,*66
$GPGGA,090530.00,4820.39267157,N,00428.56052865,W,1,05,2.87,160.00,M,-21.3213,M,,*66
$GPGGA,090531.00,4820.38518144,N,00428.55979328,W,1,05,2.87,160.00,M,-21.3213,M,,*6A
$GPGGA,090532.00,4820.37769132,N,00428.55905792,W,1,05,2.87,160.00,M,-21.3213,M,,*6D
$GPGGA,090533.00,4820.37020119,N,00428.55832257,W,1,05,2.87,160.00,M,-21.3213,M,,*66
$GPGGA,090534.00,4820.36271107,N,00428.55758721,W,1,05,2.87,160.00,M,-21.3213,M,,*6E
$GPGGA,090535.00,4820.35522094,N,00428.55685186,W,1,05,2.87,160.00,M,-21.3213,M,,*6C
$GPGGA,090536.00,4820.34773082,N,00428.55611652,W,1,05,2.87,160.00,M,-21.3213,M,,*6C
$GPGGA,090537.00,4820.34024069,N,00428.55538117,W,1,05,2.87,160.00,M,-21.3213,M,,*63
$GPGGA,090538.00,4820.33285825,N,00428.55465641,W,1,05,2.87,160.00,M,-21.3213,M,,*6F
$GPGGA,090539.00,4820.32536812,N,00428.55392107,W,1,05,2.87,160.00,M,-21.3213,M,,*6E
$GPGGA,090540.00,4820.31787799,N,00428.55318574,W,1,05,2.87,160.00,M,-21.3213,M,,*65
$GPGGA,090541.00,4820.31038787,N,00428.55245041,W,1,05,2.87,160.00,M,-21.3213,M,,*62
$GPGGA,090542.00,4820.30289774,N,00428.55171508,W,1,05,2.87,160.00,M,-21.3213,M,,*68
$GPGGA,090543.00,4820.29540761,N,00428.55097976,W,1,05,2.87,160.00,M,-21.3213,M,,*6B
$GPGGA,090544.00,4820.28791748,N,00428.55024445,W,1,05,2.87,160.00,M,-21.3213,M,,*6D
$GPGGA,090545.00,4820.28042735,N,00428.54950913,W,1,05,2.87,160.00,M,-21.3213,M,,*6A
$GPGGA,090546.00,4820.27304491,N,00428.54878439,W,1,05,2.87,160.00,M,-21.3213,M,,*64
$GPGGA,090547.00,4820.26555478,N,00428.54804908,W,1,05,2.87,160.00,M,-21.3213,M,,*65
$GPGGA,090548.00,4820.25806465,N,00428.54731378,W,1,05,2.87,160.00,M,-21.3213,M,,*6A
$GPGGA,090549.00,4820.25057452,N,00428.54657848,W,1,05,2.87,160.00,M,-21.3213,M,,*6A
$GPGGA,090550.00,4820.24308439,N,00428.54584318,W,1,05,2.87,160.00,M,-21.3213,M,,*64
$GPGGA,090551.00,4820.23559426,N,00428.54510789,W,1,05,2.87,160.00,M,-21.3213,M,,*6F
$GPGGA,090552.00,4820.22810413,N,00428.54437260,W,1,05,2.87,160.00,M,-21.3213,M,,*6D
$GPGGA,090553.00,4820.22061400,N,00428.54363732,W,1,05,2.87,160.00,M,-21.3213,M,,*64
$GPGGA,090554.00,4820.21312386,N,00428.54290204,W,1,05,2.87,160.00,M,-21.3213,M,,*63
$GPGGA,090555.00,4820.20574142,N,00428.54217733,W,1,05,2.87,160.00,M,-21.3213,M,,*61
$GPGGA,090556.00,4820.19825128,N,00428.54144205,W,1,05,2.87,160.00,M,-21.3213,M,,*68
$GPGGA,090557.00,4820.19076115,N,00428.54070678,W,1,05,2.87,160.00,M,-21.3213,M,,*61
$GPGGA,090558.00,4820.18327102,N,00428.53997151,W,1,05,2.87,160.00,M,-21.3213,M,,*65
$GPGGA,090559.00,4820.17578088,N,00428.53923625,W,1,05,2.87,160.00,M,-21.3213,M,,*6F
$GPGGA,090600.00,4820.16829075,N,00428.53850099,W,1,05,2.87,160.00,M,-21.3213,M,,*6E
$GPGGA,090601.00,4820.16080062,N,00428.53776573,W,1,05,2.87,160.00,M,-21.3213,M,,*68
$GPGGA,090602.00,4820.15331048,N,00428.53703048,W,1,05,2.87,160.00,M,-21.3213,M,,*66
$GPGGA,090603.00,4820.14582035,N,00428.53629523,W,1,05,2.87,160.00,M,-21.3213,M,,*63
$GPGGA,090604.00,4820.13843790,N,00428.53557055,W,1,05,2.87,160.00,M,-21.3213,M,,*65
$GPGGA,090605.00,4820.13094776,N,00428.53483531,W,1,05,2.87,160.00,M,-21.3213,M,,*61
$GPGGA,090606.00,4820.12345763,N,00428.53410007,W,1,05,2.87,160.00,M,-21.3213,M,,*62
$GPGGA,090607.00,4820.11596749,N,00428.53336484,W,1,05,2.87,160.00,M,-21.3213,M,,*6C
$GPGGA,090608.00,4820.10847735,N,00428.53262960,W,1,05,2.87,160.00,M,-21.3213,M,,*6F
$GPGGA,090609.00,4820.10098722,N,00428.53189438,W,1,05,2.87,160.00,M,-21.3213,M,,*64
$GPGGA,090610.00,4820.09349708,N,00428.53115915,W,1,05,2.87,160.00,M,-21.3213,M,,*64
$GPGGA,090611.00,4820.08600694,N,00428.53042393,W,1,05,2.87,160.00,M,-21.3213,M,,*6F
$GPGGA,090612.00,4820.07851681,N,00428.52968871,W,1,05,2.87,160.00,M,-21.3213,M,,*6A
$GPGGA,090613.00,4820.07113435,N,00428.52896407,W,1,05,2.87,160.00,M,-21.3213,M,,*64
$GPGGA,090614.00,4820.06364421,N,00428.52822886,W,1,05,2.87,160.00,M,-21.3213,M,,*6F
$GPGGA,090615.00,4820.05615408,N,00428.52749365,W,1,05,2.87,160.00,M,-21.3213,M,,*61
$GPGGA,090616.00,4820.04866394,N,00428.52675845,W,1,05,2.87,160.00,M,-21.3213,M,,*6C
$GPGGA,090617.00,4820.04117380,N,00428.52602325,W,1,05,2.87,160.00,M,-21.3213,M,,*6A
$GPGGA,090618.00,4820.03368366,N,00428.52528805,W,1,05,2.87,160.00,M,-21.3213,M,,*62
$GPGGA,090619.00,4820.02619352,N,00428.52455286,W,1,05,2.87,160.00,M,-21.3213,M,,*6C
$GPGGA,090620.00,4820.01870338,N,00428.52381767,W,1,05,2.87,160.00,M,-21.3213,M,,*6C
$GPGGA,090621.00,4820.01121324,N,00428.52308248,W,1,05,2.87,160.00,M,-21.3213,M,,*64
$GPGGA,090622.00,4820.00383078,N,00428.52235787,W,1,05,2.87,160.00,M,-21.3213,M,,*6F
$GPGGA,090623.00,4819.99634064,N,00428.52162269,W,1,05,2.87,160.00,M,-21.3213,M,,*64
$GPGGA,090624.00,4819.98885050,N,00428.52088752,W,1,05,2.87,160.00,M,-21.3213,M,,*69
$GPGGA,090625.00,4819.98136036,N,00428.52015235,W,1,05,2.87,160.00,M,-21.3213,M,,*69
$GPGGA,090626.00,4819.97387021,N,00428.51941718,W,1,05,2.87,160.00,M,-21.3213,M,,*6A
$GPGGA,090627.00,4819.96638007,N,00428.51868201,W,1,05,2.87,160.00,M,-21.3213,M,,*68
$GPGGA,090628.00,4819.95888993,N,00428.51794685,W,1,05,2.87,160.00,M,-21.3213,M,,*61
$GPGGA,090629.00,4819.95139979,N,00428.51721170,W,1,05,2.87,160.00,M,-21.3213,M,,*64
$GPGGA,090630.00,4819.94390964,N,00428.51647654,W,1,05,2.87,160.00,M,-21.3213,M,,*60
$GPGGA,090631.00,4819.93652718,N,00428.51575196,W,1,05,2.87,160.00,M,-21.3213,M,,*63
$GPGGA,090632.00,4819.92903704,N,00428.51501682,W,1,05,2.87,160.00,M,-21.3213,M,,*66
$GPGGA,090633.00,4819.92154690,N,00428.51428167,W,1,05,2.87,160.00,M,-21.3213,M,,*67
$GPGGA,090634.00,4819.91405675,N,00428.51354654,W,1,05,2.87,160.00,M,-21.3213,M,,*62
$GPGGA,090635.00,4819.90656661,N,00428.51281140,W,1,05,2.87,160.00,M,-21.3213,M,,*68
$GPGGA,090636.00,4819.89907646,N,00428.51207627,W,1,05,2.87,160.00,M,-21.3213,M,,*65
$GPGGA,090637.00,4819.89158631,N,00428.51134114,W,1,05,2.87,160.00,M,-21.3213,M,,*62
$GPGGA,090638.00,4819.88409617,N,00428.51060602,W,1,05,2.87,160.00,M,-21.3213,M,,*69
$GPGGA,090639.00,4819.87660602,N,00428.50987089,W,1,05,2.87,160.00,M,-21.3213,M,,*6A
$GPGGA,090640.00,4819.86922356,N,00428.50914635,W,1,05,2.87,160.00,M,-21.3213,M,,*63
$GPGGA,090641.00,4819.86173341,N,00428.50841123,W,1,05,2.87,160.00,M,-21.3213,M,,*69
$GPGGA,090642.00,4819.85424327,N,00428.50767612,W,1,05,2.87,160.00,M,-21.3213,M,,*60
$GPGGA,090643.00,4819.84675312,N,00428.50694102,W,1,05,2.87,160.00,M,-21.3213,M,,*6B
$GPGGA,090644.00,4819.83926297,N,00428.50620592,W,1,05,2.87,160.00,M,-21.3213,M,,*6C
$GPGGA,090645.00,4819.83177282,N,00428.50547083,W,1,05,2.87,160.00,M,-21.3213,M,,*62
$GPGGA,090646.00,4819.82428269,N,00428.50473580,W,1,05,2.87,160.00,M,-21.3213,M,,*6A
$GPGGA,090647.00,4819.81679258,N,00428.50400096,W,1,05,2.87,160.00,M,-21.3213,M,,*6A
$GPGGA,090648.00,4819.80930261,N,00428.50326691,W,1,05,2.87,160.00,M,-21.3213,M,,*6E
$GPGGA,090649.00,4819.80192084,N,00428.50254646,W,1,05,2.87,160.00,M,-21.3213,M,,*68
$GPGGA,090650.00,4819.79443351,N,00428.50182798,W,1,05,2.87,160.00,M,-21.3213,M,,*6E
$GPGGA,090651.00,4819.78695467,N,00428.50115995,W,1,05,2.87,160.00,M,-21.3213,M,,*68
$GPGGA,090652.00,4819.77940119,N,00428.50069106,W,1,05,2.87,160.00,M,-21.3213,M,,*67
$GPGGA,090653.00,4819.77195256,N,00428.50106439,W,1,05,2.87,160.00,M,-21.3213,M,,*6F
$GPGGA,090654.00,4819.76460007,N,00428.50309825,W,1,05,2.87,160.00,M,-21.3213,M,,*6C
$GPGGA,090655.00,4819.75734868,N,00428.50575077,W,1,05,2.87,160.00,M,-21.3213,M,,*6F
$GPGGA,090656.00,4819.75009240,N,00428.50856523,W,1,05,2.87,160.00,M,-21.3213,M,,*6D
$GPGGA,090657.00,4819.74283470,N,00428.51142001,W,1,05,2.87,160.00,M,-21.3213,M,,*60
$GPGGA,090658.00,4819.73557662,N,00428.51428477,W,1,05,2.87,160.00,M,-21.3213,M,,*6B
$GPGGA,090659.00,4819.72831846,N,00428.51715199,W,1,05,2.87,160.00,M,-21.3213,M,,*66
$GPGGA,090700.00,4819.72106027,N,00428.52001980,W,1,05,2.87,160.00,M,-21.3213,M,,*68
$GPGGA,090701.00,4819.71380207,N,00428.52288775,W,1,05,2.87,160.00,M,-21.3213,M,,*61
$GPGGA,090702.00,4819.70654387,N,00428.52575572,W,1,05,2.87,160.00,M,-21.3213,M,,*66
$GPGGA,090703.00,4819.69928567,N,00428.52862368,W,1,05,2.87,160.00,M,-21.3213,M,,*65
$GPGGA,090704.00,4819.69202746,N,00428.53149164,W,1,05,2.87,160.00,M,-21.3213,M,,*6F
$GPGGA,090705.00,4819.68476926,N,00428.53435958,W,1,05,2.87,160.00,M,-21.3213,M,,*6B
$GPGGA,090706.00,4819.67761540,N,00428.53718628,W,1,05,2.87,160.00,M,-21.3213,M,,*6A
$GPGGA,090707.00,4819.67035719,N,00428.54005420,W,1,05,2.87,160.00,M,-21.3213,M,,*65
$GPGGA,090708.00,4819.66309898,N,00428.54292210,W,1,05,2.87,160.00,M,-21.3213,M,,*68
$GPGGA,090709.00,4819.65584077,N,00428.54578999,W,1,05,2.87,160.00,M,-21.3213,M,,*69
$GPGGA,090710.00,4819.64858256,N,00428.54865786,W,1,05,2.87,160.00,M,-21.3213,M,,*6C
$GPGGA,090711.00,4819.64132435,N,00428.55152573,W,1,05,2.87,160.00,M,-21.3213,M,,*6F
$GPGGA,090712.00,4819.63406613,N,00428.55439358,W,1,05,2.87,160.00,M,-21.3213,M,,*68
$GPGGA,090713.00,4819.62680791,N,00428.55726141,W,1,05,2.87,160.00,M,-21.3213,M,,*68
$GPGGA,090714.00,4819.61954970,N,00428.56012923,W,1,05,2.87,160.00,M,-21.3213,M,,*64
$GPGGA,090715.00,4819.61239583,N,00428.56295581,W,1,05,2.87,160.00,M,-21.3213,M,,*6C
$GPGGA,090716.00,4819.60513761,N,00428.56582360,W,1,05,2.87,160.00,M,-21.3213,M,,*67
$GPGGA,090717.00,4819.59787938,N,00428.56869139,W,1,05,2.87,160.00,M,-21.3213,M,,*67
$GPGGA,090718.00,4819.59062116,N,00428.57155915,W,1,05,2.87,160.00,M,-21.3213,M,,*61
$GPGGA,090719.00,4819.58336294,N,00428.57442691,W,1,05,2.87,160.00,M,-21.3213,M,,*6A
$GPGGA,090720.00,4819.57610471,N,00428.57729465,W,1,05,2.87,160.00,M,-21.3213,M,,*64
$GPGGA,090721.00,4819.56884648,N,00428.58016238,W,1,05,2.87,160.00,M,-21.3213,M,,*65
$GPGGA,090722.00,4819.56158825,N,00428.58303009,W,1,05,2.87,160.00,M,-21.3213,M,,*6C
$GPGGA,090723.00,4819.55433002,N,00428.58589779,W,1,05,2.87,160.00,M,-21.3213,M,,*6F
$GPGGA,090724.00,4819.54717614,N,00428.58872425,W,1,05,2.87,160.00,M,-21.3213,M,,*6E
$GPGGA,090725.00,4819.53991791,N,00428.59159192,W,1,05,2.87,160.00,M,-21.3213,M,,*6C
$GPGGA,090726.00,4819.53265967,N,00428.59445958,W,1,05,2.87,160.00,M,-21.3213,M,,*6E
$GPGGA,090727.00,4819.52540143,N,00428.59732723,W,1,05,2.87,160.00,M,-21.3213,M,,*61
$GPGGA,090728.00,4819.51814320,N,00428.60019486,W,1,05,2.87,160.00,M,-21.3213,M,,*6E
$GPGGA,090729.00,4819.51088496,N,00428.60306248,W,1,05,2.87,160.00,M,-21.3213,M,,*61
$GPGGA,090730.00,4819.50362672,N,00428.60593008,W,1,05,2.87,160.00,M,-21.3213,M,,*6B
$GPGGA,090731.00,4819.49636847,N,00428.60879767,W,1,05,2.87,160.00,M,-21.3213,M,,*69
$GPGGA,090732.00,4819.48911023,N,00428.61166525,W,1,05,2.87,160.00,M,-21.3213,M,,*69
$GPGGA,090733.00,4819.48195634,N,00428.61449159,W,1,05,2.87,160.00,M,-21.3213,M,,*6B
$GPGGA,090734.00,4819.47469809,N,00428.61735914,W,1,05,2.87,160.00,M,-21.3213,M,,*6C
$GPGGA,090735.00,4819.46743984,N,00428.62022668,W,1,05,2.87,160.00,M,-21.3213,M,,*65
$GPGGA,090736.00,4819.46018159,N,00428.62309420,W,1,05,2.87,160.00,M,-21.3213,M,,*63
$GPGGA,090737.00,4819.45292334,N,00428.62596172,W,1,05,2.87,160.00,M,-21.3213,M,,*6A
$GPGGA,090738.00,4819.44566509,N,00428.62882921,W,1,05,2.87,160.00,M,-21.3213,M,,*66
$GPGGA,090739.00,4819.43840684,N,00428.63169670,W,1,05,2.87,160.00,M,-21.3213,M,,*69
$GPGGA,090740.00,4819.43114858,N,00428.63456417,W,1,05,2.87,160.00,M,-21.3213,M,,*6A
$GPGGA,090741.00,4819.42389032,N,00428.63743162,W,1,05,2.87,160.00,M,-21.3213,M,,*68
$GPGGA,090742.00,4819.41673642,N,00428.64025784,W,1,05,2.87,160.00,M,-21.3213,M,,*67
$GPGGA,090743.00,4819.40947816,N,00428.64312527,W,1,05,2.87,160.00,M,-21.3213,M,,*6C
$GPGGA,090744.00,4819.40221990,N,00428.64599269,W,1,05,2.87,160.00,M,-21.3213,M,,*67
$GPGGA,090745.00,4819.39496164,N,00428.64886009,W,1,05,2.87,160.00,M,-21.3213,M,,*66
$GPGGA,090746.00,4819.38770337,N,00428.65172748,W,1,05,2.87,160.00,M,-21.3213,M,,*6A
$GPGGA,090747.00,4819.38044511,N,00428.65459486,W,1,05,2.87,160.00,M,-21.3213,M,,*64
$GPGGA,090748.00,4819.37318684,N,00428.65746222,W,1,05,2.87,160.00,M,-21.3213,M,,*64
$GPGGA,090749.00,4819.36592857,N,00428.66032957,W,1,05,2.87,160.00,M,-21.3213,M,,*6E
$GPGGA,090750.00,4819.35867030,N,00428.66319690,W,1,05,2.87,160.00,M,-21.3213,M,,*65
$GPGGA,090751.00,4819.35151639,N,00428.66602300,W,1,05,2.87,160.00,M,-21.3213,M,,*64
$GPGGA,090752.00,4819.34425811,N,00428.66889031,W,1,05,2.87,160.00,M,-21.3213,M,,*68
$GPGGA,090753.00,4819.33699984,N,00428.67175760,W,1,05,2.87,160.00,M,-21.3213,M,,*6E
$GPGGA,090754.00,4819.32974156,N,00428.67462489,W,1,05,2.87,160.00,M,-21.3213,M,,*64
$GPGGA,090755.00,4819.32248329,N,00428.67749215,W,1,05,2.87,160.00,M,-21.3213,M,,*62
$GPGGA,090756.00,4819.31522501,N,00428.68035941,W,1,05,2.87,160.00,M,-21.3213,M,,*6C
$GPGGA,090757.00,4819.30796673,N,00428.68322665,W,1,05,2.87,160.00,M,-21.3213,M,,*6B
$GPGGA,090758.00,4819.30070845,N,00428.68609388,W,1,05,2.87,160.00,M,-21.3213,M,,*6A
$GPGGA,090759.00,4819.29345017,N,00428.68896109,W,1,05,2.87,160.00,M,-21.3213,M,,*6A
$GPGGA,090800.00,4819.28629624,N,00428.69178707,W,1,05,2.87,160.00,M,-21.3213,M,,*61
$GPGGA,090801.00,4819.27903795,N,00428.69465425,W,1,05,2.87,160.00,M,-21.3213,M,,*69
$GPGGA,090802.00,4819.27177967,N,00428.69752143,W,1,05,2.87,160.00,M,-21.3213,M,,*60
$GPGGA,090803.00,4819.26452138,N,00428.70038859,W,1,05,2.87,160.00,M,-21.3213,M,,*61
$GPGGA,090804.00,4819.25726309,N,00428.70325573,W,1,05,2.87,160.00,M,-21.3213,M,,*6F
$GPGGA,090805.00,4819.25000480,N,00428.70612287,W,1,05,2.87,160.00,M,-21.3213,M,,*66
$GPGGA,090806.00,4819.24274651,N,00428.70898999,W,1,05,2.87,160.00,M,-21.3213,M,,*63
$GPGGA,090807.00,4819.23548821,N,00428.71185709,W,1,05,2.87,160.00,M,-21.3213,M,,*67
$GPGGA,090808.00,4819.22822992,N,00428.71472418,W,1,05,2.87,160.00,M,-21.3213,M,,*6F
$GPGGA,090809.00,4819.22107598,N,00428.71755004,W,1,05,2.87,160.00,M,-21.3213,M,,*69
$GPGGA,090810.00,4819.21381768,N,00428.72041711,W,1,05,2.87,160.00,M,-21.3213,M,,*61
$GPGGA,090811.00,4819.20655938,N,00428.72328416,W,1,05,2.87,160.00,M,-21.3213,M,,*6E
$GPGGA,090812.00,4819.19930108,N,00428.72615120,W,1,05,2.87,160.00,M,-21.3213,M,,*6B
$GPGGA,090813.00,4819.19204278,N,00428.72901822,W,1,05,2.87,160.00,M,-21.3213,M,,*63
$GPGGA,090814.00,4819.18478447,N,00428.73188523,W,1,05,2.87,160.00,M,-21.3213,M,,*66
$GPGGA,090815.00,4819.17752617,N,00428.73475223,W,1,05,2.87,160.00,M,-21.3213,M,,*64
$GPGGA,090816.00,4819.17026786,N,00428.73761921,W,1,05,2.87,160.00,M,-21.3213,M,,*65
$GPGGA,090817.00,4819.16300956,N,00428.74048618,W,1,05,2.87,160.00,M,-21.3213,M,,*6F
$GPGGA,090818.00,4819.15585560,N,00428.74331192,W,1,05,2.87,160.00,M,-21.3213,M,,*69
$GPGGA,090819.00,4819.14859729,N,00428.74617887,W,1,05,2.87,160.00,M,-21.3213,M,,*66
$GPGGA,090820.00,4819.14133898,N,00428.74904580,W,1,05,2.87,160.00,M,-21.3213,M,,*6B
$GPGGA,090821.00,4819.13408066,N,00428.75191271,W,1,05,2.87,160.00,M,-21.3213,M,,*65
$GPGGA,090822.00,4819.12682235,N,00428.75477962,W,1,05,2.87,160.00,M,-21.3213,M,,*67
$GPGGA,090823.00,4819.11956403,N,00428.75764651,W,1,05,2.87,160.00,M,-21.3213,M,,*6E
$GPGGA,090824.00,4819.11230572,N,00428.76051338,W,1,05,2.87,160.00,M,-21.3213,M,,*6D
$GPGGA,090825.00,4819.10504740,N,00428.76338024,W,1,05,2.87,160.00,M,-21.3213,M,,*6C
$GPGGA,090826.00,4819.09778908,N,00428.76624709,W,1,05,2.87,160.00,M,-21.3213,M,,*6C
$GPGGA,090827.00,4819.09063511,N,00428.76907271,W,1,05,2.87,160.00,M,-21.3213,M,,*60
$GPGGA,090828.00,4819.08337679,N,00428.77193953,W,1,05,2.87,160.00,M,-21.3213,M,,*6E
$GPGGA,090829.00,4819.07611846,N,00428.77480634,W,1,05,2.87,160.00,M,-21.3213,M,,*6A
$GPGGA,090830.00,4819.06886013,N,00428.77767314,W,1,05,2.87,160.00,M,-21.3213,M,,*66
$GPGGA,090831.00,4819.06160181,N,00428.78053992,W,1,05,2.87,160.00,M,-21.3213,M,,*67
$GPGGA,090832.00,4819.05434348,N,00428.78340669,W,1,05,2.87,160.00,M,-21.3213,M,,*6E
$GPGGA,090833.00,4819.04708515,N,00428.78627344,W,1,05,2.87,160.00,M,-21.3213,M,,*62
$GPGGA,090834.00,4819.03982682,N,00428.78914018,W,1,05,2.87,160.00,M,-21.3213,M,,*66
$GPGGA,090835.00,4819.03256848,N,00428.79200691,W,1,05,2.87,160.00,M,-21.3213,M,,*65
$GPGGA,090836.00,4819.02541450,N,00428.79483241,W,1,05,2.87,160.00,M,-21.3213,M,,*67
$GPGGA,090837.00,4819.01815617,N,00428.79769911,W,1,05,2.87,160.00,M,-21.3213,M,,*61
$GPGGA,090838.00,4819.01089783,N,00428.80056580,W,1,05,2.87,160.00,M,-21.3213,M,,*66
$GPGGA,090839.00,4819.00363949,N,00428.80343247,W,1,05,2.87,160.00,M,-21.3213,M,,*62
$GPGGA,090840.00,4818.99638115,N,00428.80629913,W,1,05,2.87,160.00,M,-21.3213,M,,*64
$GPGGA,090841.00,4818.98912281,N,00428.80916578,W,1,05,2.87,160.00,M,-21.3213,M,,*6F
$GPGGA,090842.00,4818.98186447,N,00428.81203241,W,1,05,2.87,160.00,M,-21.3213,M,,*66
$GPGGA,090843.00,4818.97460612,N,00428.81489903,W,1,05,2.87,160.00,M,-21.3213,M,,*6E
$GPGGA,090844.00,4818.96734778,N,00428.81776564,W,1,05,2.87,160.00,M,-21.3213,M,,*69
$GPGGA,090845.00,4818.96019378,N,00428.82059102,W,1,05,2.87,160.00,M,-21.3213,M,,*69
$GPGGA,090846.00,4818.95293543,N,00428.82345759,W,1,05,2.87,160.00,M,-21.3213,M,,*61
$GPGGA,090847.00,4818.94567708,N,00428.82632416,W,1,05,2.87,160.00,M,-21.3213,M,,*6D
$GPGGA,090848.00,4818.93841873,N,00428.82919071,W,1,05,2.87,160.00,M,-21.3213,M,,*6C
$GPGGA,090849.00,4818.93116038,N,00428.83205725,W,1,05,2.87,160.00,M,-21.3213,M,,*60
$GPGGA,090850.00,4818.92390203,N,00428.83492378,W,1,05,2.87,160.00,M,-21.3213,M,,*6B
$GPGGA,090851.00,4818.91664367,N,00428.83779029,W,1,05,2.87,160.00,M,-21.3213,M,,*65
$GPGGA,090852.00,4818.90938531,N,00428.84065678,W,1,05,2.87,160.00,M,-21.3213,M,,*6B
$GPGGA,090853.00,4818.90212695,N,00428.84352327,W,1,05,2.87,160.00,M,-21.3213,M,,*6C
$GPGGA,090854.00,4818.89486859,N,00428.84638974,W,1,05,2.87,160.00,M,-21.3213,M,,*63
$GPGGA,090855.00,4818.88771459,N,00428.84921499,W,1,05,2.87,160.00,M,-21.3213,M,,*6D
$GPGGA,090856.00,4818.88045622,N,00428.85208143,W,1,05,2.87,160.00,M,-21.3213,M,,*63
$GPGGA,090857.00,4818.87319786,N,00428.85494786,W,1,05,2.87,160.00,M,-21.3213,M,,*64
$GPGGA,090858.00,4818.86593950,N,00428.85781428,W,1,05,2.87,160.00,M,-21.3213,M,,*6B
$GPGGA,090859.00,4818.85868113,N,00428.86068068,W,1,05,2.87,160.00,M,-21.3213,M,,*6C
$GPGGA,090900.00,4818.85142276,N,00428.86354707,W,1,05,2.87,160.00,M,-21.3213,M,,*62
$GPGGA,090901.00,4818.84416439,N,00428.86641345,W,1,05,2.87,160.00,M,-21.3213,M,,*68
$GPGGA,090902.00,4818.83690602,N,00428.86927981,W,1,05,2.87,160.00,M,-21.3213,M,,*67
$GPGGA,090903.00,4818.82964765,N,00428.87214616,W,1,05,2.87,160.00,M,-21.3213,M,,*68
$GPGGA,090904.00,4818.82249363,N,00428.87497129,W,1,05,2.87,160.00,M,-21.3213,M,,*6F
$GPGGA,090905.00,4818.81523525,N,00428.87783761,W,1,05,2.87,160.00,M,-21.3213,M,,*6E
$GPGGA,090906.00,4818.80797687,N,00428.88070392,W,1,05,2.87,160.00,M,-21.3213,M,,*66
$GPGGA,090907.00,4818.80071850,N,00428.88357021,W,1,05,2.87,160.00,M,-21.3213,M,,*61
$GPGGA,090908.00,4818.79346012,N,00428.88643649,W,1,05,2.87,160.00,M,-21.3213,M,,*69
$GPGGA,090909.00,4818.78620174,N,00428.88930276,W,1,05,2.87,160.00,M,-21.3213,M,,*6E
$GPGGA,090910.00,4818.77894335,N,00428.89216902,W,1,05,2.87,160.00,M,-21.3213,M,,*69
$GPGGA,090911.00,4818.77168497,N,00428.89503526,W,1,05,2.87,160.00,M,-21.3213,M,,*64
$GPGGA,090912.00,4818.76442658,N,00428.89790149,W,1,05,2.87,160.00,M,-21.3213,M,,*6F
$GPGGA,090913.00,4818.75727255,N,00428.90072649,W,1,05,2.87,160.00,M,-21.3213,M,,*60
$GPGGA,090914.00,4818.75001416,N,00428.90359269,W,1,05,2.87,160.00,M,-21.3213,M,,*69
$GPGGA,090915.00,4818.74275577,N,00428.90645888,W,1,05,2.87,160.00,M,-21.3213,M,,*63
$GPGGA,090916.00,4818.73549738,N,00428.90932506,W,1,05,2.87,160.00,M,-21.3213,M,,*62
$GPGGA,090917.00,4818.72823899,N,00428.91219122,W,1,05,2.87,160.00,M,-21.3213,M,,*66
$GPGGA,090918.00,4818.72098060,N,00428.91505736,W,1,05,2.87,160.00,M,-21.3213,M,,*66
$GPGGA,090919.00,4818.71372220,N,00428.91792350,W,1,05,2.87,160.00,M,-21.3213,M,,*6D
$GPGGA,090920.00,4818.70646380,N,00428.92078962,W,1,05,2.87,160.00,M,-21.3213,M,,*64
$GPGGA,090921.00,4818.69920541,N,00428.92365572,W,1,05,2.87,160.00,M,-21.3213,M,,*6B
$GPGGA,090922.00,4818.69205136,N,00428.92648061,W,1,05,2.87,160.00,M,-21.3213,M,,*6D
$GPGGA,090923.00,4818.68479296,N,00428.92934669,W,1,05,2.87,160.00,M,-21.3213,M,,*63
$GPGGA,090924.00,4818.67753456,N,00428.93221275,W,1,05,2.87,160.00,M,-21.3213,M,,*6D
$GPGGA,090925.00,4818.67027615,N,00428.93507881,W,1,05,2.87,160.00,M,-21.3213,M,,*6F
$GPGGA,090926.00,4818.66301775,N,00428.93794485,W,1,05,2.87,160.00,M,-21.3213,M,,*6D
$GPGGA,090927.00,4818.65575934,N,00428.94081087,W,1,05,2.87,160.00,M,-21.3213,M,,*63
$GPGGA,090928.00,4818.64850094,N,00428.94367688,W,1,05,2.87,160.00,M,-21.3213,M,,*66
$GPGGA,090929.00,4818.64124253,N,00428.94654288,W,1,05,2.87,160.00,M,-21.3213,M,,*65
$GPGGA,090930.00,4818.63398412,N,00428.94940887,W,1,05,2.87,160.00,M,-21.3213,M,,*63
$GPGGA,090931.00,4818.62683006,N,00428.95223364,W,1,05,2.87,160.00,M,-21.3213,M,,*64
$GPGGA,090932.00,4818.61957165,N,00428.95509960,W,1,05,2.87,160.00,M,-21.3213,M,,*67
$GPGGA,090933.00,4818.61231327,N,00428.95796559,W,1,05,2.87,160.00,M,-21.3213,M,,*6B
$GPGGA,090934.00,4818.60505497,N,00428.96083168,W,1,05,2.87,160.00,M,-21.3213,M,,*67
$GPGGA,090935.00,4818.59779703,N,00428.96369825,W,1,05,2.87,160.00,M,-21.3213,M,,*6C
$GPGGA,090936.00,4818.59054054,N,00428.96656680,W,1,05,2.87,160.00,M,-21.3213,M,,*6A
$GPGGA,090937.00,4818.58328990,N,00428.96944341,W,1,05,2.87,160.00,M,-21.3213,M,,*67
$GPGGA,090938.00,4818.57606287,N,00428.97235254,W,1,05,2.87,160.00,M,-21.3213,M,,*6A
$GPGGA,090939.00,4818.56882766,N,00428.97543813,W,1,05,2.87,160.00,M,-21.3213,M,,*6D
$GPGGA,090940.00,4818.56176907,N,00428.97918405,W,1,05,2.87,160.00,M,-21.3213,M,,*61
$GPGGA,090941.00,4818.55556748,N,00428.98535392,W,1,05,2.87,160.00,M,-21.3213,M,,*65
$GPGGA,090942.00,4818.55044630,N,00428.99340480,W,1,05,2.87,160.00,M,-21.3213,M,,*6F
$GPGGA,090943.00,4818.54555111,N,00429.00199161,W,1,05,2.87,160.00,M,-21.3213,M,,*63
$GPGGA,090944.00,4818.54076112,N,00429.01061867,W,1,05,2.87,160.00,M,-21.3213,M,,*6B
$GPGGA,090945.00,4818.53597971,N,00429.01928590,W,1,05,2.87,160.00,M,-21.3213,M,,*6B
$GPGGA,090946.00,4818.53120042,N,00429.02796307,W,1,05,2.87,160.00,M,-21.3213,M,,*69
$GPGGA,090947.00,4818.52642165,N,00429.03664268,W,1,05,2.87,160.00,M,-21.3213,M,,*6B
$GPGGA,090948.00,4818.52164299,N,00429.04532287,W,1,05,2.87,160.00,M,-21.3213,M,,*61
$GPGGA,090949.00,4818.51686436,N,00429.05400318,W,1,05,2.87,160.00,M,-21.3213,M,,*6D
$GPGGA,090950.00,4818.51215442,N,00429.06255872,W,1,05,2.87,160.00,M,-21.3213,M,,*6A
$GPGGA,090951.00,4818.50737577,N,00429.07123903,W,1,05,2.87,160.00,M,-21.3213,M,,*6C
$GPGGA,090952.00,4818.50259711,N,00429.07991931,W,1,05,2.87,160.00,M,-21.3213,M,,*60
$GPGGA,090953.00,4818.49781844,N,00429.08859957,W,1,05,2.87,160.00,M,-21.3213,M,,*6C
$GPGGA,090954.00,4818.49303976,N,00429.09727980,W,1,05,2.87,160.00,M,-21.3213,M,,*68
$GPGGA,090955.00,4818.48826107,N,00429.10596000,W,1,05,2.87,160.00,M,-21.3213,M,,*6B
$GPGGA,090956.00,4818.48348237,N,00429.11464017,W,1,05,2.87,160.00,M,-21.3213,M,,*60
$GPGGA,090957.00,4818.47870366,N,00429.12332032,W,1,05,2.87,160.00,M,-21.3213,M,,*6B
$GPGGA,090958.00,4818.47399363,N,00429.13187566,W,1,05,2.87,160.00,M,-21.3213,M,,*64
$GPGGA,090959.00,4818.46921490,N,00429.14055576,W,1,05,2.87,160.00,M,-21.3213,M,,*6E
$GPGGA,091000.00,4818.46443615,N,00429.14923583,W,1,05,2.87,160.00,M,-21.3213,M,,*6E
$GPGGA,091001.00,4818.45965739,N,00429.15791587,W,1,05,2.87,160.00,M,-21.3213,M,,*68
$GPGGA,091002.00,4818.45487863,N,00429.16659588,W,1,05,2.87,160.00,M,-21.3213,M,,*63
$GPGGA,091003.00,4818.45009985,N,00429.17527587,W,1,05,2.87,160.00,M,-21.3213,M,,*6D
$GPGGA,091004.00,4818.44532106,N,00429.18395583,W,1,05,2.87,160.00,M,-21.3213,M,,*61
$GPGGA,091005.00,4818.44054226,N,00429.19263576,W,1,05,2.87,160.00,M,-21.3213,M,,*67
$GPGGA,091006.00,4818.43583214,N,00429.20119089,W,1,05,2.87,160.00,M,-21.3213,M,,*6C
$GPGGA,091007.00,4818.43105332,N,00429.20987077,W,1,05,2.87,160.00,M,-21.3213,M,,*6C
$GPGGA,091008.00,4818.42627449,N,00429.21855062,W,1,05,2.87,160.00,M,-21.3213,M,,*65
$GPGGA,091009.00,4818.42149564,N,00429.22723045,W,1,05,2.87,160.00,M,-21.3213,M,,*6D
$GPGGA,091010.00,4818.41671679,N,00429.23591025,W,1,05,2.87,160.00,M,-21.3213,M,,*69
$GPGGA,091011.00,4818.41193792,N,00429.24459002,W,1,05,2.87,160.00,M,-21.3213,M,,*60
$GPGGA,091012.00,4818.40715904,N,00429.25326976,W,1,05,2.87,160.00,M,-21.3213,M,,*6F
$GPGGA,091013.00,4818.40244885,N,00429.26182471,W,1,05,2.87,160.00,M,-21.3213,M,,*62
$GPGGA,091014.00,4818.39766995,N,00429.27050440,W,1,05,2.87,160.00,M,-21.3213,M,,*63
$GPGGA,091015.00,4818.39289104,N,00429.27918406,W,1,05,2.87,160.00,M,-21.3213,M,,*61
$GPGGA,091016.00,4818.38811212,N,00429.28786370,W,1,05,2.87,160.00,M,-21.3213,M,,*6C
$GPGGA,091017.00,4818.38333319,N,00429.29654331,W,1,05,2.87,160.00,M,-21.3213,M,,*66
$GPGGA,091018.00,4818.37855425,N,00429.30522290,W,1,05,2.87,160.00,M,-21.3213,M,,*65
$GPGGA,091019.00,4818.37377532,N,00429.31390246,W,1,05,2.87,160.00,M,-21.3213,M,,*6D
$GPGGA,091020.00,4818.36899645,N,00429.32258201,W,1,05,2.87,160.00,M,-21.3213,M,,*6B
$GPGGA,091021.00,4818.36428653,N,00429.33113682,W,1,05,2.87,160.00,M,-21.3213,M,,*69
$GPGGA,091022.00,4818.35950903,N,00429.33981663,W,1,05,2.87,160.00,M,-21.3213,M,,*6D
$GPGGA,091023.00,4818.35473602,N,00429.34849744,W,1,05,2.87,160.00,M,-21.3213,M,,*68
$GPGGA,091024.00,4818.34998119,N,00429.35718237,W,1,05,2.87,160.00,M,-21.3213,M,,*60
$GPGGA,091025.00,4818.34523288,N,00429.36601032,W,1,05,2.87,160.00,M,-21.3213,M,,*6B
$GPGGA,091026.00,4818.34078344,N,00429.37491654,W,1,05,2.87,160.00,M,-21.3213,M,,*6E
$GPGGA,091027.00,4818.33727788,N,00429.38481979,W,1,05,2.87,160.00,M,-21.3213,M,,*6F
$GPGGA,091028.00,4818.33563128,N,00429.39584891,W,1,05,2.87,160.00,M,-21.3213,M,,*6C
$GPGGA,091029.00,4818.33462217,N,00429.40699233,W,1,05,2.87,160.00,M,-21.3213,M,,*61
$GPGGA,091030.00,4818.33376271,N,00429.41812721,W,1,05,2.87,160.00,M,-21.3213,M,,*61
$GPGGA,091031.00,4818.33293660,N,00429.42929985,W,1,05,2.87,160.00,M,-21.3213,M,,*64
$GPGGA,091032.00,4818.33211876,N,00429.44048188,W,1,05,2.87,160.00,M,-21.3213,M,,*69
$GPGGA,091033.00,4818.33131466,N,00429.45150542,W,1,05,2.87,160.00,M,-21.3213,M,,*6F
$GPGGA,091034.00,4818.33049933,N,00429.46269033,W,1,05,2.87,160.00,M,-21.3213,M,,*62
$GPGGA,091035.00,4818.32968410,N,00429.47387538,W,1,05,2.87,160.00,M,-21.3213,M,,*6A
$GPGGA,091036.00,4818.32886889,N,00429.48506046,W,1,05,2.87,160.00,M,-21.3213,M,,*68
$GPGGA,091037.00,4818.32805368,N,00429.49624554,W,1,05,2.87,160.00,M,-21.3213,M,,*62
$GPGGA,091038.00,4818.32723847,N,00429.50743060,W,1,05,2.87,160.00,M,-21.3213,M,,*6A
$GPGGA,091039.00,4818.32642334,N,00429.51861560,W,1,05,2.87,160.00,M,-21.3213,M,,*69
$GPGGA,091040.00,4818.32560857,N,00429.52980040,W,1,05,2.87,160.00,M,-21.3213,M,,*60
$GPGGA,091041.00,4818.32479533,N,00429.54098437,W,1,05,2.87,160.00,M,-21.3213,M,,*65
$GPGGA,091042.00,4818.32399983,N,00429.55200424,W,1,05,2.87,160.00,M,-21.3213,M,,*68
$GPGGA,091043.00,4818.32321740,N,00429.56317164,W,1,05,2.87,160.00,M,-21.3213,M,,*6E
$GPGGA,091044.00,4818.32252596,N,00429.57444678,W,1,05,2.87,160.00,M,-21.3213,M,,*6F
$GPGGA,091045.00,4818.32224650,N,00429.58568599,W,1,05,2.87,160.00,M,-21.3213,M,,*6A
$GPGGA,091046.00,4818.32340762,N,00429.59667695,W,1,05,2.87,160.00,M,-21.3213,M,,*68
$GPGGA,091047.00,4818.32576155,N,00429.60743913,W,1,05,2.87,160.00,M,-21.3213,M,,*64
$GPGGA,091048.00,4818.32836560,N,00429.61792488,W,1,05,2.87,160.00,M,-21.3213,M,,*62
$GPGGA,091049.00,4818.33104782,N,00429.62842000,W,1,05,2.87,160.00,M,-21.3213,M,,*61
$GPGGA,091050.00,4818.33374950,N,00429.63891757,W,1,05,2.87,160.00,M,-21.3213,M,,*67
$GPGGA,091051.00,4818.33645599,N,00429.64941577,W,1,05,2.87,160.00,M,-21.3213,M,,*63
$GPGGA,091052.00,4818.33916367,N,00429.65991411,W,1,05,2.87,160.00,M,-21.3213,M,,*63
$GPGGA,091053.00,4818.34183279,N,00429.67026154,W,1,05,2.87,160.00,M,-21.3213,M,,*6C
$GPGGA,091054.00,4818.34454125,N,00429.68075957,W,1,05,2.87,160.00,M,-21.3213,M,,*6C
$GPGGA,091055.00,4818.34725117,N,00429.69125634,W,1,05,2.87,160.00,M,-21.3213,M,,*66
$GPGGA,091056.00,4818.34996696,N,00429.70174791,W,1,05,2.87,160.00,M,-21.3213,M,,*6F
$GPGGA,091057.00,4818.35270656,N,00429.71221852,W,1,05,2.87,160.00,M,-21.3213,M,,*62
$GPGGA,091058.00,4818.35554271,N,00429.72260605,W,1,05,2.87,160.00,M,-21.3213,M,,*67
$GPGGA,091059.00,4818.35874938,N,00429.73270224,W,1,05,2.87,160.00,M,-21.3213,M,,*68
$GPGGA,091100.00,4818.36240258,N,00429.74248990,W,1,05,2.87,160.00,M,-21.3213,M,,*6E
$GPGGA,091101.00,4818.36618972,N,00429.75219539,W,1,05,2.87,160.00,M,-21.3213,M,,*6F
$GPGGA,091102.00,4818.37001030,N,00429.76188112,W,1,05,2.87,160.00,M,-21.3213,M,,*69
$GPGGA,091103.00,4818.37383915,N,00429.77156203,W,1,05,2.87,160.00,M,-21.3213,M,,*6E
$GPGGA,091104.00,4818.37767004,N,00429.78124177,W,1,05,2.87,160.00,M,-21.3213,M,,*64
$GPGGA,091105.00,4818.38150142,N,00429.79092124,W,1,05,2.87,160.00,M,-21.3213,M,,*60
$GPGGA,091106.00,4818.38533292,N,00429.80060066,W,1,05,2.87,160.00,M,-21.3213,M,,*60
$GPGGA,091107.00,4818.38916443,N,00429.81028008,W,1,05,2.87,160.00,M,-21.3213,M,,*65
$GPGGA,091108.00,4818.39294085,N,00429.81982039,W,1,05,2.87,160.00,M,-21.3213,M,,*6F
$GPGGA,091109.00,4818.39677234,N,00429.82949986,W,1,05,2.87,160.00,M,-21.3213,M,,*66
$GPGGA,091110.00,4818.40060382,N,00429.83917935,W,1,05,2.87,160.00,M,-21.3213,M,,*6E
$GPGGA,091111.00,4818.40443529,N,00429.84885886,W,1,05,2.87,160.00,M,-21.3213,M,,*69
$GPGGA,091112.00,4818.40826673,N,00429.85853839,W,1,05,2.87,160.00,M,-21.3213,M,,*67
$GPGGA,091113.00,4818.41209815,N,00429.86821789,W,1,05,2.87,160.00,M,-21.3213,M,,*6C
$GPGGA,091114.00,4818.41592948,N,00429.87789724,W,1,05,2.87,160.00,M,-21.3213,M,,*6C
$GPGGA,091115.00,4818.41970544,N,00429.88743676,W,1,05,2.87,160.00,M,-21.3213,M,,*62
$GPGGA,091116.00,4818.42353530,N,00429.89711253,W,1,05,2.87,160.00,M,-21.3213,M,,*6F
$GPGGA,091117.00,4818.42736050,N,00429.90677656,W,1,05,2.87,160.00,M,-21.3213,M,,*62
$GPGGA,091118.00,4818.43122161,N,00429.91653136,W,1,05,2.87,160.00,M,-21.3213,M,,*6A
$GPGGA,091119.00,4818.43500454,N,00429.92608874,W,1,05,2.87,160.00,M,-21.3213,M,,*6E
$GPGGA,091120.00,4818.43886204,N,00429.93583456,W,1,05,2.87,160.00,M,-21.3213,M,,*69
$GPGGA,091121.00,4818.44184738,N,00429.94337694,W,1,05,2.87,160.00,M,-21.3213,M,,*6C
$GPGGA,091122.00,4822.57362569,N,00429.85721653,W,1,05,2.87,160.00,M,-21.3213,M,,*60
$GPGGA,091123.00,4822.57362569,N,00429.85721653,W,1,05,2.87,160.00,M,-21.3213,M,,*61
$GPGGA,091124.00,4822.57362569,N,00429.85721653,W,1,05,2.87,160.00,M,-21.3213,M,,*66
$GPGGA,091125.00,4822.57362569,N,00429.85721653,W,1,05,2.87,160.00,M,-21.3213,M,,*67
