$GPGGA,090000.00,4821.38098541,N,00430.30573026,W,1,05,2.87,160.00,M,-21.3213,M,,*61
$GPGGA,090001.00,4821.38098544,N,00430.30573258,W,1,05,2.87,160.00,M,-21.3213,M,,*6E
$GPGGA,090002.00,4821.38098550,N,00430.30573890,W,1,05,2.87,160.00,M,-21.3213,M,,*66
$GPGGA,090003.00,4821.38098563,N,00430.30575118,W,1,05,2.87,160.00,M,-21.3213,M,,*68
$GPGGA,090004.00,4821.38098498,N,00430.30568965,W,1,05,2.87,160.00,M,-21.3213,M,,*64
$GPGGA,090005.00,4821.38098530,N,00430.30571981,W,1,05,2.87,160.00,M,-21.3213,M,,*64
$GPGGA,090006.00,4821.38098487,N,00430.30567933,W,1,05,2.87,160.00,M,-21.3213,M,,*64
$GPGGA,090007.00,4821.38098368,N,00430.30556783,W,1,05,2.87,160.00,M,-21.3213,M,,*64
$GPGGA,090008.00,4821.38098354,N,00430.30555480,W,1,05,2.87,160.00,M,-21.3213,M,,*67
$GPGGA,090009.00,4821.38098266,N,00430.30547242,W,1,05,2.87,160.00,M,-21.3213,M,,*6D
$GPGGA,090010.00,4821.38098101,N,00430.30531791,W,1,05,2.87,160.00,M,-21.3213,M,,*6D
$GPGGA,090011.00,4821.38097950,N,00430.30517665,W,1,05,2.87,160.00,M,-21.3213,M,,*61
$GPGGA,090012.00,4821.38097814,N,00430.30504886,W,1,05,2.87,160.00,M,-21.3213,M,,*62
$GPGGA,090013.00,4821.38097590,N,00430.30483902,W,1,05,2.87,160.00,M,-21.3213,M,,*61
$GPGGA,090014.00,4821.38097481,N,00430.30473674,W,1,05,2.87,160.00,M,-21.3213,M,,*66
$GPGGA,090015.00,4821.38097173,N,00430.30444753,W,1,05,2.87,160.00,M,-21.3213,M,,*6F
$GPGGA,090016.00,4821.38096980,N,00430.30426670,W,1,05,2.87,160.00,M,-21.3213,M,,*6D
$GPGGA,090017.00,4821.38096685,N,00430.30399025,W,1,05,2.87,160.00,M,-21.3213,M,,*63
$GPGGA,090018.00,4821.38096396,N,00430.30371969,W,1,05,2.87,160.00,M,-21.3213,M,,*6C
$GPGGA,090019.00,4821.38096115,N,00430.30345571,W,1,05,2.87,160.00,M,-21.3213,M,,*66
$GPGGA,090020.00,4821.38095841,N,00430.30319896,W,1,05,2.87,160.00,M,-21.3213,M,,*6A
$GPGGA,090021.00,4821.38095451,N,00430.30283335,W,1,05,2.87,160.00,M,-21.3213,M,,*66
$GPGGA,090022.00,4821.38095064,N,00430.30247133,W,1,05,2.87,160.00,M,-21.3213,M,,*6B
$GPGGA,090023.00,4821.38094683,N,00430.30211383,W,1,05,2.87,160.00,M,-21.3213,M,,*6E
$GPGGA,090024.00,4821.38094307,N,00430.30176176,W,1,05,2.87,160.00,M,-21.3213,M,,*6A
$GPGGA,090025.00,4821.38093803,N,00430.30128921,W,1,05,2.87,160.00,M,-21.3213,M,,*62
$GPGGA,090026.00,4821.38093302,N,00430.30081929,W,1,05,2.87,160.00,M,-21.3213,M,,*61
$GPGGA,090027.00,4821.38092945,N,00430.30048452,W,1,05,2.87,160.00,M,-21.3213,M,,*6C
$GPGGA,090028.00,4821.38092455,N,00430.30002534,W,1,05,2.87,160.00,M,-21.3213,M,,*60
$GPGGA,090029.00,4821.38091827,N,00430.29943656,W,1,05,2.87,160.00,M,-21.3213,M,,*68
$GPGGA,090030.00,4821.38091348,N,00430.29898805,W,1,05,2.87,160.00,M,-21.3213,M,,*6D
$GPGGA,090031.00,4821.38090730,N,00430.29840820,W,1,05,2.87,160.00,M,-21.3213,M,,*64
$GPGGA,090032.00,4821.38090117,N,00430.29783359,W,1,05,2.87,160.00,M,-21.3213,M,,*61
$GPGGA,090033.00,4821.38089510,N,00430.29726535,W,1,05,2.87,160.00,M,-21.3213,M,,*68
$GPGGA,090034.00,4821.38088912,N,00430.29670452,W,1,05,2.87,160.00,M,-21.3213,M,,*62
$GPGGA,090035.00,4821.38088323,N,00430.29615206,W,1,05,2.87,160.00,M,-21.3213,M,,*6F
$GPGGA,090036.00,4821.38087587,N,00430.29546208,W,1,05,2.87,160.00,M,-21.3213,M,,*60
$GPGGA,090037.00,4821.38087017,N,00430.29492779,W,1,05,2.87,160.00,M,-21.3213,M,,*66
$GPGGA,090038.00,4821.38086299,N,00430.29425527,W,1,05,2.87,160.00,M,-21.3213,M,,*69
$GPGGA,090039.00,4821.38085592,N,00430.29359227,W,1,05,2.87,160.00,M,-21.3213,M,,*6C
$GPGGA,090040.00,4821.38084734,N,00430.29278832,W,1,05,2.87,160.00,M,-21.3213,M,,*61
$GPGGA,090041.00,4821.38084047,N,00430.29214461,W,1,05,2.87,160.00,M,-21.3213,M,,*63
$GPGGA,090042.00,4821.38083211,N,00430.29136117,W,1,05,2.87,160.00,M,-21.3213,M,,*61
$GPGGA,090043.00,4821.38082387,N,00430.29058889,W,1,05,2.87,160.00,M,-21.3213,M,,*68
$GPGGA,090044.00,4821.38081576,N,00430.28982859,W,1,05,2.87,160.00,M,-21.3213,M,,*66
$GPGGA,090045.00,4821.38080612,N,00430.28892549,W,1,05,2.87,160.00,M,-21.3213,M,,*6B
$GPGGA,090046.00,4821.38079828,N,00430.28819074,W,1,05,2.87,160.00,M,-21.3213,M,,*61
$GPGGA,090047.00,4821.38078892,N,00430.28731333,W,1,05,2.87,160.00,M,-21.3213,M,,*65
$GPGGA,090048.00,4821.38077970,N,00430.28644952,W,1,05,2.87,160.00,M,-21.3213,M,,*66
$GPGGA,090049.00,4821.38077064,N,00430.28559998,W,1,05,2.87,160.00,M,-21.3213,M,,*62
$GPGGA,090050.00,4821.38076004,N,00430.28460705,W,1,05,2.87,160.00,M,-21.3213,M,,*6C
$GPGGA,090051.00,4821.38075130,N,00430.28378734,W,1,05,2.87,160.00,M,-21.3213,M,,*64
$GPGGA,090052.00,4821.38074102,N,00430.28282452,W,1,05,2.87,160.00,M,-21.3213,M,,*60
$GPGGA,090053.00,4821.38073092,N,00430.28187736,W,1,05,2.87,160.00,M,-21.3213,M,,*69
$GPGGA,090054.00,4821.38072098,N,00430.28094634,W,1,05,2.87,160.00,M,-21.3213,M,,*65
$GPGGA,090055.00,4821.38070952,N,00430.27987198,W,1,05,2.87,160.00,M,-21.3213,M,,*6C
$GPGGA,090056.00,4821.38069823,N,00430.27881408,W,1,05,2.87,160.00,M,-21.3213,M,,*6B
$GPGGA,090057.00,4821.38068712,N,00430.27777306,W,1,05,2.87,160.00,M,-21.3213,M,,*69
$GPGGA,090058.00,4821.38067619,N,00430.27674928,W,1,05,2.87,160.00,M,-21.3213,M,,*67
$GPGGA,090059.00,4821.38066374,N,00430.27558233,W,1,05,2.87,160.00,M,-21.3213,M,,*65
$GPGGA,090100.00,4821.38065319,N,00430.27459381,W,1,05,2.87,160.00,M,-21.3213,M,,*68
$GPGGA,090101.00,4821.38064111,N,00430.27346238,W,1,05,2.87,160.00,M,-21.3213,M,,*68
$GPGGA,090102.00,4821.38062923,N,00430.27234905,W,1,05,2.87,160.00,M,-21.3213,M,,*65
$GPGGA,090103.00,4821.38061582,N,00430.27109281,W,1,05,2.87,160.00,M,-21.3213,M,,*6A
$GPGGA,090104.00,4821.38060433,N,00430.27001624,W,1,05,2.87,160.00,M,-21.3213,M,,*65
$GPGGA,090105.00,4821.38059132,N,00430.26879697,W,1,05,2.87,160.00,M,-21.3213,M,,*64
$GPGGA,090106.00,4821.38057851,N,00430.26759643,W,1,05,2.87,160.00,M,-21.3213,M,,*61
$GPGGA,090107.00,4821.38056417,N,00430.26625324,W,1,05,2.87,160.00,M,-21.3213,M,,*61
$GPGGA,090108.00,4821.38055176,N,00430.26509055,W,1,05,2.87,160.00,M,-21.3213,M,,*67
$GPGGA,090109.00,4821.38053783,N,00430.26378537,W,1,05,2.87,160.00,M,-21.3213,M,,*6D
$GPGGA,090110.00,4821.38052410,N,00430.26249935,W,1,05,2.87,160.00,M,-21.3213,M,,*60
$GPGGA,090111.00,4821.38050886,N,00430.26107089,W,1,05,2.87,160.00,M,-21.3213,M,,*67
$GPGGA,090112.00,4821.38049554,N,00430.25982346,W,1,05,2.87,160.00,M,-21.3213,M,,*68
$GPGGA,090113.00,4821.38048071,N,00430.25843370,W,1,05,2.87,160.00,M,-21.3213,M,,*63
$GPGGA,090114.00,4821.38046608,N,00430.25706339,W,1,05,2.87,160.00,M,-21.3213,M,,*61
$GPGGA,090115.00,4821.38045166,N,00430.25571260,W,1,05,2.87,160.00,M,-21.3213,M,,*63
$GPGGA,090116.00,4821.38043572,N,00430.25421956,W,1,05,2.87,160.00,M,-21.3213,M,,*6D
$GPGGA,090117.00,4821.38041999,N,00430.25274610,W,1,05,2.87,160.00,M,-21.3213,M,,*6C
$GPGGA,090118.00,4821.38040447,N,00430.25129227,W,1,05,2.87,160.00,M,-21.3213,M,,*67
$GPGGA,090119.00,4821.38038916,N,00430.24985811,W,1,05,2.87,160.00,M,-21.3213,M,,*60
$GPGGA,090120.00,4821.38037233,N,00430.24828179,W,1,05,2.87,160.00,M,-21.3213,M,,*68
$GPGGA,090121.00,4821.38035744,N,00430.24688704,W,1,05,2.87,160.00,M,-21.3213,M,,*66
$GPGGA,090122.00,4821.38034103,N,00430.24535017,W,1,05,2.87,160.00,M,-21.3213,M,,*61
$GPGGA,090123.00,4821.38032311,N,00430.24367117,W,1,05,2.87,160.00,M,-21.3213,M,,*67
$GPGGA,090124.00,4821.38030712,N,00430.24217382,W,1,05,2.87,160.00,M,-21.3213,M,,*6D
$GPGGA,090125.00,4821.38028962,N,00430.24053437,W,1,05,2.87,160.00,M,-21.3213,M,,*67
$GPGGA,090126.00,4821.38027232,N,00430.23891471,W,1,05,2.87,160.00,M,-21.3213,M,,*66
$GPGGA,090127.00,4821.38025524,N,00430.23731486,W,1,05,2.87,160.00,M,-21.3213,M,,*68
$GPGGA,090128.00,4821.38023664,N,00430.23557292,W,1,05,2.87,160.00,M,-21.3213,M,,*67
$GPGGA,090129.00,4821.38021998,N,00430.23401270,W,1,05,2.87,160.00,M,-21.3213,M,,*66
$GPGGA,090130.00,4821.38020180,N,00430.23231040,W,1,05,2.87,160.00,M,-21.3213,M,,*6A
$GPGGA,090131.00,4821.38018384,N,00430.23062794,W,1,05,2.87,160.00,M,-21.3213,M,,*6C
$GPGGA,090132.00,4821.38016435,N,00430.22880341,W,1,05,2.87,160.00,M,-21.3213,M,,*65
$GPGGA,090133.00,4821.38014508,N,00430.22699872,W,1,05,2.87,160.00,M,-21.3213,M,,*64
$GPGGA,090134.00,4821.38012602,N,00430.22521386,W,1,05,2.87,160.00,M,-21.3213,M,,*6C
$GPGGA,090135.00,4821.38010717,N,00430.22344885,W,1,05,2.87,160.00,M,-21.3213,M,,*67
$GPGGA,090136.00,4821.38008853,N,00430.22170368,W,1,05,2.87,160.00,M,-21.3213,M,,*6F
$GPGGA,090137.00,4821.38006838,N,00430.21981646,W,1,05,2.87,160.00,M,-21.3213,M,,*61
$GPGGA,090138.00,4821.38004844,N,00430.21794908,W,1,05,2.87,160.00,M,-21.3213,M,,*68
$GPGGA,090139.00,4821.38002870,N,00430.21610155,W,1,05,2.87,160.00,M,-21.3213,M,,*65
$GPGGA,090140.00,4821.38000918,N,00430.21427387,W,1,05,2.87,160.00,M,-21.3213,M,,*6D
$GPGGA,090141.00,4821.37998814,N,00430.21230414,W,1,05,2.87,160.00,M,-21.3213,M,,*6B
$GPGGA,090142.00,4821.37996732,N,00430.21035426,W,1,05,2.87,160.00,M,-21.3213,M,,*6B
$GPGGA,090143.00,4821.37994670,N,00430.20842423,W,1,05,2.87,160.00,M,-21.3213,M,,*63
$GPGGA,090144.00,4821.37992457,N,00430.20635215,W,1,05,2.87,160.00,M,-21.3213,M,,*68
$GPGGA,090145.00,4821.37990437,N,00430.20446182,W,1,05,2.87,160.00,M,-21.3213,M,,*66
$GPGGA,090146.00,4821.37988266,N,00430.20242945,W,1,05,2.87,160.00,M,-21.3213,M,,*6F
$GPGGA,090147.00,4821.37986116,N,00430.20041692,W,1,05,2.87,160.00,M,-21.3213,M,,*60
$GPGGA,090148.00,4821.37983815,N,00430.19826235,W,1,05,2.87,160.00,M,-21.3213,M,,*6A
$GPGGA,090149.00,4821.37981707,N,00430.19628953,W,1,05,2.87,160.00,M,-21.3213,M,,*6E
$GPGGA,090150.00,4821.37979448,N,00430.19417466,W,1,05,2.87,160.00,M,-21.3213,M,,*6C
$GPGGA,090151.00,4821.37977209,N,00430.19207964,W,1,05,2.87,160.00,M,-21.3213,M,,*68
$GPGGA,090152.00,4821.37974819,N,00430.18984258,W,1,05,2.87,160.00,M,-21.3213,M,,*66
$GPGGA,090153.00,4821.37972623,N,00430.18778726,W,1,05,2.87,160.00,M,-21.3213,M,,*67
$GPGGA,090154.00,4821.37970280,N,00430.18559427,W,1,05,2.87,160.00,M,-21.3213,M,,*6C
$GPGGA,090155.00,4821.37967953,N,00430.18341680,W,1,05,2.87,160.00,M,-21.3213,M,,*6E
$GPGGA,090156.00,4821.37965475,N,00430.18109729,W,1,05,2.87,160.00,M,-21.3213,M,,*6A
$GPGGA,090157.00,4821.37963190,N,00430.17895952,W,1,05,2.87,160.00,M,-21.3213,M,,*62
$GPGGA,090158.00,4821.37960754,N,00430.17667971,W,1,05,2.87,160.00,M,-21.3213,M,,*62
$GPGGA,090159.00,4821.37958339,N,00430.17441975,W,1,05,2.87,160.00,M,-21.3213,M,,*65
$GPGGA,090200.00,4821.37955945,N,00430.17217965,W,1,05,2.87,160.00,M,-21.3213,M,,*62
$GPGGA,090201.00,4821.37953399,N,00430.16979749,W,1,05,2.87,160.00,M,-21.3213,M,,*6C
$GPGGA,090202.00,4821.37950874,N,00430.16743519,W,1,05,2.87,160.00,M,-21.3213,M,,*64
$GPGGA,090203.00,4821.37948371,N,00430.16509274,W,1,05,2.87,160.00,M,-21.3213,M,,*62
$GPGGA,090204.00,4821.37945888,N,00430.16277015,W,1,05,2.87,160.00,M,-21.3213,M,,*6E
$GPGGA,090205.00,4821.37943254,N,00430.16030550,W,1,05,2.87,160.00,M,-21.3213,M,,*67
$GPGGA,090206.00,4821.37940641,N,00430.15786071,W,1,05,2.87,160.00,M,-21.3213,M,,*68
$GPGGA,090207.00,4821.37938049,N,00430.15543577,W,1,05,2.87,160.00,M,-21.3213,M,,*60
$GPGGA,090208.00,4821.37935478,N,00430.15303069,W,1,05,2.87,160.00,M,-21.3213,M,,*6C
$GPGGA,090209.00,4821.37932928,N,00430.15064545,W,1,05,2.87,160.00,M,-21.3213,M,,*6B
$GPGGA,090210.00,4821.37930226,N,00430.14811817,W,1,05,2.87,160.00,M,-21.3213,M,,*65
$GPGGA,090211.00,4821.37927546,N,00430.14561074,W,1,05,2.87,160.00,M,-21.3213,M,,*64
$GPGGA,090212.00,4821.37924713,N,00430.14296126,W,1,05,2.87,160.00,M,-21.3213,M,,*6F
$GPGGA,090213.00,4821.37922075,N,00430.14049354,W,1,05,2.87,160.00,M,-21.3213,M,,*68
$GPGGA,090214.00,4821.37919285,N,00430.13788377,W,1,05,2.87,160.00,M,-21.3213,M,,*66
$GPGGA,090215.00,4821.37916515,N,00430.13529385,W,1,05,2.87,160.00,M,-21.3213,M,,*62
$GPGGA,090216.00,4821.37913767,N,00430.13272378,W,1,05,2.87,160.00,M,-21.3213,M,,*68
$GPGGA,090217.00,4821.37910867,N,00430.13001167,W,1,05,2.87,160.00,M,-21.3213,M,,*6F
$GPGGA,090218.00,4821.37908161,N,00430.12748131,W,1,05,2.87,160.00,M,-21.3213,M,,*6E
$GPGGA,090219.00,4821.37905304,N,00430.12480890,W,1,05,2.87,160.00,M,-21.3213,M,,*66
$GPGGA,090220.00,4821.37902294,N,00430.12199444,W,1,05,2.87,160.00,M,-21.3213,M,,*6B
$GPGGA,090221.00,4821.37899478,N,00430.11936174,W,1,05,2.87,160.00,M,-21.3213,M,,*65
$GPGGA,090222.00,4821.37896511,N,00430.11658698,W,1,05,2.87,160.00,M,-21.3213,M,,*65
$GPGGA,090223.00,4821.37893564,N,00430.11383208,W,1,05,2.87,160.00,M,-21.3213,M,,*6D
$GPGGA,090224.00,4821.37890639,N,00430.11109704,W,1,05,2.87,160.00,M,-21.3213,M,,*6B
$GPGGA,090225.00,4821.37887735,N,00430.10838184,W,1,05,2.87,160.00,M,-21.3213,M,,*65
$GPGGA,090226.00,4821.37884679,N,00430.10552460,W,1,05,2.87,160.00,M,-21.3213,M,,*62
$GPGGA,090227.00,4821.37881644,N,00430.10268721,W,1,05,2.87,160.00,M,-21.3213,M,,*60
$GPGGA,090228.00,4821.37878630,N,00430.09986967,W,1,05,2.87,160.00,M,-21.3213,M,,*65
$GPGGA,090229.00,4821.37875463,N,00430.09691009,W,1,05,2.87,160.00,M,-21.3213,M,,*65
$GPGGA,090230.00,4821.37872492,N,00430.09413226,W,1,05,2.87,160.00,M,-21.3213,M,,*63
$GPGGA,090231.00,4821.37869368,N,00430.09121238,W,1,05,2.87,160.00,M,-21.3213,M,,*61
$GPGGA,090232.00,4821.37866265,N,00430.08831235,W,1,05,2.87,160.00,M,-21.3213,M,,*65
$GPGGA,090233.00,4821.37863010,N,00430.08527028,W,1,05,2.87,160.00,M,-21.3213,M,,*65
$GPGGA,090234.00,4821.37859777,N,00430.08224805,W,1,05,2.87,160.00,M,-21.3213,M,,*6E
$GPGGA,090235.00,4821.37856737,N,00430.07940758,W,1,05,2.87,160.00,M,-21.3213,M,,*65
$GPGGA,090236.00,4821.37853373,N,00430.07626317,W,1,05,2.87,160.00,M,-21.3213,M,,*67
$GPGGA,090237.00,4821.37850202,N,00430.07330050,W,1,05,2.87,160.00,M,-21.3213,M,,*60
$GPGGA,090238.00,4821.37846880,N,00430.07019579,W,1,05,2.87,160.00,M,-21.3213,M,,*6E
$GPGGA,090239.00,4821.37843578,N,00430.06711093,W,1,05,2.87,160.00,M,-21.3213,M,,*6F
$GPGGA,090240.00,4821.37840298,N,00430.06404592,W,1,05,2.87,160.00,M,-21.3213,M,,*68
$GPGGA,090241.00,4821.37837039,N,00430.06100077,W,1,05,2.87,160.00,M,-21.3213,M,,*6F
$GPGGA,090242.00,4821.37833627,N,00430.05781357,W,1,05,2.87,160.00,M,-21.3213,M,,*6C
$GPGGA,090243.00,4821.37830237,N,00430.05464622,W,1,05,2.87,160.00,M,-21.3213,M,,*64
$GPGGA,090244.00,4821.37826868,N,00430.05149872,W,1,05,2.87,160.00,M,-21.3213,M,,*65
$GPGGA,090245.00,4821.37823520,N,00430.04837108,W,1,05,2.87,160.00,M,-21.3213,M,,*65
$GPGGA,090246.00,4821.37820020,N,00430.04510138,W,1,05,2.87,160.00,M,-21.3213,M,,*6B
$GPGGA,090247.00,4821.37816714,N,00430.04201344,W,1,05,2.87,160.00,M,-21.3213,M,,*61
$GPGGA,090248.00,4821.37813082,N,00430.03862154,W,1,05,2.87,160.00,M,-21.3213,M,,*68
$GPGGA,090249.00,4821.37809645,N,00430.03541067,W,1,05,2.87,160.00,M,-21.3213,M,,*62
$GPGGA,090250.00,4821.37806225,N,00430.03221709,W,1,05,2.87,160.00,M,-21.3213,M,,*69
$GPGGA,090251.00,4821.37802649,N,00430.02887693,W,1,05,2.87,160.00,M,-21.3213,M,,*67
$GPGGA,090252.00,4821.37799086,N,00430.02555010,W,1,05,2.87,160.00,M,-21.3213,M,,*63
$GPGGA,090253.00,4821.37795536,N,00430.02223460,W,1,05,2.87,160.00,M,-21.3213,M,,*65
$GPGGA,090254.00,4821.37791996,N,00430.01892847,W,1,05,2.87,160.00,M,-21.3213,M,,*6A
$GPGGA,090255.00,4821.37788289,N,00430.01546780,W,1,05,2.87,160.00,M,-21.3213,M,,*66
$GPGGA,090256.00,4821.37784762,N,00430.01217442,W,1,05,2.87,160.00,M,-21.3213,M,,*67
$GPGGA,090257.00,4821.37781238,N,00430.00888444,W,1,05,2.87,160.00,M,-21.3213,M,,*62
$GPGGA,090258.00,4821.37777543,N,00430.00543398,W,1,05,2.87,160.00,M,-21.3213,M,,*63
$GPGGA,090259.00,4821.37774020,N,00430.00214485,W,1,05,2.87,160.00,M,-21.3213,M,,*6F
$GPGGA,090300.00,4821.37770494,N,00429.99885316,W,1,05,2.87,160.00,M,-21.3213,M,,*6A
$GPGGA,090301.00,4821.37766789,N,00429.99539503,W,1,05,2.87,160.00,M,-21.3213,M,,*6B
$GPGGA,090302.00,4821.37763251,N,00429.99209228,W,1,05,2.87,160.00,M,-21.3213,M,,*67
$GPGGA,090303.00,4821.37759703,N,00429.98878102,W,1,05,2.87,160.00,M,-21.3213,M,,*6B
$GPGGA,090304.00,4821.37756145,N,00429.98545926,W,1,05,2.87,160.00,M,-21.3213,M,,*6A
$GPGGA,090305.00,4821.37752572,N,00429.98212502,W,1,05,2.87,160.00,M,-21.3213,M,,*60
$GPGGA,090306.00,4821.37749158,N,00429.97893821,W,1,05,2.87,160.00,M,-21.3213,M,,*65
$GPGGA,090307.00,4821.37745552,N,00429.97557305,W,1,05,2.87,160.00,M,-21.3213,M,,*6E
$GPGGA,090308.00,4821.37742099,N,00429.97235135,W,1,05,2.87,160.00,M,-21.3213,M,,*66
$GPGGA,090309.00,4821.37738626,N,00429.96910989,W,1,05,2.87,160.00,M,-21.3213,M,,*6A
$GPGGA,090310.00,4821.37735131,N,00429.96584858,W,1,05,2.87,160.00,M,-21.3213,M,,*62
$GPGGA,090311.00,4821.37731788,N,00429.96272931,W,1,05,2.87,160.00,M,-21.3213,M,,*63
$GPGGA,090312.00,4821.37728423,N,00429.95959019,W,1,05,2.87,160.00,M,-21.3213,M,,*68
$GPGGA,090313.00,4821.37725038,N,00429.95643122,W,1,05,2.87,160.00,M,-21.3213,M,,*67
$GPGGA,090314.00,4821.37721630,N,00429.95325240,W,1,05,2.87,160.00,M,-21.3213,M,,*68
$GPGGA,090315.00,4821.37718375,N,00429.95021563,W,1,05,2.87,160.00,M,-21.3213,M,,*66
$GPGGA,090316.00,4821.37714925,N,00429.94699710,W,1,05,2.87,160.00,M,-21.3213,M,,*64
$GPGGA,090317.00,4821.37711627,N,00429.94392062,W,1,05,2.87,160.00,M,-21.3213,M,,*61
$GPGGA,090318.00,4821.37708482,N,00429.94098619,W,1,05,2.87,160.00,M,-21.3213,M,,*68
$GPGGA,090319.00,4821.37705141,N,00429.93787001,W,1,05,2.87,160.00,M,-21.3213,M,,*6F
$GPGGA,090320.00,4821.37701952,N,00429.93489587,W,1,05,2.87,160.00,M,-21.3213,M,,*6D
$GPGGA,090321.00,4821.37698742,N,00429.93190188,W,1,05,2.87,160.00,M,-21.3213,M,,*64
$GPGGA,090322.00,4821.37695511,N,00429.92888804,W,1,05,2.87,160.00,M,-21.3213,M,,*62
$GPGGA,090323.00,4821.37692258,N,00429.92585435,W,1,05,2.87,160.00,M,-21.3213,M,,*60
$GPGGA,090324.00,4821.37689157,N,00429.92296270,W,1,05,2.87,160.00,M,-21.3213,M,,*63
$GPGGA,090325.00,4821.37686035,N,00429.92005120,W,1,05,2.87,160.00,M,-21.3213,M,,*66
$GPGGA,090326.00,4821.37682892,N,00429.91711985,W,1,05,2.87,160.00,M,-21.3213,M,,*62
$GPGGA,090327.00,4821.37679900,N,00429.91433055,W,1,05,2.87,160.00,M,-21.3213,M,,*6A
$GPGGA,090328.00,4821.37676888,N,00429.91152139,W,1,05,2.87,160.00,M,-21.3213,M,,*62
$GPGGA,090329.00,4821.37673680,N,00429.90853049,W,1,05,2.87,160.00,M,-21.3213,M,,*6F
$GPGGA,090330.00,4821.37670798,N,00429.90584353,W,1,05,2.87,160.00,M,-21.3213,M,,*63
$GPGGA,090331.00,4821.37667721,N,00429.90297481,W,1,05,2.87,160.00,M,-21.3213,M,,*6B
$GPGGA,090332.00,4821.37664796,N,00429.90024815,W,1,05,2.87,160.00,M,-21.3213,M,,*6C
$GPGGA,090333.00,4821.37661850,N,00429.89750163,W,1,05,2.87,160.00,M,-21.3213,M,,*69
$GPGGA,090334.00,4821.37658883,N,00429.89473526,W,1,05,2.87,160.00,M,-21.3213,M,,*6D
$GPGGA,090335.00,4821.37655894,N,00429.89194904,W,1,05,2.87,160.00,M,-21.3213,M,,*67
$GPGGA,090336.00,4821.37653057,N,00429.88930486,W,1,05,2.87,160.00,M,-21.3213,M,,*65
$GPGGA,090337.00,4821.37650199,N,00429.88664084,W,1,05,2.87,160.00,M,-21.3213,M,,*6C
$GPGGA,090338.00,4821.37647320,N,00429.88395696,W,1,05,2.87,160.00,M,-21.3213,M,,*6B
$GPGGA,090339.00,4821.37644419,N,00429.88125322,W,1,05,2.87,160.00,M,-21.3213,M,,*67
$GPGGA,090340.00,4821.37641670,N,00429.87869154,W,1,05,2.87,160.00,M,-21.3213,M,,*6C
$GPGGA,090341.00,4821.37638901,N,00429.87611000,W,1,05,2.87,160.00,M,-21.3213,M,,*6B
$GPGGA,090342.00,4821.37636109,N,00429.87350861,W,1,05,2.87,160.00,M,-21.3213,M,,*69
$GPGGA,090343.00,4821.37633297,N,00429.87088737,W,1,05,2.87,160.00,M,-21.3213,M,,*63
$GPGGA,090344.00,4821.37630636,N,00429.86840818,W,1,05,2.87,160.00,M,-21.3213,M,,*67
$GPGGA,090345.00,4821.37627954,N,00429.86590913,W,1,05,2.87,160.00,M,-21.3213,M,,*61
$GPGGA,090346.00,4821.37625251,N,00429.86339023,W,1,05,2.87,160.00,M,-21.3213,M,,*61
$GPGGA,090347.00,4821.37622527,N,00429.86085148,W,1,05,2.87,160.00,M,-21.3213,M,,*69
$GPGGA,090348.00,4821.37619954,N,00429.85845478,W,1,05,2.87,160.00,M,-21.3213,M,,*67
$GPGGA,090349.00,4821.37617361,N,00429.85603822,W,1,05,2.87,160.00,M,-21.3213,M,,*6B
$GPGGA,090350.00,4821.37614746,N,00429.85360181,W,1,05,2.87,160.00,M,-21.3213,M,,*61
$GPGGA,090351.00,4821.37612109,N,00429.85114555,W,1,05,2.87,160.00,M,-21.3213,M,,*67
$GPGGA,090352.00,4821.37609625,N,00429.84883134,W,1,05,2.87,160.00,M,-21.3213,M,,*62
$GPGGA,090353.00,4821.37607120,N,00429.84649727,W,1,05,2.87,160.00,M,-21.3213,M,,*63
$GPGGA,090354.00,4821.37604593,N,00429.84414335,W,1,05,2.87,160.00,M,-21.3213,M,,*66
$GPGGA,090355.00,4821.37602045,N,00429.84176958,W,1,05,2.87,160.00,M,-21.3213,M,,*6F
$GPGGA,090356.00,4821.37599649,N,00429.83953786,W,1,05,2.87,160.00,M,-21.3213,M,,*62
$GPGGA,090357.00,4821.37597232,N,00429.83728628,W,1,05,2.87,160.00,M,-21.3213,M,,*62
$GPGGA,090358.00,4821.37594794,N,00429.83501486,W,1,05,2.87,160.00,M,-21.3213,M,,*68
$GPGGA,090359.00,4821.37592334,N,00429.83272358,W,1,05,2.87,160.00,M,-21.3213,M,,*66
$GPGGA,090400.00,4821.37589852,N,00429.83041244,W,1,05,2.87,160.00,M,-21.3213,M,,*62
$GPGGA,090401.00,4821.37587523,N,00429.82824336,W,1,05,2.87,160.00,M,-21.3213,M,,*68
$GPGGA,090402.00,4821.37585173,N,00429.82605442,W,1,05,2.87,160.00,M,-21.3213,M,,*61
$GPGGA,090403.00,4821.37582975,N,00429.82400753,W,1,05,2.87,160.00,M,-21.3213,M,,*6D
$GPGGA,090404.00,4821.37580582,N,00429.82177889,W,1,05,2.87,160.00,M,-21.3213,M,,*61
$GPGGA,090405.00,4821.37578342,N,00429.81969230,W,1,05,2.87,160.00,M,-21.3213,M,,*61
$GPGGA,090406.00,4821.37576080,N,00429.81758585,W,1,05,2.87,160.00,M,-21.3213,M,,*64
$GPGGA,090407.00,4821.37573796,N,00429.81545955,W,1,05,2.87,160.00,M,-21.3213,M,,*6F
$GPGGA,090408.00,4821.37571665,N,00429.81347530,W,1,05,2.87,160.00,M,-21.3213,M,,*64
$GPGGA,090409.00,4821.37569339,N,00429.81130930,W,1,05,2.87,160.00,M,-21.3213,M,,*6E
$GPGGA,090410.00,4821.37567165,N,00429.80928535,W,1,05,2.87,160.00,M,-21.3213,M,,*6A
$GPGGA,090411.00,4821.37565144,N,00429.80740344,W,1,05,2.87,160.00,M,-21.3213,M,,*6A
$GPGGA,090412.00,4821.37562927,N,00429.80533978,W,1,05,2.87,160.00,M,-21.3213,M,,*60
$GPGGA,090413.00,4821.37560863,N,00429.80341818,W,1,05,2.87,160.00,M,-21.3213,M,,*66
$GPGGA,090414.00,4821.37558777,N,00429.80147672,W,1,05,2.87,160.00,M,-21.3213,M,,*66
$GPGGA,090415.00,4821.37556670,N,00429.79951541,W,1,05,2.87,160.00,M,-21.3213,M,,*65
$GPGGA,090416.00,4821.37554715,N,00429.79769615,W,1,05,2.87,160.00,M,-21.3213,M,,*61
$GPGGA,090417.00,4821.37552564,N,00429.79569515,W,1,05,2.87,160.00,M,-21.3213,M,,*63
$GPGGA,090418.00,4821.37550566,N,00429.79383619,W,1,05,2.87,160.00,M,-21.3213,M,,*61
$GPGGA,090419.00,4821.37548721,N,00429.79211929,W,1,05,2.87,160.00,M,-21.3213,M,,*6E
$GPGGA,090420.00,4821.37546679,N,00429.79022065,W,1,05,2.87,160.00,M,-21.3213,M,,*65
$GPGGA,090421.00,4821.37544790,N,00429.78846406,W,1,05,2.87,160.00,M,-21.3213,M,,*6A
$GPGGA,090422.00,4821.37542878,N,00429.78668762,W,1,05,2.87,160.00,M,-21.3213,M,,*65
$GPGGA,090423.00,4821.37540945,N,00429.78489135,W,1,05,2.87,160.00,M,-21.3213,M,,*60
$GPGGA,090424.00,4821.37538989,N,00429.78307525,W,1,05,2.87,160.00,M,-21.3213,M,,*6C
$GPGGA,090425.00,4821.37537185,N,00429.78140120,W,1,05,2.87,160.00,M,-21.3213,M,,*66
$GPGGA,090426.00,4821.37535358,N,00429.77970733,W,1,05,2.87,160.00,M,-21.3213,M,,*65
$GPGGA,090427.00,4821.37533508,N,00429.77799364,W,1,05,2.87,160.00,M,-21.3213,M,,*6E
$GPGGA,090428.00,4821.37531635,N,00429.77626012,W,1,05,2.87,160.00,M,-21.3213,M,,*69
$GPGGA,090429.00,4821.37529913,N,00429.77466869,W,1,05,2.87,160.00,M,-21.3213,M,,*68
$GPGGA,090430.00,4821.37528167,N,00429.77305746,W,1,05,2.87,160.00,M,-21.3213,M,,*6A
$GPGGA,090431.00,4821.37526396,N,00429.77142643,W,1,05,2.87,160.00,M,-21.3213,M,,*6C
$GPGGA,090432.00,4821.37524776,N,00429.76993750,W,1,05,2.87,160.00,M,-21.3213,M,,*61
$GPGGA,090433.00,4821.37522953,N,00429.76826693,W,1,05,2.87,160.00,M,-21.3213,M,,*6E
$GPGGA,090434.00,4821.37521279,N,00429.76673848,W,1,05,2.87,160.00,M,-21.3213,M,,*6F
$GPGGA,090435.00,4821.37519578,N,00429.76519029,W,1,05,2.87,160.00,M,-21.3213,M,,*63
$GPGGA,090436.00,4821.37518025,N,00429.76378425,W,1,05,2.87,160.00,M,-21.3213,M,,*65
$GPGGA,090437.00,4821.37516262,N,00429.76219667,W,1,05,2.87,160.00,M,-21.3213,M,,*69
$GPGGA,090438.00,4821.37514647,N,00429.76075128,W,1,05,2.87,160.00,M,-21.3213,M,,*63
$GPGGA,090439.00,4821.37512997,N,00429.75928626,W,1,05,2.87,160.00,M,-21.3213,M,,*6D
$GPGGA,090440.00,4821.37511494,N,00429.75796346,W,1,05,2.87,160.00,M,-21.3213,M,,*66
$GPGGA,090441.00,4821.37509768,N,00429.75645931,W,1,05,2.87,160.00,M,-21.3213,M,,*6B
$GPGGA,090442.00,4821.37508185,N,00429.75509745,W,1,05,2.87,160.00,M,-21.3213,M,,*6A
$GPGGA,090443.00,4821.37506557,N,00429.75371614,W,1,05,2.87,160.00,M,-21.3213,M,,*62
$GPGGA,090444.00,4821.37504880,N,00429.75231545,W,1,05,2.87,160.00,M,-21.3213,M,,*62
$GPGGA,090445.00,4821.37503344,N,00429.75105716,W,1,05,2.87,160.00,M,-21.3213,M,,*67
$GPGGA,090446.00,4821.37501754,N,00429.74977960,W,1,05,2.87,160.00,M,-21.3213,M,,*60
$GPGGA,090447.00,4821.37500101,N,00429.74848289,W,1,05,2.87,160.00,M,-21.3213,M,,*67
$GPGGA,090448.00,4821.37498378,N,00429.74716714,W,1,05,2.87,160.00,M,-21.3213,M,,*61
$GPGGA,090449.00,4821.37496795,N,00429.74599396,W,1,05,2.87,160.00,M,-21.3213,M,,*62
$GPGGA,090450.00,4821.37494905,N,00429.74464051,W,1,05,2.87,160.00,M,-21.3213,M,,*64
$GPGGA,090451.00,4821.37493147,N,00429.74342983,W,1,05,2.87,160.00,M,-21.3213,M,,*69
$GPGGA,090452.00,4821.37491534,N,00429.74236183,W,1,05,2.87,160.00,M,-21.3213,M,,*62
$GPGGA,090453.00,4821.37489566,N,00429.74111422,W,1,05,2.87,160.00,M,-21.3213,M,,*65
$GPGGA,090454.00,4821.37487734,N,00429.74000951,W,1,05,2.87,160.00,M,-21.3213,M,,*61
$GPGGA,090455.00,4821.37485775,N,00429.73888674,W,1,05,2.87,160.00,M,-21.3213,M,,*60
$GPGGA,090456.00,4821.37483667,N,00429.73774617,W,1,05,2.87,160.00,M,-21.3213,M,,*6E
$GPGGA,090457.00,4821.37481388,N,00429.73658812,W,1,05,2.87,160.00,M,-21.3213,M,,*6D
$GPGGA,090458.00,4821.37479257,N,00429.73557322,W,1,05,2.87,160.00,M,-21.3213,M,,*62
$GPGGA,090459.00,4821.37476944,N,00429.73454114,W,1,05,2.87,160.00,M,-21.3213,M,,*60
$GPGGA,090500.00,4821.37474420,N,00429.73349223,W,1,05,2.87,160.00,M,-21.3213,M,,*6C
$GPGGA,090501.00,4821.37471653,N,00429.73242692,W,1,05,2.87,160.00,M,-21.3213,M,,*6A
$GPGGA,090502.00,4821.37469067,N,00429.73150490,W,1,05,2.87,160.00,M,-21.3213,M,,*61
$GPGGA,090503.00,4821.37466230,N,00429.73056678,W,1,05,2.87,160.00,M,-21.3213,M,,*6C
$GPGGA,090504.00,4821.37463106,N,00429.72961303,W,1,05,2.87,160.00,M,-21.3213,M,,*6D
$GPGGA,090505.00,4821.37459648,N,00429.72864419,W,1,05,2.87,160.00,M,-21.3213,M,,*60
$GPGGA,090506.00,4821.37456447,N,00429.72781844,W,1,05,2.87,160.00,M,-21.3213,M,,*61
$GPGGA,090507.00,4821.37452223,N,00429.72682073,W,1,05,2.87,160.00,M,-21.3213,M,,*6E
$GPGGA,090508.00,4821.37448256,N,00429.72596636,W,1,05,2.87,160.00,M,-21.3213,M,,*69
$GPGGA,090509.00,4821.37443850,N,00429.72509838,W,1,05,2.87,160.00,M,-21.3213,M,,*69
$GPGGA,090510.00,4821.37439841,N,00429.72437268,W,1,05,2.87,160.00,M,-21.3213,M,,*6F
$GPGGA,090511.00,4821.37434440,N,00429.72347891,W,1,05,2.87,160.00,M,-21.3213,M,,*62
$GPGGA,090512.00,4821.37429457,N,00429.72272741,W,1,05,2.87,160.00,M,-21.3213,M,,*6E
$GPGGA,090513.00,4821.37423927,N,00429.72196371,W,1,05,2.87,160.00,M,-21.3213,M,,*61
$GPGGA,090514.00,4821.37417771,N,00429.72118860,W,1,05,2.87,160.00,M,-21.3213,M,,*61
$GPGGA,090515.00,4821.37410904,N,00429.72040291,W,1,05,2.87,160.00,M,-21.3213,M,,*63
$GPGGA,090516.00,4821.37404726,N,00429.71975721,W,1,05,2.87,160.00,M,-21.3213,M,,*69
$GPGGA,090517.00,4821.37397889,N,00429.71910046,W,1,05,2.87,160.00,M,-21.3213,M,,*6A
$GPGGA,090518.00,4821.37390306,N,00429.71843343,W,1,05,2.87,160.00,M,-21.3213,M,,*6F
$GPGGA,090519.00,4821.37381877,N,00429.71775698,W,1,05,2.87,160.00,M,-21.3213,M,,*6A
$GPGGA,090520.00,4821.37372488,N,00429.71707205,W,1,05,2.87,160.00,M,-21.3213,M,,*65
$GPGGA,090521.00,4821.37364250,N,00429.71652242,W,1,05,2.87,160.00,M,-21.3213,M,,*62
$GPGGA,090522.00,4821.37355146,N,00429.71596306,W,1,05,2.87,160.00,M,-21.3213,M,,*6D
$GPGGA,090523.00,4821.37345068,N,00429.71539490,W,1,05,2.87,160.00,M,-21.3213,M,,*6D
$GPGGA,090524.00,4821.37333912,N,00429.71482010,W,1,05,2.87,160.00,M,-21.3213,M,,*62
$GPGGA,090525.00,4821.37324576,N,00429.71437723,W,1,05,2.87,160.00,M,-21.3213,M,,*62
$GPGGA,090526.00,4821.37311209,N,00429.71379542,W,1,05,2.87,160.00,M,-21.3213,M,,*60
$GPGGA,090527.00,4821.37299936,N,00429.71334684,W,1,05,2.87,160.00,M,-21.3213,M,,*67
$GPGGA,090528.00,4821.37287712,N,00429.71289813,W,1,05,2.87,160.00,M,-21.3213,M,,*68
$GPGGA,090529.00,4821.37274486,N,00429.71245161,W,1,05,2.87,160.00,M,-21.3213,M,,*67
$GPGGA,090530.00,4821.37260209,N,00429.71200956,W,1,05,2.87,160.00,M,-21.3213,M,,*66
$GPGGA,090531.00,4821.37244837,N,00429.71157416,W,1,05,2.87,160.00,M,-21.3213,M,,*6E
$GPGGA,090532.00,4821.37228323,N,00429.71114747,W,1,05,2.87,160.00,M,-21.3213,M,,*69
$GPGGA,090533.00,4821.37222954,N,00429.71101696,W,1,05,2.87,160.00,M,-21.3213,M,,*61
$GPGGA,090534.00,4821.37210115,N,00429.71071948,W,1,05,2.87,160.00,M,-21.3213,M,,*60
$GPGGA,090535.00,4821.37191330,N,00429.71031510,W,1,05,2.87,160.00,M,-21.3213,M,,*6B
$GPGGA,090536.00,4821.37171658,N,00429.70992319,W,1,05,2.87,160.00,M,-21.3213,M,,*63
$GPGGA,090537.00,4821.37151168,N,00429.70954253,W,1,05,2.87,160.00,M,-21.3213,M,,*61
$GPGGA,090538.00,4821.37130056,N,00429.70917428,W,1,05,2.87,160.00,M,-21.3213,M,,*68
$GPGGA,090539.00,4821.37101988,N,00429.70871549,W,1,05,2.87,160.00,M,-21.3213,M,,*66
$GPGGA,090540.00,4821.37079909,N,00429.70837506,W,1,05,2.87,160.00,M,-21.3213,M,,*66
$GPGGA,090541.00,4821.37057713,N,00429.70804802,W,1,05,2.87,160.00,M,-21.3213,M,,*67
$GPGGA,090542.00,4821.37028466,N,00429.70763707,W,1,05,2.87,160.00,M,-21.3213,M,,*69
$GPGGA,090543.00,4821.36999082,N,00429.70724357,W,1,05,2.87,160.00,M,-21.3213,M,,*66
$GPGGA,090544.00,4821.36969754,N,00429.70686730,W,1,05,2.87,160.00,M,-21.3213,M,,*6E
$GPGGA,090545.00,4821.36940597,N,00429.70650725,W,1,05,2.87,160.00,M,-21.3213,M,,*66
$GPGGA,090546.00,4821.36903898,N,00429.70607121,W,1,05,2.87,160.00,M,-21.3213,M,,*60
$GPGGA,090547.00,4821.36867251,N,00429.70565211,W,1,05,2.87,160.00,M,-21.3213,M,,*6A
$GPGGA,090548.00,4821.36838863,N,00429.70533721,W,1,05,2.87,160.00,M,-21.3213,M,,*61
$GPGGA,090549.00,4821.36794539,N,00429.70486026,W,1,05,2.87,160.00,M,-21.3213,M,,*64
$GPGGA,090550.00,4821.36758660,N,00429.70448567,W,1,05,2.87,160.00,M,-21.3213,M,,*61
$GPGGA,090551.00,4821.36714745,N,00429.70403923,W,1,05,2.87,160.00,M,-21.3213,M,,*6D
$GPGGA,090552.00,4821.36679692,N,00429.70369126,W,1,05,2.87,160.00,M,-21.3213,M,,*69
$GPGGA,090553.00,4821.36636553,N,00429.70327197,W,1,05,2.87,160.00,M,-21.3213,M,,*6D
$GPGGA,090554.00,4821.36593872,N,00429.70286568,W,1,05,2.87,160.00,M,-21.3213,M,,*66
$GPGGA,090555.00,4821.36542893,N,00429.70239015,W,1,05,2.87,160.00,M,-21.3213,M,,*6F
$GPGGA,090556.00,4821.36501272,N,00429.70200878,W,1,05,2.87,160.00,M,-21.3213,M,,*67
$GPGGA,090557.00,4821.36451344,N,00429.70155847,W,1,05,2.87,160.00,M,-21.3213,M,,*69
$GPGGA,090558.00,4821.36402012,N,00429.70112027,W,1,05,2.87,160.00,M,-21.3213,M,,*6D
$GPGGA,090559.00,4821.36344245,N,00429.70061455,W,1,05,2.87,160.00,M,-21.3213,M,,*6D
$GPGGA,090600.00,4821.36296244,N,00429.70019965,W,1,05,2.87,160.00,M,-21.3213,M,,*6C
$GPGGA,090601.00,4821.36239822,N,00429.69971734,W,1,05,2.87,160.00,M,-21.3213,M,,*67
$GPGGA,090602.00,4821.36184137,N,00429.69924634,W,1,05,2.87,160.00,M,-21.3213,M,,*6D
$GPGGA,090603.00,4821.36129243,N,00429.69878626,W,1,05,2.87,160.00,M,-21.3213,M,,*60
$GPGGA,090604.00,4821.36075185,N,00429.69833681,W,1,05,2.87,160.00,M,-21.3213,M,,*64
$GPGGA,090605.00,4821.36012661,N,00429.69782088,W,1,05,2.87,160.00,M,-21.3213,M,,*63
$GPGGA,090606.00,4821.35950996,N,00429.69731560,W,1,05,2.87,160.00,M,-21.3213,M,,*60
$GPGGA,090607.00,4821.35890231,N,00429.69682072,W,1,05,2.87,160.00,M,-21.3213,M,,*65
$GPGGA,090608.00,4821.35830402,N,00429.69633600,W,1,05,2.87,160.00,M,-21.3213,M,,*6F
$GPGGA,090609.00,4821.35762099,N,00429.69578531,W,1,05,2.87,160.00,M,-21.3213,M,,*6D
$GPGGA,090610.00,4821.35704214,N,00429.69532057,W,1,05,2.87,160.00,M,-21.3213,M,,*69
$GPGGA,090611.00,4821.35637875,N,00429.69478985,W,1,05,2.87,160.00,M,-21.3213,M,,*6D
$GPGGA,090612.00,4821.35572549,N,00429.69426897,W,1,05,2.87,160.00,M,-21.3213,M,,*67
$GPGGA,090613.00,4821.35498758,N,00429.69368239,W,1,05,2.87,160.00,M,-21.3213,M,,*62
$GPGGA,090614.00,4821.35426001,N,00429.69310560,W,1,05,2.87,160.00,M,-21.3213,M,,*6F
$GPGGA,090615.00,4821.35354154,N,00429.69253735,W,1,05,2.87,160.00,M,-21.3213,M,,*69
$GPGGA,090616.00,4821.35283520,N,00429.69197979,W,1,05,2.87,160.00,M,-21.3213,M,,*6B
$GPGGA,090617.00,4821.35213974,N,00429.69143173,W,1,05,2.87,160.00,M,-21.3213,M,,*65
$GPGGA,090618.00,4821.35135985,N,00429.69081806,W,1,05,2.87,160.00,M,-21.3213,M,,*67
$GPGGA,090619.00,4821.35059097,N,00429.69021387,W,1,05,2.87,160.00,M,-21.3213,M,,*6F
$GPGGA,090620.00,4821.34983321,N,00429.68961908,W,1,05,2.87,160.00,M,-21.3213,M,,*65
$GPGGA,090621.00,4821.34908666,N,00429.68903365,W,1,05,2.87,160.00,M,-21.3213,M,,*64
$GPGGA,090622.00,4821.34825582,N,00429.68838267,W,1,05,2.87,160.00,M,-21.3213,M,,*6A
$GPGGA,090623.00,4821.34743629,N,00429.68774103,W,1,05,2.87,160.00,M,-21.3213,M,,*60
$GPGGA,090624.00,4821.34662814,N,00429.68710869,W,1,05,2.87,160.00,M,-21.3213,M,,*62
$GPGGA,090625.00,4821.34583142,N,00429.68648562,W,1,05,2.87,160.00,M,-21.3213,M,,*6F
$GPGGA,090626.00,4821.34495051,N,00429.68579701,W,1,05,2.87,160.00,M,-21.3213,M,,*6F
$GPGGA,090627.00,4821.34417680,N,00429.68519243,W,1,05,2.87,160.00,M,-21.3213,M,,*6B
$GPGGA,090628.00,4821.34322323,N,00429.68444756,W,1,05,2.87,160.00,M,-21.3213,M,,*61
$GPGGA,090629.00,4821.34237694,N,00429.68378667,W,1,05,2.87,160.00,M,-21.3213,M,,*67
$GPGGA,090630.00,4821.34154225,N,00429.68313498,W,1,05,2.87,160.00,M,-21.3213,M,,*68
$GPGGA,090631.00,4821.34062344,N,00429.68241776,W,1,05,2.87,160.00,M,-21.3213,M,,*6E
$GPGGA,090632.00,4821.33971627,N,00429.68170974,W,1,05,2.87,160.00,M,-21.3213,M,,*6C
$GPGGA,090633.00,4821.33872501,N,00429.68093619,W,1,05,2.87,160.00,M,-21.3213,M,,*60
$GPGGA,090634.00,4821.33784115,N,00429.68024655,W,1,05,2.87,160.00,M,-21.3213,M,,*64
$GPGGA,090635.00,4821.33687323,N,00429.67949138,W,1,05,2.87,160.00,M,-21.3213,M,,*61
$GPGGA,090636.00,4821.33591698,N,00429.67874538,W,1,05,2.87,160.00,M,-21.3213,M,,*68
$GPGGA,090637.00,4821.33497244,N,00429.67800856,W,1,05,2.87,160.00,M,-21.3213,M,,*6D
$GPGGA,090638.00,4821.33394383,N,00429.67720620,W,1,05,2.87,160.00,M,-21.3213,M,,*6E
$GPGGA,090639.00,4821.33302271,N,00429.67648772,W,1,05,2.87,160.00,M,-21.3213,M,,*65
$GPGGA,090640.00,4821.33201753,N,00429.67570370,W,1,05,2.87,160.00,M,-21.3213,M,,*62
$GPGGA,090641.00,4821.33092829,N,00429.67485415,W,1,05,2.87,160.00,M,-21.3213,M,,*66
$GPGGA,090642.00,4821.32994656,N,00429.67408846,W,1,05,2.87,160.00,M,-21.3213,M,,*62
$GPGGA,090643.00,4821.32888077,N,00429.67325723,W,1,05,2.87,160.00,M,-21.3213,M,,*6E
$GPGGA,090644.00,4821.32782672,N,00429.67243517,W,1,05,2.87,160.00,M,-21.3213,M,,*6B
$GPGGA,090645.00,4821.32678439,N,00429.67162227,W,1,05,2.87,160.00,M,-21.3213,M,,*67
$GPGGA,090646.00,4821.32565803,N,00429.67074384,W,1,05,2.87,160.00,M,-21.3213,M,,*60
$GPGGA,090647.00,4821.32463917,N,00429.66994926,W,1,05,2.87,160.00,M,-21.3213,M,,*66
$GPGGA,090648.00,4821.32353628,N,00429.66908914,W,1,05,2.87,160.00,M,-21.3213,M,,*6A
$GPGGA,090649.00,4821.32234931,N,00429.66816347,W,1,05,2.87,160.00,M,-21.3213,M,,*6E
$GPGGA,090650.00,4821.32126925,N,00429.66732117,W,1,05,2.87,160.00,M,-21.3213,M,,*6D
$GPGGA,090651.00,4821.32010342,N,00429.66641198,W,1,05,2.87,160.00,M,-21.3213,M,,*61
$GPGGA,090652.00,4821.31894640,N,00429.66550968,W,1,05,2.87,160.00,M,-21.3213,M,,*66
$GPGGA,090653.00,4821.31789281,N,00429.66468803,W,1,05,2.87,160.00,M,-21.3213,M,,*6B
$GPGGA,090654.00,4821.31665415,N,00429.66372206,W,1,05,2.87,160.00,M,-21.3213,M,,*67
$GPGGA,090655.00,4821.31551656,N,00429.66283491,W,1,05,2.87,160.00,M,-21.3213,M,,*60
$GPGGA,090656.00,4821.31438310,N,00429.66195099,W,1,05,2.87,160.00,M,-21.3213,M,,*62
$GPGGA,090657.00,4821.31315682,N,00429.66099468,W,1,05,2.87,160.00,M,-21.3213,M,,*62
$GPGGA,090658.00,4821.31202810,N,00429.66011445,W,1,05,2.87,160.00,M,-21.3213,M,,*60
$GPGGA,090659.00,4821.31090001,N,00429.65923471,W,1,05,2.87,160.00,M,-21.3213,M,,*6C
$GPGGA,090700.00,4821.30967616,N,00429.65828030,W,1,05,2.87,160.00,M,-21.3213,M,,*6A
$GPGGA,090701.00,4821.30854809,N,00429.65740059,W,1,05,2.87,160.00,M,-21.3213,M,,*64
$GPGGA,090702.00,4821.30732425,N,00429.65644619,W,1,05,2.87,160.00,M,-21.3213,M,,*6D
$GPGGA,090703.00,4821.30619618,N,00429.65556647,W,1,05,2.87,160.00,M,-21.3213,M,,*63
$GPGGA,090704.00,4821.30497233,N,00429.65461207,W,1,05,2.87,160.00,M,-21.3213,M,,*68
$GPGGA,090705.00,4821.30384422,N,00429.65373233,W,1,05,2.87,160.00,M,-21.3213,M,,*69
$GPGGA,090706.00,4821.30261958,N,00429.65277731,W,1,05,2.87,160.00,M,-21.3213,M,,*62
$GPGGA,090707.00,4821.30148883,N,00429.65189551,W,1,05,2.87,160.00,M,-21.3213,M,,*6A
$GPGGA,090708.00,4821.30035499,N,00429.65101131,W,1,05,2.87,160.00,M,-21.3213,M,,*6B
$GPGGA,090709.00,4821.29912112,N,00429.65004910,W,1,05,2.87,160.00,M,-21.3213,M,,*67
$GPGGA,090710.00,4821.29797761,N,00429.64915736,W,1,05,2.87,160.00,M,-21.3213,M,,*6C
$GPGGA,090711.00,4821.29682750,N,00429.64826047,W,1,05,2.87,160.00,M,-21.3213,M,,*6A
$GPGGA,090712.00,4821.29576538,N,00429.64743221,W,1,05,2.87,160.00,M,-21.3213,M,,*63
$GPGGA,090713.00,4821.29459855,N,00429.64652229,W,1,05,2.87,160.00,M,-21.3213,M,,*61
$GPGGA,090714.00,4821.29351737,N,00429.64567917,W,1,05,2.87,160.00,M,-21.3213,M,,*61
$GPGGA,090715.00,4821.29232915,N,00429.64475259,W,1,05,2.87,160.00,M,-21.3213,M,,*69
$GPGGA,090716.00,4821.29122496,N,00429.64389154,W,1,05,2.87,160.00,M,-21.3213,M,,*64
$GPGGA,090717.00,4821.29020481,N,00429.64309604,W,1,05,2.87,160.00,M,-21.3213,M,,*6A
$GPGGA,090718.00,4821.28907715,N,00429.64221670,W,1,05,2.87,160.00,M,-21.3213,M,,*6E
$GPGGA,090719.00,4821.28803352,N,00429.64140291,W,1,05,2.87,160.00,M,-21.3213,M,,*62
$GPGGA,090720.00,4821.28697815,N,00429.64057998,W,1,05,2.87,160.00,M,-21.3213,M,,*66
$GPGGA,090721.00,4821.28591104,N,00429.63974792,W,1,05,2.87,160.00,M,-21.3213,M,,*60
$GPGGA,090722.00,4821.28492796,N,00429.63898141,W,1,05,2.87,160.00,M,-21.3213,M,,*67
$GPGGA,090723.00,4821.28393315,N,00429.63820577,W,1,05,2.87,160.00,M,-21.3213,M,,*6D
$GPGGA,090724.00,4821.28292660,N,00429.63742101,W,1,05,2.87,160.00,M,-21.3213,M,,*63
$GPGGA,090725.00,4821.28190831,N,00429.63662714,W,1,05,2.87,160.00,M,-21.3213,M,,*68
$GPGGA,090726.00,4821.28087827,N,00429.63582417,W,1,05,2.87,160.00,M,-21.3213,M,,*66
$GPGGA,090727.00,4821.27993228,N,00429.63508678,W,1,05,2.87,160.00,M,-21.3213,M,,*68
$GPGGA,090728.00,4821.27897646,N,00429.63434179,W,1,05,2.87,160.00,M,-21.3213,M,,*66
$GPGGA,090729.00,4821.27800697,N,00429.63358625,W,1,05,2.87,160.00,M,-21.3213,M,,*66
$GPGGA,090730.00,4821.27712153,N,00429.63289629,W,1,05,2.87,160.00,M,-21.3213,M,,*6C
$GPGGA,090731.00,4821.27622435,N,00429.63219730,W,1,05,2.87,160.00,M,-21.3213,M,,*6A
$GPGGA,090732.00,4821.27531543,N,00429.63148931,W,1,05,2.87,160.00,M,-21.3213,M,,*60
$GPGGA,090733.00,4821.27439479,N,00429.63077235,W,1,05,2.87,160.00,M,-21.3213,M,,*62
$GPGGA,090734.00,4821.27346241,N,00429.63004647,W,1,05,2.87,160.00,M,-21.3213,M,,*62
$GPGGA,090735.00,4821.27261409,N,00429.62938626,W,1,05,2.87,160.00,M,-21.3213,M,,*6D
$GPGGA,090736.00,4821.27175404,N,00429.62871718,W,1,05,2.87,160.00,M,-21.3213,M,,*65
$GPGGA,090737.00,4821.27088226,N,00429.62803930,W,1,05,2.87,160.00,M,-21.3213,M,,*60
$GPGGA,090738.00,4821.27009456,N,00429.62742713,W,1,05,2.87,160.00,M,-21.3213,M,,*62
$GPGGA,090739.00,4821.26919932,N,00429.62673186,W,1,05,2.87,160.00,M,-21.3213,M,,*6C
$GPGGA,090740.00,4821.26838818,N,00429.62610240,W,1,05,2.87,160.00,M,-21.3213,M,,*65
$GPGGA,090741.00,4821.26756531,N,00429.62546442,W,1,05,2.87,160.00,M,-21.3213,M,,*61
$GPGGA,090742.00,4821.26682656,N,00429.62489226,W,1,05,2.87,160.00,M,-21.3213,M,,*6E
$GPGGA,090743.00,4821.26598026,N,00429.62423761,W,1,05,2.87,160.00,M,-21.3213,M,,*60
$GPGGA,090744.00,4821.26521809,N,00429.62364891,W,1,05,2.87,160.00,M,-21.3213,M,,*64
$GPGGA,090745.00,4821.26454008,N,00429.62312604,W,1,05,2.87,160.00,M,-21.3213,M,,*6C
$GPGGA,090746.00,4821.26375451,N,00429.62252134,W,1,05,2.87,160.00,M,-21.3213,M,,*62
$GPGGA,090747.00,4821.26305312,N,00429.62198264,W,1,05,2.87,160.00,M,-21.3213,M,,*67
$GPGGA,090748.00,4821.26224412,N,00429.62136291,W,1,05,2.87,160.00,M,-21.3213,M,,*63
$GPGGA,090749.00,4821.26151934,N,00429.62080943,W,1,05,2.87,160.00,M,-21.3213,M,,*62
$GPGGA,090750.00,4821.26087883,N,00429.62032190,W,1,05,2.87,160.00,M,-21.3213,M,,*62
$GPGGA,090751.00,4821.26013066,N,00429.61975460,W,1,05,2.87,160.00,M,-21.3213,M,,*6E
$GPGGA,090752.00,4821.25946681,N,00429.61925350,W,1,05,2.87,160.00,M,-21.3213,M,,*69
$GPGGA,090753.00,4821.25879128,N,00429.61874612,W,1,05,2.87,160.00,M,-21.3213,M,,*67
$GPGGA,090754.00,4821.25820018,N,00429.61830454,W,1,05,2.87,160.00,M,-21.3213,M,,*6E
$GPGGA,090755.00,4821.25750128,N,00429.61778574,W,1,05,2.87,160.00,M,-21.3213,M,,*65
$GPGGA,090756.00,4821.25688686,N,00429.61733302,W,1,05,2.87,160.00,M,-21.3213,M,,*69
$GPGGA,090757.00,4821.25626077,N,00429.61687541,W,1,05,2.87,160.00,M,-21.3213,M,,*6B
$GPGGA,090758.00,4821.25562297,N,00429.61641361,W,1,05,2.87,160.00,M,-21.3213,M,,*65
$GPGGA,090759.00,4821.25506987,N,00429.61601717,W,1,05,2.87,160.00,M,-21.3213,M,,*6D
$GPGGA,090800.00,4821.25440859,N,00429.61554880,W,1,05,2.87,160.00,M,-21.3213,M,,*6D
$GPGGA,090801.00,4821.25383205,N,00429.61514606,W,1,05,2.87,160.00,M,-21.3213,M,,*63
$GPGGA,090802.00,4821.25324375,N,00429.61474120,W,1,05,2.87,160.00,M,-21.3213,M,,*6F
$GPGGA,090803.00,4821.25274046,N,00429.61440033,W,1,05,2.87,160.00,M,-21.3213,M,,*6D
$GPGGA,090804.00,4821.25212847,N,00429.61399343,W,1,05,2.87,160.00,M,-21.3213,M,,*64
$GPGGA,090805.00,4821.25160155,N,00429.61365058,W,1,05,2.87,160.00,M,-21.3213,M,,*63
$GPGGA,090806.00,4821.25106271,N,00429.61330795,W,1,05,2.87,160.00,M,-21.3213,M,,*63
$GPGGA,090807.00,4821.25060929,N,00429.61302656,W,1,05,2.87,160.00,M,-21.3213,M,,*6A
$GPGGA,090808.00,4821.25004635,N,00429.61268693,W,1,05,2.87,160.00,M,-21.3213,M,,*61
$GPGGA,090809.00,4821.24956886,N,00429.61240817,W,1,05,2.87,160.00,M,-21.3213,M,,*61
$GPGGA,090810.00,4821.24907922,N,00429.61213212,W,1,05,2.87,160.00,M,-21.3213,M,,*6B
$GPGGA,090811.00,4821.24857796,N,00429.61186079,W,1,05,2.87,160.00,M,-21.3213,M,,*6F
$GPGGA,090812.00,4821.24816466,N,00429.61164645,W,1,05,2.87,160.00,M,-21.3213,M,,*60
$GPGGA,090813.00,4821.24764340,N,00429.61138936,W,1,05,2.87,160.00,M,-21.3213,M,,*6A
$GPGGA,090814.00,4821.24721264,N,00429.61118902,W,1,05,2.87,160.00,M,-21.3213,M,,*6E
$GPGGA,090815.00,4821.24677481,N,00429.61099760,W,1,05,2.87,160.00,M,-21.3213,M,,*62
$GPGGA,090816.00,4821.24633090,N,00429.61081714,W,1,05,2.87,160.00,M,-21.3213,M,,*6F
$GPGGA,090817.00,4821.24588186,N,00429.61064970,W,1,05,2.87,160.00,M,-21.3213,M,,*6C
$GPGGA,090818.00,4821.24542862,N,00429.61049735,W,1,05,2.87,160.00,M,-21.3213,M,,*66
$GPGGA,090819.00,4821.24497205,N,00429.61036218,W,1,05,2.87,160.00,M,-21.3213,M,,*67
$GPGGA,090820.00,4821.24473001,N,00429.61029845,W,1,05,2.87,160.00,M,-21.3213,M,,*6D
$GPGGA,090821.00,4821.24437167,N,00429.61021441,W,1,05,2.87,160.00,M,-21.3213,M,,*6D
$GPGGA,090822.00,4821.24391090,N,00429.61012312,W,1,05,2.87,160.00,M,-21.3213,M,,*6D
$GPGGA,090823.00,4821.24345120,N,00429.61004912,W,1,05,2.87,160.00,M,-21.3213,M,,*62
$GPGGA,090824.00,4821.24288905,N,00429.60997940,W,1,05,2.87,160.00,M,-21.3213,M,,*6F
$GPGGA,090825.00,4821.24243238,N,00429.60993789,W,1,05,2.87,160.00,M,-21.3213,M,,*63
$GPGGA,090826.00,4821.24197994,N,00429.60990878,W,1,05,2.87,160.00,M,-21.3213,M,,*65
$GPGGA,090827.00,4821.24153311,N,00429.60989068,W,1,05,2.87,160.00,M,-21.3213,M,,*6A
$GPGGA,090828.00,4821.24098913,N,00429.60988158,W,1,05,2.87,160.00,M,-21.3213,M,,*68
$GPGGA,090829.00,4821.24045310,N,00429.60988509,W,1,05,2.87,160.00,M,-21.3213,M,,*60
$GPGGA,090830.00,4821.23992651,N,00429.60989934,W,1,05,2.87,160.00,M,-21.3213,M,,*6F
$GPGGA,090831.00,4821.23941064,N,00429.60992263,W,1,05,2.87,160.00,M,-21.3213,M,,*63
$GPGGA,090832.00,4821.23890581,N,00429.60995347,W,1,05,2.87,160.00,M,-21.3213,M,,*63
$GPGGA,090833.00,4821.23830690,N,00429.60999930,W,1,05,2.87,160.00,M,-21.3213,M,,*6D
$GPGGA,090834.00,4821.23771897,N,00429.61005302,W,1,05,2.87,160.00,M,-21.3213,M,,*6F
$GPGGA,090835.00,4821.23714221,N,00429.61011320,W,1,05,2.87,160.00,M,-21.3213,M,,*6F
$GPGGA,090836.00,4821.23657676,N,00429.61017861,W,1,05,2.87,160.00,M,-21.3213,M,,*64
$GPGGA,090837.00,4821.23602277,N,00429.61024820,W,1,05,2.87,160.00,M,-21.3213,M,,*65
$GPGGA,090838.00,4821.23537443,N,00429.61033582,W,1,05,2.87,160.00,M,-21.3213,M,,*6D
$GPGGA,090839.00,4821.23473762,N,00429.61042763,W,1,05,2.87,160.00,M,-21.3213,M,,*66
$GPGGA,090840.00,4821.23411249,N,00429.61052265,W,1,05,2.87,160.00,M,-21.3213,M,,*62
$GPGGA,090841.00,4821.23339294,N,00429.61063730,W,1,05,2.87,160.00,M,-21.3213,M,,*69
$GPGGA,090842.00,4821.23279150,N,00429.61073697,W,1,05,2.87,160.00,M,-21.3213,M,,*69
$GPGGA,090843.00,4821.23209574,N,00429.61085609,W,1,05,2.87,160.00,M,-21.3213,M,,*63
$GPGGA,090844.00,4821.23130561,N,00429.61099572,W,1,05,2.87,160.00,M,-21.3213,M,,*6B
$GPGGA,090845.00,4821.23063402,N,00429.61111758,W,1,05,2.87,160.00,M,-21.3213,M,,*62
$GPGGA,090846.00,4821.22986817,N,00429.61125962,W,1,05,2.87,160.00,M,-21.3213,M,,*6A
$GPGGA,090847.00,4821.22922118,N,00429.61138186,W,1,05,2.87,160.00,M,-21.3213,M,,*6D
$GPGGA,090848.00,4821.22837342,N,00429.61154474,W,1,05,2.87,160.00,M,-21.3213,M,,*68
$GPGGA,090849.00,4821.22764470,N,00429.61168687,W,1,05,2.87,160.00,M,-21.3213,M,,*67
$GPGGA,090850.00,4821.22692852,N,00429.61182821,W,1,05,2.87,160.00,M,-21.3213,M,,*6D
$GPGGA,090851.00,4821.22611826,N,00429.61198983,W,1,05,2.87,160.00,M,-21.3213,M,,*66
$GPGGA,090852.00,4821.22532063,N,00429.61215047,W,1,05,2.87,160.00,M,-21.3213,M,,*69
$GPGGA,090853.00,4821.22442895,N,00429.61233159,W,1,05,2.87,160.00,M,-21.3213,M,,*65
$GPGGA,090854.00,4821.22365674,N,00429.61248957,W,1,05,2.87,160.00,M,-21.3213,M,,*6B
$GPGGA,090855.00,4821.22279055,N,00429.61266784,W,1,05,2.87,160.00,M,-21.3213,M,,*6F
$GPGGA,090856.00,4821.22193717,N,00429.61284440,W,1,05,2.87,160.00,M,-21.3213,M,,*6D
$GPGGA,090857.00,4821.22109664,N,00429.61301909,W,1,05,2.87,160.00,M,-21.3213,M,,*66
$GPGGA,090858.00,4821.22016219,N,00429.61321406,W,1,05,2.87,160.00,M,-21.3213,M,,*68
$GPGGA,090859.00,4821.21934745,N,00429.61338461,W,1,05,2.87,160.00,M,-21.3213,M,,*66
$GPGGA,090900.00,4821.21843884,N,00429.61357533,W,1,05,2.87,160.00,M,-21.3213,M,,*67
$GPGGA,090901.00,4821.21743637,N,00429.61378628,W,1,05,2.87,160.00,M,-21.3213,M,,*6B
$GPGGA,090902.00,4821.21655180,N,00429.61397282,W,1,05,2.87,160.00,M,-21.3213,M,,*60
$GPGGA,090903.00,4821.21557526,N,00429.61417911,W,1,05,2.87,160.00,M,-21.3213,M,,*66
$GPGGA,090904.00,4821.21461172,N,00429.61438296,W,1,05,2.87,160.00,M,-21.3213,M,,*69
$GPGGA,090905.00,4821.21366120,N,00429.61458430,W,1,05,2.87,160.00,M,-21.3213,M,,*63
$GPGGA,090906.00,4821.21272371,N,00429.61478309,W,1,05,2.87,160.00,M,-21.3213,M,,*6D
$GPGGA,090907.00,4821.21169242,N,00429.61500196,W,1,05,2.87,160.00,M,-21.3213,M,,*6E
$GPGGA,090908.00,4821.21067419,N,00429.61521822,W,1,05,2.87,160.00,M,-21.3213,M,,*63
$GPGGA,090909.00,4821.20966901,N,00429.61543184,W,1,05,2.87,160.00,M,-21.3213,M,,*6E
$GPGGA,090910.00,4821.20857005,N,00429.61566552,W,1,05,2.87,160.00,M,-21.3213,M,,*60
$GPGGA,090911.00,4821.20759101,N,00429.61587379,W,1,05,2.87,160.00,M,-21.3213,M,,*65
$GPGGA,090912.00,4821.20651819,N,00429.61610209,W,1,05,2.87,160.00,M,-21.3213,M,,*64
$GPGGA,090913.00,4821.20545846,N,00429.61632767,W,1,05,2.87,160.00,M,-21.3213,M,,*64
$GPGGA,090914.00,4821.20430495,N,00429.61657327,W,1,05,2.87,160.00,M,-21.3213,M,,*61
$GPGGA,090915.00,4821.20327139,N,00429.61679338,W,1,05,2.87,160.00,M,-21.3213,M,,*60
$GPGGA,090916.00,4821.20214406,N,00429.61703349,W,1,05,2.87,160.00,M,-21.3213,M,,*61
$GPGGA,090917.00,4821.20102982,N,00429.61727086,W,1,05,2.87,160.00,M,-21.3213,M,,*63
$GPGGA,090918.00,4821.19982182,N,00429.61752822,W,1,05,2.87,160.00,M,-21.3213,M,,*6A
$GPGGA,090919.00,4821.19862691,N,00429.61778282,W,1,05,2.87,160.00,M,-21.3213,M,,*69
$GPGGA,090920.00,4821.19755196,N,00429.61801188,W,1,05,2.87,160.00,M,-21.3213,M,,*60
$GPGGA,090921.00,4821.19627639,N,00429.61828370,W,1,05,2.87,160.00,M,-21.3213,M,,*69
$GPGGA,090922.00,4821.19512078,N,00429.61852997,W,1,05,2.87,160.00,M,-21.3213,M,,*62
$GPGGA,090923.00,4821.19387140,N,00429.61879623,W,1,05,2.87,160.00,M,-21.3213,M,,*6A
$GPGGA,090924.00,4821.19274199,N,00429.61903694,W,1,05,2.87,160.00,M,-21.3213,M,,*64
$GPGGA,090925.00,4821.19151881,N,00429.61929763,W,1,05,2.87,160.00,M,-21.3213,M,,*60
$GPGGA,090926.00,4821.19020188,N,00429.61957831,W,1,05,2.87,160.00,M,-21.3213,M,,*65
$GPGGA,090927.00,4821.18900491,N,00429.61983343,W,1,05,2.87,160.00,M,-21.3213,M,,*64
$GPGGA,090928.00,4821.18771418,N,00429.62010853,W,1,05,2.87,160.00,M,-21.3213,M,,*68
$GPGGA,090929.00,4821.18643655,N,00429.62038085,W,1,05,2.87,160.00,M,-21.3213,M,,*6B
$GPGGA,090930.00,4821.18506517,N,00429.62067315,W,1,05,2.87,160.00,M,-21.3213,M,,*64
$GPGGA,090931.00,4821.18381375,N,00429.62093988,W,1,05,2.87,160.00,M,-21.3213,M,,*6B
$GPGGA,090932.00,4821.18246857,N,00429.62122660,W,1,05,2.87,160.00,M,-21.3213,M,,*6B
$GPGGA,090933.00,4821.18113649,N,00429.62151052,W,1,05,2.87,160.00,M,-21.3213,M,,*6B
$GPGGA,090934.00,4821.17981751,N,00429.62179166,W,1,05,2.87,160.00,M,-21.3213,M,,*64
$GPGGA,090935.00,4821.17840478,N,00429.62209277,W,1,05,2.87,160.00,M,-21.3213,M,,*66
$GPGGA,090936.00,4821.17700515,N,00429.62239110,W,1,05,2.87,160.00,M,-21.3213,M,,*65
$GPGGA,090937.00,4821.17561863,N,00429.62268663,W,1,05,2.87,160.00,M,-21.3213,M,,*6A
$GPGGA,090938.00,4821.17424520,N,00429.62297937,W,1,05,2.87,160.00,M,-21.3213,M,,*61
$GPGGA,090939.00,4821.17277802,N,00429.62329210,W,1,05,2.87,160.00,M,-21.3213,M,,*67
$GPGGA,090940.00,4821.17143079,N,00429.62357925,W,1,05,2.87,160.00,M,-21.3213,M,,*6D
$GPGGA,090941.00,4821.16988296,N,00429.62390917,W,1,05,2.87,160.00,M,-21.3213,M,,*6B
$GPGGA,090942.00,4821.16845509,N,00429.62421351,W,1,05,2.87,160.00,M,-21.3213,M,,*6C
$GPGGA,090943.00,4821.16704031,N,00429.62451507,W,1,05,2.87,160.00,M,-21.3213,M,,*6B
$GPGGA,090944.00,4821.16553178,N,00429.62483660,W,1,05,2.87,160.00,M,-21.3213,M,,*6D
$GPGGA,090945.00,4821.16403636,N,00429.62515535,W,1,05,2.87,160.00,M,-21.3213,M,,*68
$GPGGA,090946.00,4821.16255403,N,00429.62547130,W,1,05,2.87,160.00,M,-21.3213,M,,*6C
$GPGGA,090947.00,4821.16097796,N,00429.62580723,W,1,05,2.87,160.00,M,-21.3213,M,,*61
$GPGGA,090948.00,4821.15941498,N,00429.62614037,W,1,05,2.87,160.00,M,-21.3213,M,,*6E
$GPGGA,090949.00,4821.15786510,N,00429.62647072,W,1,05,2.87,160.00,M,-21.3213,M,,*6C
$GPGGA,090950.00,4821.15632833,N,00429.62679828,W,1,05,2.87,160.00,M,-21.3213,M,,*6C
$GPGGA,090951.00,4821.15480466,N,00429.62712304,W,1,05,2.87,160.00,M,-21.3213,M,,*63
$GPGGA,090952.00,4821.15318723,N,00429.62746778,W,1,05,2.87,160.00,M,-21.3213,M,,*6A
$GPGGA,090953.00,4821.15158291,N,00429.62780973,W,1,05,2.87,160.00,M,-21.3213,M,,*6E
$GPGGA,090954.00,4821.14999169,N,00429.62814889,W,1,05,2.87,160.00,M,-21.3213,M,,*6F
$GPGGA,090955.00,4821.14830671,N,00429.62850804,W,1,05,2.87,160.00,M,-21.3213,M,,*67
$GPGGA,090956.00,4821.14674169,N,00429.62884161,W,1,05,2.87,160.00,M,-21.3213,M,,*67
$GPGGA,090957.00,4821.14508292,N,00429.62919517,W,1,05,2.87,160.00,M,-21.3213,M,,*69
$GPGGA,090958.00,4821.14333039,N,00429.62956870,W,1,05,2.87,160.00,M,-21.3213,M,,*6C
$GPGGA,090959.00,4821.14169782,N,00429.62991667,W,1,05,2.87,160.00,M,-21.3213,M,,*64
$GPGGA,091000.00,4821.13997111,N,00429.63028471,W,1,05,2.87,160.00,M,-21.3213,M,,*6D
$GPGGA,091001.00,4821.13825598,N,00429.63065028,W,1,05,2.87,160.00,M,-21.3213,M,,*60
$GPGGA,091002.00,4821.13655110,N,00429.63101366,W,1,05,2.87,160.00,M,-21.3213,M,,*64
$GPGGA,091003.00,4821.13485516,N,00429.63137513,W,1,05,2.87,160.00,M,-21.3213,M,,*69
$GPGGA,091004.00,4821.13316685,N,00429.63173498,W,1,05,2.87,160.00,M,-21.3213,M,,*68
$GPGGA,091005.00,4821.13137802,N,00429.63211625,W,1,05,2.87,160.00,M,-21.3213,M,,*6A
$GPGGA,091006.00,4821.12970106,N,00429.63247368,W,1,05,2.87,160.00,M,-21.3213,M,,*61
$GPGGA,091007.00,4821.12792094,N,00429.63285310,W,1,05,2.87,160.00,M,-21.3213,M,,*69
$GPGGA,091008.00,4821.12614322,N,00429.63323200,W,1,05,2.87,160.00,M,-21.3213,M,,*6A
$GPGGA,091009.00,4821.12436658,N,00429.63361068,W,1,05,2.87,160.00,M,-21.3213,M,,*6B
$GPGGA,091010.00,4821.12269692,N,00429.63396655,W,1,05,2.87,160.00,M,-21.3213,M,,*69
$GPGGA,091011.00,4821.12092040,N,00429.63434519,W,1,05,2.87,160.00,M,-21.3213,M,,*63
$GPGGA,091012.00,4821.11914389,N,00429.63472384,W,1,05,2.87,160.00,M,-21.3213,M,,*62
$GPGGA,091013.00,4821.11736738,N,00429.63510248,W,1,05,2.87,160.00,M,-21.3213,M,,*67
$GPGGA,091014.00,4821.11569771,N,00429.63545835,W,1,05,2.87,160.00,M,-21.3213,M,,*65
$GPGGA,091015.00,4821.11392470,N,00429.63583625,W,1,05,2.87,160.00,M,-21.3213,M,,*61
$GPGGA,091016.00,4821.11214818,N,00429.63621489,W,1,05,2.87,160.00,M,-21.3213,M,,*60
$GPGGA,091017.00,4821.11037167,N,00429.63659354,W,1,05,2.87,160.00,M,-21.3213,M,,*6B
$GPGGA,091018.00,4821.10870201,N,00429.63694941,W,1,05,2.87,160.00,M,-21.3213,M,,*62
$GPGGA,091019.00,4821.10692516,N,00429.63732812,W,1,05,2.87,160.00,M,-21.3213,M,,*6A
$GPGGA,091020.00,4821.10514681,N,00429.63770715,W,1,05,2.87,160.00,M,-21.3213,M,,*6E
$GPGGA,091021.00,4821.10347250,N,00429.63806401,W,1,05,2.87,160.00,M,-21.3213,M,,*6F
$GPGGA,091022.00,4821.10168721,N,00429.63844452,W,1,05,2.87,160.00,M,-21.3213,M,,*60
$GPGGA,091023.00,4821.09989648,N,00429.63882619,W,1,05,2.87,160.00,M,-21.3213,M,,*67
$GPGGA,091024.00,4821.09820586,N,00429.63918652,W,1,05,2.87,160.00,M,-21.3213,M,,*6E
$GPGGA,091025.00,4821.09650719,N,00429.63954857,W,1,05,2.87,160.00,M,-21.3213,M,,*61
$GPGGA,091026.00,4821.09479914,N,00429.63991262,W,1,05,2.87,160.00,M,-21.3213,M,,*6D
$GPGGA,091027.00,4821.09308043,N,00429.64027894,W,1,05,2.87,160.00,M,-21.3213,M,,*66
$GPGGA,091028.00,4821.09134972,N,00429.64064781,W,1,05,2.87,160.00,M,-21.3213,M,,*63
$GPGGA,091029.00,4821.08971288,N,00429.64099668,W,1,05,2.87,160.00,M,-21.3213,M,,*60
$GPGGA,091030.00,4821.08806293,N,00429.64134834,W,1,05,2.87,160.00,M,-21.3213,M,,*62
$GPGGA,091031.00,4821.08639989,N,00429.64170280,W,1,05,2.87,160.00,M,-21.3213,M,,*64
$GPGGA,091032.00,4821.08472374,N,00429.64206004,W,1,05,2.87,160.00,M,-21.3213,M,,*6E
$GPGGA,091033.00,4821.08314135,N,00429.64239730,W,1,05,2.87,160.00,M,-21.3213,M,,*63
$GPGGA,091034.00,4821.08154585,N,00429.64273736,W,1,05,2.87,160.00,M,-21.3213,M,,*65
$GPGGA,091035.00,4821.07993726,N,00429.64308020,W,1,05,2.87,160.00,M,-21.3213,M,,*6E
$GPGGA,091036.00,4821.07831556,N,00429.64342584,W,1,05,2.87,160.00,M,-21.3213,M,,*64
$GPGGA,091037.00,4821.07678761,N,00429.64375150,W,1,05,2.87,160.00,M,-21.3213,M,,*69
$GPGGA,091038.00,4821.07524657,N,00429.64407995,W,1,05,2.87,160.00,M,-21.3213,M,,*6B
$GPGGA,091039.00,4821.07369242,N,00429.64441119,W,1,05,2.87,160.00,M,-21.3213,M,,*6B
$GPGGA,091040.00,4821.07212517,N,00429.64474522,W,1,05,2.87,160.00,M,-21.3213,M,,*65
$GPGGA,091041.00,4821.07065167,N,00429.64505927,W,1,05,2.87,160.00,M,-21.3213,M,,*6B
$GPGGA,091042.00,4821.06916508,N,00429.64537611,W,1,05,2.87,160.00,M,-21.3213,M,,*62
$GPGGA,091043.00,4821.06766538,N,00429.64569575,W,1,05,2.87,160.00,M,-21.3213,M,,*63
$GPGGA,091044.00,4821.06615258,N,00429.64601817,W,1,05,2.87,160.00,M,-21.3213,M,,*64
$GPGGA,091045.00,4821.06473353,N,00429.64632062,W,1,05,2.87,160.00,M,-21.3213,M,,*67
$GPGGA,091046.00,4821.06319453,N,00429.64664863,W,1,05,2.87,160.00,M,-21.3213,M,,*62
$GPGGA,091047.00,4821.06174928,N,00429.64695665,W,1,05,2.87,160.00,M,-21.3213,M,,*6D
$GPGGA,091048.00,4821.06039778,N,00429.64724470,W,1,05,2.87,160.00,M,-21.3213,M,,*6C
$GPGGA,091049.00,4821.05892633,N,00429.64755831,W,1,05,2.87,160.00,M,-21.3213,M,,*66
$GPGGA,091050.00,4821.05754863,N,00429.64785194,W,1,05,2.87,160.00,M,-21.3213,M,,*6B
$GPGGA,091051.00,4821.05615783,N,00429.64814837,W,1,05,2.87,160.00,M,-21.3213,M,,*68
$GPGGA,091052.00,4821.05475393,N,00429.64844758,W,1,05,2.87,160.00,M,-21.3213,M,,*69
$GPGGA,091053.00,4821.05344378,N,00429.64872682,W,1,05,2.87,160.00,M,-21.3213,M,,*6B
$GPGGA,091054.00,4821.05212053,N,00429.64900884,W,1,05,2.87,160.00,M,-21.3213,M,,*68
$GPGGA,091055.00,4821.05078418,N,00429.64929366,W,1,05,2.87,160.00,M,-21.3213,M,,*60
$GPGGA,091056.00,4821.04943473,N,00429.64958128,W,1,05,2.87,160.00,M,-21.3213,M,,*60
$GPGGA,091057.00,4821.04807218,N,00429.64987168,W,1,05,2.87,160.00,M,-21.3213,M,,*6D
$GPGGA,091058.00,4821.04680338,N,00429.65014211,W,1,05,2.87,160.00,M,-21.3213,M,,*6F
$GPGGA,091059.00,4821.04552148,N,00429.65041532,W,1,05,2.87,160.00,M,-21.3213,M,,*61
$GPGGA,091100.00,4821.04422649,N,00429.65069134,W,1,05,2.87,160.00,M,-21.3213,M,,*64
$GPGGA,091101.00,4821.04302524,N,00429.65094737,W,1,05,2.87,160.00,M,-21.3213,M,,*6F
$GPGGA,091102.00,4821.04181090,N,00429.65120620,W,1,05,2.87,160.00,M,-21.3213,M,,*66
$GPGGA,091103.00,4821.04058346,N,00429.65146782,W,1,05,2.87,160.00,M,-21.3213,M,,*63
$GPGGA,091104.00,4821.03934293,N,00429.65173224,W,1,05,2.87,160.00,M,-21.3213,M,,*66
$GPGGA,091105.00,4821.03808929,N,00429.65199946,W,1,05,2.87,160.00,M,-21.3213,M,,*68
$GPGGA,091106.00,4821.03692942,N,00429.65224670,W,1,05,2.87,160.00,M,-21.3213,M,,*64
$GPGGA,091107.00,4821.03575645,N,00429.65249674,W,1,05,2.87,160.00,M,-21.3213,M,,*68
$GPGGA,091108.00,4821.03457039,N,00429.65274959,W,1,05,2.87,160.00,M,-21.3213,M,,*65
$GPGGA,091109.00,4821.03347809,N,00429.65298246,W,1,05,2.87,160.00,M,-21.3213,M,,*6E
$GPGGA,091110.00,4821.03226585,N,00429.65324092,W,1,05,2.87,160.00,M,-21.3213,M,,*64
$GPGGA,091111.00,4821.03114738,N,00429.65347942,W,1,05,2.87,160.00,M,-21.3213,M,,*62
$GPGGA,091112.00,4821.03001583,N,00429.65372072,W,1,05,2.87,160.00,M,-21.3213,M,,*6A
$GPGGA,091113.00,4821.02897805,N,00429.65394207,W,1,05,2.87,160.00,M,-21.3213,M,,*66
$GPGGA,091114.00,4821.02792719,N,00429.65416623,W,1,05,2.87,160.00,M,-21.3213,M,,*66
$GPGGA,091115.00,4821.02675642,N,00429.65441603,W,1,05,2.87,160.00,M,-21.3213,M,,*60
$GPGGA,091116.00,4821.02578628,N,00429.65462307,W,1,05,2.87,160.00,M,-21.3213,M,,*61
$GPGGA,091117.00,4821.02469625,N,00429.65485577,W,1,05,2.87,160.00,M,-21.3213,M,,*64
$GPGGA,091118.00,4821.02370001,N,00429.65506852,W,1,05,2.87,160.00,M,-21.3213,M,,*64
$GPGGA,091119.00,4821.02269074,N,00429.65528414,W,1,05,2.87,160.00,M,-21.3213,M,,*6C
$GPGGA,091120.00,4821.02166845,N,00429.65550265,W,1,05,2.87,160.00,M,-21.3213,M,,*6F
$GPGGA,091121.00,4821.02063316,N,00429.65572408,W,1,05,2.87,160.00,M,-21.3213,M,,*6A
$GPGGA,091122.00,4821.01969169,N,00429.65592558,W,1,05,2.87,160.00,M,-21.3213,M,,*69
$GPGGA,091123.00,4821.01873726,N,00429.65613004,W,1,05,2.87,160.00,M,-21.3213,M,,*69
$GPGGA,091124.00,4821.01776988,N,00429.65633747,W,1,05,2.87,160.00,M,-21.3213,M,,*6C
$GPGGA,091125.00,4821.01678958,N,00429.65654793,W,1,05,2.87,160.00,M,-21.3213,M,,*67
$GPGGA,091126.00,4821.01590317,N,00429.65673850,W,1,05,2.87,160.00,M,-21.3213,M,,*65
$GPGGA,091127.00,4821.01489715,N,00429.65695515,W,1,05,2.87,160.00,M,-21.3213,M,,*6F
$GPGGA,091128.00,4821.01409180,N,00429.65712892,W,1,05,2.87,160.00,M,-21.3213,M,,*6E
$GPGGA,091129.00,4821.01316693,N,00429.65732891,W,1,05,2.87,160.00,M,-21.3213,M,,*62
$GPGGA,091130.00,4821.01222936,N,00429.65753221,W,1,05,2.87,160.00,M,-21.3213,M,,*6A
$GPGGA,091131.00,4821.01138581,N,00429.65771569,W,1,05,2.87,160.00,M,-21.3213,M,,*68
$GPGGA,091132.00,4821.01052964,N,00429.65790258,W,1,05,2.87,160.00,M,-21.3213,M,,*6B
$GPGGA,091133.00,4821.00976750,N,00429.65806958,W,1,05,2.87,160.00,M,-21.3213,M,,*66
$GPGGA,091134.00,4821.00888633,N,00429.65826357,W,1,05,2.87,160.00,M,-21.3213,M,,*62
$GPGGA,091135.00,4821.00809930,N,00429.65843777,W,1,05,2.87,160.00,M,-21.3213,M,,*63
$GPGGA,091136.00,4821.00729996,N,00429.65861575,W,1,05,2.87,160.00,M,-21.3213,M,,*61
