$GPGGA,090000.00,4821.38098541,N,00430.30573026,W,1,05,2.87,160.00,M,-21.3213,M,,*61
$GPGGA,090000.05,4821.38098541,N,00430.30573026,W,1,05,2.87,160.00,M,-21.3213,M,,*64
$GPGGA,090000.10,4821.38098541,N,00430.30573026,W,1,05,2.87,160.00,M,-21.3213,M,,*60
$GPGGA,090000.15,4821.38098541,N,00430.30573026,W,1,05,2.87,160.00,M,-21.3213,M,,*65
$GPGGA,090000.20,4821.38098541,N,00430.30573026,W,1,05,2.87,160.00,M,-21.3213,M,,*63
$GPGGA,090000.25,4821.38098541,N,00430.30573026,W,1,05,2.87,160.00,M,-21.3213,M,,*66
$GPGGA,090000.30,4821.38098541,N,00430.30573026,W,1,05,2.87,160.00,M,-21.3213,M,,*62
$GPGGA,090000.35,4821.38098541,N,00430.30573026,W,1,05,2.87,160.00,M,-21.3213,M,,*67
$GPGGA,090000.40,4821.38098541,N,00430.30573026,W,1,05,2.87,160.00,M,-21.3213,M,,*65
$GPGGA,090000.45,4821.38098541,N,00430.30573026,W,1,05,2.87,160.00,M,-21.3213,M,,*60
$GPGGA,090000.50,4821.38098541,N,00430.30573026,W,1,05,2.87,160.00,M,-21.3213,M,,*64
$GPGGA,090000.55,4821.38098541,N,00430.30573026,W,1,05,2.87,160.00,M,-21.3213,M,,*61
$GPGGA,090000.60,4821.38098541,N,00430.30573026,W,1,05,2.87,160.00,M,-21.3213,M,,*67
$GPGGA,090000.65,4821.38098541,N,00430.30573026,W,1,05,2.87,160.00,M,-21.3213,M,,*62
$GPGGA,090000.70,4821.38098541,N,00430.30573026,W,1,05,2.87,160.00,M,-21.3213,M,,*66
$GPGGA,090000.75,4821.38098541,N,00430.30573026,W,1,05,2.87,160.00,M,-21.3213,M,,*63
$GPGGA,090000.80,4821.38098541,N,00430.30573026,W,1,05,2.87,160.00,M,-21.3213,M,,*69
$GPGGA,090000.85,4821.38098541,N,00430.30573026,W,1,05,2.87,160.00,M,-21.3213,M,,*6C
$GPGGA,090000.90,4821.38098541,N,00430.30573026,W,1,05,2.87,160.00,M,-21.3213,M,,*68
$GPGGA,090000.95,4821.38098541,N,00430.30573026,W,1,05,2.87,160.00,M,-21.3213,M,,*6D
$GPGGA,090001.00,4821.38098541,N,00430.30573026,W,1,05,2.87,160.00,M,-21.3213,M,,*60
$GPGGA,090001.05,4821.38098541,N,00430.30573026,W,1,05,2.87,160.00,M,-21.3213,M,,*65
$GPGGA,090001.10,4821.38098541,N,00430.30573026,W,1,05,2.87,160.00,M,-21.3213,M,,*61
$GPGGA,090001.15,4821.38098541,N,00430.30573026,W,1,05,2.87,160.00,M,-21.3213,M,,*64
$GPGGA,090001.20,4821.38098541,N,00430.30573026,W,1,05,2.87,160.00,M,-21.3213,M,,*62
$GPGGA,090001.25,4821.38098541,N,00430.30573026,W,1,05,2.87,160.00,M,-21.3213,M,,*67
$GPGGA,090001.30,4821.38098541,N,00430.30573026,W,1,05,2.87,160.00,M,-21.3213,M,,*63
$GPGGA,090001.35,4821.38098541,N,00430.30573026,W,1,05,2.87,160.00,M,-21.3213,M,,*66
$GPGGA,090001.40,4821.38098541,N,00430.30573026,W,1,05,2.87,160.00,M,-21.3213,M,,*64
$GPGGA,090001.45,4821.38098541,N,00430.30573026,W,1,05,2.87,160.00,M,-21.3213,M,,*61
$GPGGA,090001.50,4821.38098541,N,00430.30573026,W,1,05,2.87,160.00,M,-21.3213,M,,*65
$GPGGA,090001.55,4821.38098541,N,00430.30573026,W,1,05,2.87,160.00,M,-21.3213,M,,*60
$GPGGA,090001.60,4821.38098541,N,00430.30573026,W,1,05,2.87,160.00,M,-21.3213,M,,*66
$GPGGA,090001.65,4821.38098541,N,00430.30573026,W,1,05,2.87,160.00,M,-21.3213,M,,*63
$GPGGA,090001.70,4821.38098541,N,00430.30573026,W,1,05,2.87,160.00,M,-21.3213,M,,*67
$GPGGA,090001.75,4821.38098541,N,00430.30573026,W,1,05,2.87,160.00,M,-21.3213,M,,*62
$GPGGA,090001.80,4821.38098541,N,00430.30573026,W,1,05,2.87,160.00,M,-21.3213,M,,*68
$GPGGA,090001.85,4821.38098541,N,00430.30573026,W,1,05,2.87,160.00,M,-21.3213,M,,*6D
$GPGGA,090001.90,4821.38098541,N,00430.30573026,W,1,05,2.87,160.00,M,-21.3213,M,,*69
$GPGGA,090001.95,4821.38098541,N,00430.30573026,W,1,05,2.87,160.00,M,-21.3213,M,,*6C
$GPGGA,090002.00,4821.38098541,N,00430.30573026,W,1,05,2.87,160.00,M,-21.3213,M,,*63
$GPGGA,090002.05,4821.38098541,N,00430.30573026,W,1,05,2.87,160.00,M,-21.3213,M,,*66
$GPGGA,090002.10,4821.38098541,N,00430.30573026,W,1,05,2.87,160.00,M,-21.3213,M,,*62
$GPGGA,090002.15,4821.38098541,N,00430.30573026,W,1,05,2.87,160.00,M,-21.3213,M,,*67
$GPGGA,090002.20,4821.38098541,N,00430.30573026,W,1,05,2.87,160.00,M,-21.3213,M,,*61
$GPGGA,090002.25,4821.38098541,N,00430.30573026,W,1,05,2.87,160.00,M,-21.3213,M,,*64
$GPGGA,090002.30,4821.38098541,N,00430.30573026,W,1,05,2.87,160.00,M,-21.3213,M,,*60
$GPGGA,090002.35,4821.38098541,N,00430.30573026,W,1,05,2.87,160.00,M,-21.3213,M,,*65
$GPGGA,090002.40,4821.38098541,N,00430.30573026,W,1,05,2.87,160.00,M,-21.3213,M,,*67
$GPGGA,090002.45,4821.38098541,N,00430.30573026,W,1,05,2.87,160.00,M,-21.3213,M,,*62
$GPGGA,090002.50,4821.38098541,N,00430.30573026,W,1,05,2.87,160.00,M,-21.3213,M,,*66
$GPGGA,090002.55,4821.38098541,N,00430.30573026,W,1,05,2.87,160.00,M,-21.3213,M,,*63
$GPGGA,090002.60,4821.38098541,N,00430.30573026,W,1,05,2.87,160.00,M,-21.3213,M,,*65
$GPGGA,090002.65,4821.38098541,N,00430.30573026,W,1,05,2.87,160.00,M,-21.3213,M,,*60
$GPGGA,090002.70,4821.38098541,N,00430.30573026,W,1,05,2.87,160.00,M,-21.3213,M,,*64
$GPGGA,090002.75,4821.38098541,N,00430.30573026,W,1,05,2.87,160.00,M,-21.3213,M,,*61
$GPGGA,090002.80,4821.38098541,N,00430.30573026,W,1,05,2.87,160.00,M,-21.3213,M,,*6B
$GPGGA,090002.85,4821.38098541,N,00430.30573026,W,1,05,2.87,160.00,M,-21.3213,M,,*6E
$GPGGA,090002.90,4821.38098541,N,00430.30573026,W,1,05,2.87,160.00,M,-21.3213,M,,*6A
$GPGGA,090002.95,4821.38098541,N,00430.30573026,W,1,05,2.87,160.00,M,-21.3213,M,,*6F
$GPGGA,090003.00,4821.38098541,N,00430.30573026,W,1,05,2.87,160.00,M,-21.3213,M,,*62
$GPGGA,090003.05,4821.38098541,N,00430.30573026,W,1,05,2.87,160.00,M,-21.3213,M,,*67
$GPGGA,090003.10,4821.38098541,N,00430.30573026,W,1,05,2.87,160.00,M,-21.3213,M,,*63
$GPGGA,090003.15,4821.38098541,N,00430.30573026,W,1,05,2.87,160.00,M,-21.3213,M,,*66
$GPGGA,090003.20,4821.38098541,N,00430.30573026,W,1,05,2.87,160.00,M,-21.3213,M,,*60
$GPGGA,090003.25,4821.38098541,N,00430.30573026,W,1,05,2.87,160.00,M,-21.3213,M,,*65
$GPGGA,090003.30,4821.38098541,N,00430.30573026,W,1,05,2.87,160.00,M,-21.3213,M,,*61
$GPGGA,090003.35,4821.38098541,N,00430.30573026,W,1,05,2.87,160.00,M,-21.3213,M,,*64
$GPGGA,090003.40,4821.38098541,N,00430.30573026,W,1,05,2.87,160.00,M,-21.3213,M,,*66
$GPGGA,090003.45,4821.38098541,N,00430.30573026,W,1,05,2.87,160.00,M,-21.3213,M,,*63
$GPGGA,090003.50,4821.38098541,N,00430.30573026,W,1,05,2.87,160.00,M,-21.3213,M,,*67
$GPGGA,090003.55,4821.38098541,N,00430.30573026,W,1,05,2.87,160.00,M,-21.3213,M,,*62
$GPGGA,090003.60,4821.38098541,N,00430.30573026,W,1,05,2.87,160.00,M,-21.3213,M,,*64
$GPGGA,090003.65,4821.38098541,N,00430.30573026,W,1,05,2.87,160.00,M,-21.3213,M,,*61
$GPGGA,090003.70,4821.38098541,N,00430.30573026,W,1,05,2.87,160.00,M,-21.3213,M,,*65
$GPGGA,090003.75,4821.38098541,N,00430.30573026,W,1,05,2.87,160.00,M,-21.3213,M,,*60
$GPGGA,090003.80,4821.38098541,N,00430.30573026,W,1,05,2.87,160.00,M,-21.3213,M,,*6A
$GPGGA,090003.85,4821.38098541,N,00430.30573026,W,1,05,2.87,160.00,M,-21.3213,M,,*6F
$GPGGA,090003.90,4821.38098541,N,00430.30573026,W,1,05,2.87,160.00,M,-21.3213,M,,*6B
$GPGGA,090003.95,4821.38098541,N,00430.30573026,W,1,05,2.87,160.00,M,-21.3213,M,,*6E
$GPGGA,090004.00,4821.38098541,N,00430.30573026,W,1,05,2.87,160.00,M,-21.3213,M,,*65
$GPGGA,090004.05,4821.38098541,N,00430.30573026,W,1,05,2.87,160.00,M,-21.3213,M,,*60
$GPGGA,090004.10,4821.38098541,N,00430.30573026,W,1,05,2.87,160.00,M,-21.3213,M,,*64
$GPGGA,090004.15,4821.38098541,N,00430.30573026,W,1,05,2.87,160.00,M,-21.3213,M,,*61
$GPGGA,090004.20,4821.38098541,N,00430.30573026,W,1,05,2.87,160.00,M,-21.3213,M,,*67
$GPGGA,090004.25,4821.38098541,N,00430.30573026,W,1,05,2.87,160.00,M,-21.3213,M,,*62
$GPGGA,090004.30,4821.38098541,N,00430.30573026,W,1,05,2.87,160.00,M,-21.3213,M,,*66
$GPGGA,090004.35,4821.38098541,N,00430.30573026,W,1,05,2.87,160.00,M,-21.3213,M,,*63
$GPGGA,090004.40,4821.38098541,N,00430.30573026,W,1,05,2.87,160.00,M,-21.3213,M,,*61
$GPGGA,090004.45,4821.38098541,N,00430.30573026,W,1,05,2.87,160.00,M,-21.3213,M,,*64
$GPGGA,090004.50,4821.38098541,N,00430.30573026,W,1,05,2.87,160.00,M,-21.3213,M,,*60
$GPGGA,090004.55,4821.38098541,N,00430.30573026,W,1,05,2.87,160.00,M,-21.3213,M,,*65
$GPGGA,090004.60,4821.38098541,N,00430.30573026,W,1,05,2.87,160.00,M,-21.3213,M,,*63
$GPGGA,090004.65,4821.38098541,N,00430.30573026,W,1,05,2.87,160.00,M,-21.3213,M,,*66
$GPGGA,090004.70,4821.38098541,N,00430.30573026,W,1,05,2.87,160.00,M,-21.3213,M,,*62
$GPGGA,090004.75,4821.38098541,N,00430.30573026,W,1,05,2.87,160.00,M,-21.3213,M,,*67
$GPGGA,090004.80,4821.38098541,N,00430.30573026,W,1,05,2.87,160.00,M,-21.3213,M,,*6D
$GPGGA,090004.85,4821.38098541,N,00430.30573026,W,1,05,2.87,160.00,M,-21.3213,M,,*68
$GPGGA,090004.90,4821.38098541,N,00430.30573026,W,1,05,2.87,160.00,M,-21.3213,M,,*6C
$GPGGA,090004.95,4821.38098541,N,00430.30573026,W,1,05,2.87,160.00,M,-21.3213,M,,*69
$GPGGA,090005.00,4821.38098541,N,00430.30573026,W,1,05,2.87,160.00,M,-21.3213,M,,*64
$GPGGA,090005.05,4821.38098541,N,00430.30573026,W,1,05,2.87,160.00,M,-21.3213,M,,*61
$GPGGA,090005.10,4821.38098541,N,00430.30573026,W,1,05,2.87,160.00,M,-21.3213,M,,*65
$GPGGA,090005.15,4821.38098541,N,00430.30573026,W,1,05,2.87,160.00,M,-21.3213,M,,*60
$GPGGA,090005.20,4821.38098541,N,00430.30573026,W,1,05,2.87,160.00,M,-21.3213,M,,*66
$GPGGA,090005.25,4821.38098541,N,00430.30573026,W,1,05,2.87,160.00,M,-21.3213,M,,*63
$GPGGA,090005.30,4821.38098541,N,00430.30573026,W,1,05,2.87,160.00,M,-21.3213,M,,*67
$GPGGA,090005.35,4821.38098541,N,00430.30573026,W,1,05,2.87,160.00,M,-21.3213,M,,*62
$GPGGA,090005.40,4821.38098541,N,00430.30573026,W,1,05,2.87,160.00,M,-21.3213,M,,*60
$GPGGA,090005.45,4821.38098541,N,00430.30573026,W,1,05,2.87,160.00,M,-21.3213,M,,*65
$GPGGA,090005.50,4821.38098541,N,00430.30573026,W,1,05,2.87,160.00,M,-21.3213,M,,*61
$GPGGA,090005.55,4821.38098541,N,00430.30573026,W,1,05,2.87,160.00,M,-21.3213,M,,*64
$GPGGA,090005.60,4821.38098541,N,00430.30573026,W,1,05,2.87,160.00,M,-21.3213,M,,*62
$GPGGA,090005.65,4821.38098541,N,00430.30573026,W,1,05,2.87,160.00,M,-21.3213,M,,*67
$GPGGA,090005.70,4821.38098541,N,00430.30573026,W,1,05,2.87,160.00,M,-21.3213,M,,*63
$GPGGA,090005.75,4821.38098541,N,00430.30573026,W,1,05,2.87,160.00,M,-21.3213,M,,*66
$GPGGA,090005.80,4821.38098541,N,00430.30573026,W,1,05,2.87,160.00,M,-21.3213,M,,*6C
$GPGGA,090005.85,4821.38098541,N,00430.30573026,W,1,05,2.87,160.00,M,-21.3213,M,,*69
$GPGGA,090005.90,4821.38098541,N,00430.30573026,W,1,05,2.87,160.00,M,-21.3213,M,,*6D
$GPGGA,090005.95,4821.38098541,N,00430.30573026,W,1,05,2.87,160.00,M,-21.3213,M,,*68
$GPGGA,090006.00,4821.38098541,N,00430.30573026,W,1,05,2.87,160.00,M,-21.3213,M,,*67
$GPGGA,090006.05,4821.38098541,N,00430.30573026,W,1,05,2.87,160.00,M,-21.3213,M,,*62
$GPGGA,090006.10,4821.38098541,N,00430.30573026,W,1,05,2.87,160.00,M,-21.3213,M,,*66
$GPGGA,090006.15,4821.38098541,N,00430.30573026,W,1,05,2.87,160.00,M,-21.3213,M,,*63
$GPGGA,090006.20,4821.38098541,N,00430.30573026,W,1,05,2.87,160.00,M,-21.3213,M,,*65
$GPGGA,090006.25,4821.38098541,N,00430.30573026,W,1,05,2.87,160.00,M,-21.3213,M,,*60
$GPGGA,090006.30,4821.38098541,N,00430.30573026,W,1,05,2.87,160.00,M,-21.3213,M,,*64
$GPGGA,090006.35,4821.38098541,N,00430.30573026,W,1,05,2.87,160.00,M,-21.3213,M,,*61
$GPGGA,090006.40,4821.38098541,N,00430.30573026,W,1,05,2.87,160.00,M,-21.3213,M,,*63
$GPGGA,090006.45,4821.38098541,N,00430.30573026,W,1,05,2.87,160.00,M,-21.3213,M,,*66
$GPGGA,090006.50,4821.38098541,N,00430.30573026,W,1,05,2.87,160.00,M,-21.3213,M,,*62
$GPGGA,090006.55,4821.38098541,N,00430.30573026,W,1,05,2.87,160.00,M,-21.3213,M,,*67
$GPGGA,090006.60,4821.38098541,N,00430.30573026,W,1,05,2.87,160.00,M,-21.3213,M,,*61
$GPGGA,090006.65,4821.38098541,N,00430.30573026,W,1,05,2.87,160.00,M,-21.3213,M,,*64
$GPGGA,090006.70,4821.38098541,N,00430.30573026,W,1,05,2.87,160.00,M,-21.3213,M,,*60
$GPGGA,090006.75,4821.38098541,N,00430.30573026,W,1,05,2.87,160.00,M,-21.3213,M,,*65
$GPGGA,090006.80,4821.38098541,N,00430.30573026,W,1,05,2.87,160.00,M,-21.3213,M,,*6F
$GPGGA,090006.85,4821.38098541,N,00430.30573026,W,1,05,2.87,160.00,M,-21.3213,M,,*6A
$GPGGA,090006.90,4821.38098541,N,00430.30573026,W,1,05,2.87,160.00,M,-21.3213,M,,*6E
$GPGGA,090006.95,4821.38098541,N,00430.30573026,W,1,05,2.87,160.00,M,-21.3213,M,,*6B
$GPGGA,090007.00,4821.38098541,N,00430.30573026,W,1,05,2.87,160.00,M,-21.3213,M,,*66
$GPGGA,090007.05,4821.38098541,N,00430.30573026,W,1,05,2.87,160.00,M,-21.3213,M,,*63
$GPGGA,090007.10,4821.38098541,N,00430.30573026,W,1,05,2.87,160.00,M,-21.3213,M,,*67
$GPGGA,090007.15,4821.38098541,N,00430.30573026,W,1,05,2.87,160.00,M,-21.3213,M,,*62
$GPGGA,090007.20,4821.38098541,N,00430.30573026,W,1,05,2.87,160.00,M,-21.3213,M,,*64
$GPGGA,090007.25,4821.38098541,N,00430.30573026,W,1,05,2.87,160.00,M,-21.3213,M,,*61
$GPGGA,090007.30,4821.38098541,N,00430.30573026,W,1,05,2.87,160.00,M,-21.3213,M,,*65
$GPGGA,090007.35,4821.38098541,N,00430.30573026,W,1,05,2.87,160.00,M,-21.3213,M,,*60
$GPGGA,090007.40,4821.38098541,N,00430.30573026,W,1,05,2.87,160.00,M,-21.3213,M,,*62
$GPGGA,090007.45,4821.38098541,N,00430.30573026,W,1,05,2.87,160.00,M,-21.3213,M,,*67
$GPGGA,090007.50,4821.38098541,N,00430.30573026,W,1,05,2.87,160.00,M,-21.3213,M,,*63
$GPGGA,090007.55,4821.38098541,N,00430.30573026,W,1,05,2.87,160.00,M,-21.3213,M,,*66
$GPGGA,090007.60,4821.38098541,N,00430.30573026,W,1,05,2.87,160.00,M,-21.3213,M,,*60
$GPGGA,090007.65,4821.38098541,N,00430.30573026,W,1,05,2.87,160.00,M,-21.3213,M,,*65
$GPGGA,090007.70,4821.38098541,N,00430.30573026,W,1,05,2.87,160.00,M,-21.3213,M,,*61
$GPGGA,090007.75,4821.38098541,N,00430.30573026,W,1,05,2.87,160.00,M,-21.3213,M,,*64
$GPGGA,090007.80,4821.38098541,N,00430.30573026,W,1,05,2.87,160.00,M,-21.3213,M,,*6E
$GPGGA,090007.85,4821.38098541,N,00430.30573026,W,1,05,2.87,160.00,M,-21.3213,M,,*6B
$GPGGA,090007.90,4821.38098541,N,00430.30573026,W,1,05,2.87,160.00,M,-21.3213,M,,*6F
$GPGGA,090007.95,4821.38098541,N,00430.30573026,W,1,05,2.87,160.00,M,-21.3213,M,,*6A
$GPGGA,090008.00,4821.38098541,N,00430.30573026,W,1,05,2.87,160.00,M,-21.3213,M,,*69
$GPGGA,090008.05,4821.38098541,N,00430.30573026,W,1,05,2.87,160.00,M,-21.3213,M,,*6C
$GPGGA,090008.10,4821.38098541,N,00430.30573026,W,1,05,2.87,160.00,M,-21.3213,M,,*68
$GPGGA,090008.15,4821.38098541,N,00430.30573026,W,1,05,2.87,160.00,M,-21.3213,M,,*6D
$GPGGA,090008.20,4821.38098541,N,00430.30573026,W,1,05,2.87,160.00,M,-21.3213,M,,*6B
$GPGGA,090008.25,4821.38098541,N,00430.30573026,W,1,05,2.87,160.00,M,-21.3213,M,,*6E
$GPGGA,090008.30,4821.38098541,N,00430.30573026,W,1,05,2.87,160.00,M,-21.3213,M,,*6A
$GPGGA,090008.35,4821.38098541,N,00430.30573026,W,1,05,2.87,160.00,M,-21.3213,M,,*6F
$GPGGA,090008.40,4821.38098541,N,00430.30573026,W,1,05,2.87,160.00,M,-21.3213,M,,*6D
$GPGGA,090008.45,4821.38098541,N,00430.30573026,W,1,05,2.87,160.00,M,-21.3213,M,,*68
$GPGGA,090008.50,4821.38098541,N,00430.30573026,W,1,05,2.87,160.00,M,-21.3213,M,,*6C
$GPGGA,090008.55,4821.38098541,N,00430.30573026,W,1,05,2.87,160.00,M,-21.3213,M,,*69
$GPGGA,090008.60,4821.38098541,N,00430.30573026,W,1,05,2.87,160.00,M,-21.3213,M,,*6F
$GPGGA,090008.65,4821.38098541,N,00430.30573026,W,1,05,2.87,160.00,M,-21.3213,M,,*6A
$GPGGA,090008.70,4821.38098541,N,00430.30573026,W,1,05,2.87,160.00,M,-21.3213,M,,*6E
$GPGGA,090008.75,4821.38098541,N,00430.30573026,W,1,05,2.87,160.00,M,-21.3213,M,,*6B
$GPGGA,090008.80,4821.38098541,N,00430.30573026,W,1,05,2.87,160.00,M,-21.3213,M,,*61
$GPGGA,090008.85,4821.38098541,N,00430.30573026,W,1,05,2.87,160.00,M,-21.3213,M,,*64
$GPGGA,090008.90,4821.38098541,N,00430.30573026,W,1,05,2.87,160.00,M,-21.3213,M,,*60
$GPGGA,090008.95,4821.38098541,N,00430.30573026,W,1,05,2.87,160.00,M,-21.3213,M,,*65
$GPGGA,090009.00,4821.38098541,N,00430.30573026,W,1,05,2.87,160.00,M,-21.3213,M,,*68
$GPGGA,090009.05,4821.38098541,N,00430.30573026,W,1,05,2.87,160.00,M,-21.3213,M,,*6D
$GPGGA,090009.10,4821.38098541,N,00430.30573026,W,1,05,2.87,160.00,M,-21.3213,M,,*69
$GPGGA,090009.15,4821.38098541,N,00430.30573026,W,1,05,2.87,160.00,M,-21.3213,M,,*6C
$GPGGA,090009.20,4821.38098541,N,00430.30573026,W,1,05,2.87,160.00,M,-21.3213,M,,*6A
$GPGGA,090009.25,4821.38098541,N,00430.30573026,W,1,05,2.87,160.00,M,-21.3213,M,,*6F
$GPGGA,090009.30,4821.38098541,N,00430.30573026,W,1,05,2.87,160.00,M,-21.3213,M,,*6B
$GPGGA,090009.35,4821.38098541,N,00430.30573026,W,1,05,2.87,160.00,M,-21.3213,M,,*6E
$GPGGA,090009.40,4821.38098541,N,00430.30573026,W,1,05,2.87,160.00,M,-21.3213,M,,*6C
$GPGGA,090009.45,4821.38098541,N,00430.30573026,W,1,05,2.87,160.00,M,-21.3213,M,,*69
$GPGGA,090009.50,4821.38098541,N,00430.30573026,W,1,05,2.87,160.00,M,-21.3213,M,,*6D
$GPGGA,090009.55,4821.38098541,N,00430.30573026,W,1,05,2.87,160.00,M,-21.3213,M,,*68
$GPGGA,090009.60,4821.38098541,N,00430.30573026,W,1,05,2.87,160.00,M,-21.3213,M,,*6E
$GPGGA,090009.65,4821.38098541,N,00430.30573026,W,1,05,2.87,160.00,M,-21.3213,M,,*6B
$GPGGA,090009.70,4821.38098541,N,00430.30573026,W,1,05,2.87,160.00,M,-21.3213,M,,*6F
$GPGGA,090009.75,4821.38098541,N,00430.30573026,W,1,05,2.87,160.00,M,-21.3213,M,,*6A
$GPGGA,090009.80,4821.38098541,N,00430.30573026,W,1,05,2.87,160.00,M,-21.3213,M,,*60
$GPGGA,090009.85,4821.38098541,N,00430.30573026,W,1,05,2.87,160.00,M,-21.3213,M,,*65
$GPGGA,090009.90,4821.38098541,N,00430.30573026,W,1,05,2.87,160.00,M,-21.3213,M,,*61
$GPGGA,090009.95,4821.38098541,N,00430.30573026,W,1,05,2.87,160.00,M,-21.3213,M,,*64
$GPGGA,090010.00,4821.38098541,N,00430.30573026,W,1,05,2.87,160.00,M,-21.3213,M,,*60
$GPGGA,090010.05,4821.38098541,N,00430.30573026,W,1,05,2.87,160.00,M,-21.3213,M,,*65
$GPGGA,090010.10,4821.38098541,N,00430.30573026,W,1,05,2.87,160.00,M,-21.3213,M,,*61
$GPGGA,090010.15,4821.38098541,N,00430.30573026,W,1,05,2.87,160.00,M,-21.3213,M,,*64
$GPGGA,090010.20,4821.38098541,N,00430.30573026,W,1,05,2.87,160.00,M,-21.3213,M,,*62
$GPGGA,090010.25,4821.38098541,N,00430.30573026,W,1,05,2.87,160.00,M,-21.3213,M,,*67
$GPGGA,090010.30,4821.38098541,N,00430.30573026,W,1,05,2.87,160.00,M,-21.3213,M,,*63
$GPGGA,090010.35,4821.38098541,N,00430.30573026,W,1,05,2.87,160.00,M,-21.3213,M,,*66
$GPGGA,090010.40,4821.38098541,N,00430.30573026,W,1,05,2.87,160.00,M,-21.3213,M,,*64
$GPGGA,090010.45,4821.38098541,N,00430.30573026,W,1,05,2.87,160.00,M,-21.3213,M,,*61
$GPGGA,090010.50,4821.38098541,N,00430.30573026,W,1,05,2.87,160.00,M,-21.3213,M,,*65
$GPGGA,090010.55,4821.38098541,N,00430.30573026,W,1,05,2.87,160.00,M,-21.3213,M,,*60
$GPGGA,090010.60,4821.38098541,N,00430.30573026,W,1,05,2.87,160.00,M,-21.3213,M,,*66
$GPGGA,090010.65,4821.38098541,N,00430.30573026,W,1,05,2.87,160.00,M,-21.3213,M,,*63
$GPGGA,090010.70,4821.38098541,N,00430.30573026,W,1,05,2.87,160.00,M,-21.3213,M,,*67
$GPGGA,090010.75,4821.38098541,N,00430.30573026,W,1,05,2.87,160.00,M,-21.3213,M,,*62
$GPGGA,090010.80,4821.38098541,N,00430.30573026,W,1,05,2.87,160.00,M,-21.3213,M,,*68
$GPGGA,090010.85,4821.38098541,N,00430.30573026,W,1,05,2.87,160.00,M,-21.3213,M,,*6D
$GPGGA,090010.90,4821.38098541,N,00430.30573026,W,1,05,2.87,160.00,M,-21.3213,M,,*69
$GPGGA,090010.95,4821.38098541,N,00430.30573026,W,1,05,2.87,160.00,M,-21.3213,M,,*6C
$GPGGA,090011.00,4821.38098541,N,00430.30573026,W,1,05,2.87,160.00,M,-21.3213,M,,*61
$GPGGA,090011.05,4821.38098541,N,00430.30573026,W,1,05,2.87,160.00,M,-21.3213,M,,*64
$GPGGA,090011.10,4821.38098541,N,00430.30573026,W,1,05,2.87,160.00,M,-21.3213,M,,*60
$GPGGA,090011.15,4821.38098541,N,00430.30573026,W,1,05,2.87,160.00,M,-21.3213,M,,*65
$GPGGA,090011.20,4821.38098541,N,00430.30573026,W,1,05,2.87,160.00,M,-21.3213,M,,*63
$GPGGA,090011.25,4821.38098541,N,00430.30573026,W,1,05,2.87,160.00,M,-21.3213,M,,*66
$GPGGA,090011.30,4821.38098541,N,00430.30573026,W,1,05,2.87,160.00,M,-21.3213,M,,*62
$GPGGA,090011.35,4821.38098541,N,00430.30573026,W,1,05,2.87,160.00,M,-21.3213,M,,*67
$GPGGA,090011.40,4821.38098541,N,00430.30573026,W,1,05,2.87,160.00,M,-21.3213,M,,*65
$GPGGA,090011.45,4821.38098541,N,00430.30573026,W,1,05,2.87,160.00,M,-21.3213,M,,*60
$GPGGA,090011.50,4821.38098541,N,00430.30573026,W,1,05,2.87,160.00,M,-21.3213,M,,*64
$GPGGA,090011.55,4821.38098541,N,00430.30573026,W,1,05,2.87,160.00,M,-21.3213,M,,*61
$GPGGA,090011.60,4821.38098541,N,00430.30573026,W,1,05,2.87,160.00,M,-21.3213,M,,*67
$GPGGA,090011.65,4821.38098541,N,00430.30573026,W,1,05,2.87,160.00,M,-21.3213,M,,*62
$GPGGA,090011.70,4821.38098541,N,00430.30573026,W,1,05,2.87,160.00,M,-21.3213,M,,*66
$GPGGA,090011.75,4821.38098541,N,00430.30573026,W,1,05,2.87,160.00,M,-21.3213,M,,*63
$GPGGA,090011.80,4821.38098541,N,00430.30573026,W,1,05,2.87,160.00,M,-21.3213,M,,*69
$GPGGA,090011.85,4821.38098541,N,00430.30573026,W,1,05,2.87,160.00,M,-21.3213,M,,*6C
$GPGGA,090011.90,4821.38098541,N,00430.30573026,W,1,05,2.87,160.00,M,-21.3213,M,,*68
$GPGGA,090011.95,4821.38098541,N,00430.30573026,W,1,05,2.87,160.00,M,-21.3213,M,,*6D
$GPGGA,090012.00,4821.38098541,N,00430.30573026,W,1,05,2.87,160.00,M,-21.3213,M,,*62
$GPGGA,090012.05,4821.38098541,N,00430.30573026,W,1,05,2.87,160.00,M,-21.3213,M,,*67
$GPGGA,090012.10,4821.38098541,N,00430.30573026,W,1,05,2.87,160.00,M,-21.3213,M,,*63
$GPGGA,090012.15,4821.38098541,N,00430.30573026,W,1,05,2.87,160.00,M,-21.3213,M,,*66
$GPGGA,090012.20,4821.38098541,N,00430.30573026,W,1,05,2.87,160.00,M,-21.3213,M,,*60
$GPGGA,090012.25,4821.38098541,N,00430.30573026,W,1,05,2.87,160.00,M,-21.3213,M,,*65
$GPGGA,090012.30,4821.38098541,N,00430.30573026,W,1,05,2.87,160.00,M,-21.3213,M,,*61
$GPGGA,090012.35,4821.38098541,N,00430.30573026,W,1,05,2.87,160.00,M,-21.3213,M,,*64
$GPGGA,090012.40,4821.38098541,N,00430.30573026,W,1,05,2.87,160.00,M,-21.3213,M,,*66
$GPGGA,090012.45,4821.38098541,N,00430.30573026,W,1,05,2.87,160.00,M,-21.3213,M,,*63
$GPGGA,090012.50,4821.38098541,N,00430.30573026,W,1,05,2.87,160.00,M,-21.3213,M,,*67
$GPGGA,090012.55,4821.38098541,N,00430.30573026,W,1,05,2.87,160.00,M,-21.3213,M,,*62
$GPGGA,090012.60,4821.38098541,N,00430.30573026,W,1,05,2.87,160.00,M,-21.3213,M,,*64
$GPGGA,090012.65,4821.38098541,N,00430.30573026,W,1,05,2.87,160.00,M,-21.3213,M,,*61
$GPGGA,090012.70,4821.38098541,N,00430.30573026,W,1,05,2.87,160.00,M,-21.3213,M,,*65
$GPGGA,090012.75,4821.38098541,N,00430.30573026,W,1,05,2.87,160.00,M,-21.3213,M,,*60
$GPGGA,090012.80,4821.38098541,N,00430.30573026,W,1,05,2.87,160.00,M,-21.3213,M,,*6A
$GPGGA,090012.85,4821.38098541,N,00430.30573026,W,1,05,2.87,160.00,M,-21.3213,M,,*6F
$GPGGA,090012.90,4821.38098541,N,00430.30573026,W,1,05,2.87,160.00,M,-21.3213,M,,*6B
$GPGGA,090012.95,4821.38098541,N,00430.30573026,W,1,05,2.87,160.00,M,-21.3213,M,,*6E
$GPGGA,090013.00,4821.38098541,N,00430.30573026,W,1,05,2.87,160.00,M,-21.3213,M,,*63
$GPGGA,090013.05,4821.38098541,N,00430.30573026,W,1,05,2.87,160.00,M,-21.3213,M,,*66
$GPGGA,090013.10,4821.38098541,N,00430.30573026,W,1,05,2.87,160.00,M,-21.3213,M,,*62
$GPGGA,090013.15,4821.38098541,N,00430.30573026,W,1,05,2.87,160.00,M,-21.3213,M,,*67
$GPGGA,090013.20,4821.38098541,N,00430.30573026,W,1,05,2.87,160.00,M,-21.3213,M,,*61
$GPGGA,090013.25,4821.38098541,N,00430.30573026,W,1,05,2.87,160.00,M,-21.3213,M,,*64
$GPGGA,090013.30,4821.38098541,N,00430.30573026,W,1,05,2.87,160.00,M,-21.3213,M,,*60
$GPGGA,090013.35,4821.38098541,N,00430.30573026,W,1,05,2.87,160.00,M,-21.3213,M,,*65
$GPGGA,090013.40,4821.38098541,N,00430.30573026,W,1,05,2.87,160.00,M,-21.3213,M,,*67
$GPGGA,090013.45,4821.38098541,N,00430.30573026,W,1,05,2.87,160.00,M,-21.3213,M,,*62
$GPGGA,090013.50,4821.38098541,N,00430.30573026,W,1,05,2.87,160.00,M,-21.3213,M,,*66
$GPGGA,090013.55,4821.38098541,N,00430.30573026,W,1,05,2.87,160.00,M,-21.3213,M,,*63
$GPGGA,090013.60,4821.38098541,N,00430.30573026,W,1,05,2.87,160.00,M,-21.3213,M,,*65
$GPGGA,090013.65,4821.38098541,N,00430.30573026,W,1,05,2.87,160.00,M,-21.3213,M,,*60
$GPGGA,090013.70,4821.38098541,N,00430.30573026,W,1,05,2.87,160.00,M,-21.3213,M,,*64
$GPGGA,090013.75,4821.38098541,N,00430.30573026,W,1,05,2.87,160.00,M,-21.3213,M,,*61
$GPGGA,090013.80,4821.38098541,N,00430.30573026,W,1,05,2.87,160.00,M,-21.3213,M,,*6B
$GPGGA,090013.85,4821.38098541,N,00430.30573026,W,1,05,2.87,160.00,M,-21.3213,M,,*6E
$GPGGA,090013.90,4821.38098541,N,00430.30573026,W,1,05,2.87,160.00,M,-21.3213,M,,*6A
$GPGGA,090013.95,4821.38098541,N,00430.30573026,W,1,05,2.87,160.00,M,-21.3213,M,,*6F
$GPGGA,090014.00,4821.38098541,N,00430.30573026,W,1,05,2.87,160.00,M,-21.3213,M,,*64
$GPGGA,090014.05,4821.38098541,N,00430.30573026,W,1,05,2.87,160.00,M,-21.3213,M,,*61
$GPGGA,090014.10,4821.38098541,N,00430.30573026,W,1,05,2.87,160.00,M,-21.3213,M,,*65
$GPGGA,090014.15,4821.38098541,N,00430.30573026,W,1,05,2.87,160.00,M,-21.3213,M,,*60
$GPGGA,090014.20,4821.38098541,N,00430.30573026,W,1,05,2.87,160.00,M,-21.3213,M,,*66
$GPGGA,090014.25,4821.38098541,N,00430.30573026,W,1,05,2.87,160.00,M,-21.3213,M,,*63
$GPGGA,090014.30,4821.38098541,N,00430.30573026,W,1,05,2.87,160.00,M,-21.3213,M,,*67
$GPGGA,090014.35,4821.38098541,N,00430.30573026,W,1,05,2.87,160.00,M,-21.3213,M,,*62
$GPGGA,090014.40,4821.38098541,N,00430.30573026,W,1,05,2.87,160.00,M,-21.3213,M,,*60
$GPGGA,090014.45,4821.38098541,N,00430.30573026,W,1,05,2.87,160.00,M,-21.3213,M,,*65
$GPGGA,090014.50,4821.38098541,N,00430.30573026,W,1,05,2.87,160.00,M,-21.3213,M,,*61
$GPGGA,090014.55,4821.38098541,N,00430.30573026,W,1,05,2.87,160.00,M,-21.3213,M,,*64
$GPGGA,090014.60,4821.38098541,N,00430.30573026,W,1,05,2.87,160.00,M,-21.3213,M,,*62
$GPGGA,090014.65,4821.38098541,N,00430.30573026,W,1,05,2.87,160.00,M,-21.3213,M,,*67
$GPGGA,090014.70,4821.38098541,N,00430.30573026,W,1,05,2.87,160.00,M,-21.3213,M,,*63
$GPGGA,090014.75,4821.38098541,N,00430.30573026,W,1,05,2.87,160.00,M,-21.3213,M,,*66
$GPGGA,090014.80,4821.38098541,N,00430.30573026,W,1,05,2.87,160.00,M,-21.3213,M,,*6C
$GPGGA,090014.85,4821.38098541,N,00430.30573026,W,1,05,2.87,160.00,M,-21.3213,M,,*69
$GPGGA,090014.90,4821.38098541,N,00430.30573026,W,1,05,2.87,160.00,M,-21.3213,M,,*6D
$GPGGA,090014.95,4821.38098541,N,00430.30573026,W,1,05,2.87,160.00,M,-21.3213,M,,*68
$GPGGA,090015.00,4821.38098541,N,00430.30573026,W,1,05,2.87,160.00,M,-21.3213,M,,*65
$GPGGA,090015.05,4821.38098541,N,00430.30573026,W,1,05,2.87,160.00,M,-21.3213,M,,*60
$GPGGA,090015.10,4821.38098541,N,00430.30573026,W,1,05,2.87,160.00,M,-21.3213,M,,*64
$GPGGA,090015.15,4821.38098541,N,00430.30573026,W,1,05,2.87,160.00,M,-21.3213,M,,*61
$GPGGA,090015.20,4821.38098541,N,00430.30573026,W,1,05,2.87,160.00,M,-21.3213,M,,*67
$GPGGA,090015.25,4821.38098541,N,00430.30573026,W,1,05,2.87,160.00,M,-21.3213,M,,*62
$GPGGA,090015.30,4821.38098541,N,00430.30573026,W,1,05,2.87,160.00,M,-21.3213,M,,*66
$GPGGA,090015.35,4821.38098541,N,00430.30573026,W,1,05,2.87,160.00,M,-21.3213,M,,*63
$GPGGA,090015.40,4821.38098541,N,00430.30573026,W,1,05,2.87,160.00,M,-21.3213,M,,*61
$GPGGA,090015.45,4821.38098541,N,00430.30573026,W,1,05,2.87,160.00,M,-21.3213,M,,*64
$GPGGA,090015.50,4821.38098541,N,00430.30573026,W,1,05,2.87,160.00,M,-21.3213,M,,*60
$GPGGA,090015.55,4821.38098541,N,00430.30573026,W,1,05,2.87,160.00,M,-21.3213,M,,*65
$GPGGA,090015.60,4821.38098541,N,00430.30573026,W,1,05,2.87,160.00,M,-21.3213,M,,*63
$GPGGA,090015.65,4821.38098541,N,00430.30573026,W,1,05,2.87,160.00,M,-21.3213,M,,*66
$GPGGA,090015.70,4821.38098541,N,00430.30573026,W,1,05,2.87,160.00,M,-21.3213,M,,*62
$GPGGA,090015.75,4821.38098541,N,00430.30573026,W,1,05,2.87,160.00,M,-21.3213,M,,*67
$GPGGA,090015.80,4821.38098541,N,00430.30573026,W,1,05,2.87,160.00,M,-21.3213,M,,*6D
$GPGGA,090015.85,4821.38098541,N,00430.30573026,W,1,05,2.87,160.00,M,-21.3213,M,,*68
$GPGGA,090015.90,4821.38098541,N,00430.30573026,W,1,05,2.87,160.00,M,-21.3213,M,,*6C
$GPGGA,090015.95,4821.38098541,N,00430.30573026,W,1,05,2.87,160.00,M,-21.3213,M,,*69
$GPGGA,090016.00,4821.38098541,N,00430.30573026,W,1,05,2.87,160.00,M,-21.3213,M,,*66
$GPGGA,090016.05,4821.38098541,N,00430.30573026,W,1,05,2.87,160.00,M,-21.3213,M,,*63
$GPGGA,090016.10,4821.38098541,N,00430.30573026,W,1,05,2.87,160.00,M,-21.3213,M,,*67
$GPGGA,090016.15,4821.38098541,N,00430.30573026,W,1,05,2.87,160.00,M,-21.3213,M,,*62
$GPGGA,090016.20,4821.38098541,N,00430.30573026,W,1,05,2.87,160.00,M,-21.3213,M,,*64
$GPGGA,090016.25,4821.38098541,N,00430.30573026,W,1,05,2.87,160.00,M,-21.3213,M,,*61
$GPGGA,090016.30,4821.38098541,N,00430.30573026,W,1,05,2.87,160.00,M,-21.3213,M,,*65
$GPGGA,090016.35,4821.38098541,N,00430.30573026,W,1,05,2.87,160.00,M,-21.3213,M,,*60
$GPGGA,090016.40,4821.38098541,N,00430.30573026,W,1,05,2.87,160.00,M,-21.3213,M,,*62
$GPGGA,090016.45,4821.38098541,N,00430.30573026,W,1,05,2.87,160.00,M,-21.3213,M,,*67
$GPGGA,090016.50,4821.38098541,N,00430.30573026,W,1,05,2.87,160.00,M,-21.3213,M,,*63
$GPGGA,090016.55,4821.38098541,N,00430.30573026,W,1,05,2.87,160.00,M,-21.3213,M,,*66
$GPGGA,090016.60,4821.38098541,N,00430.30573026,W,1,05,2.87,160.00,M,-21.3213,M,,*60
$GPGGA,090016.65,4821.38098541,N,00430.30573026,W,1,05,2.87,160.00,M,-21.3213,M,,*65
$GPGGA,090016.70,4821.38098541,N,00430.30573026,W,1,05,2.87,160.00,M,-21.3213,M,,*61
$GPGGA,090016.75,4821.38098541,N,00430.30573026,W,1,05,2.87,160.00,M,-21.3213,M,,*64
$GPGGA,090016.80,4821.38098541,N,00430.30573026,W,1,05,2.87,160.00,M,-21.3213,M,,*6E
$GPGGA,090016.85,4821.38098541,N,00430.30573026,W,1,05,2.87,160.00,M,-21.3213,M,,*6B
$GPGGA,090016.90,4821.38098541,N,00430.30573026,W,1,05,2.87,160.00,M,-21.3213,M,,*6F
$GPGGA,090016.95,4821.38098541,N,00430.30573026,W,1,05,2.87,160.00,M,-21.3213,M,,*6A
$GPGGA,090017.00,4821.38098541,N,00430.30573026,W,1,05,2.87,160.00,M,-21.3213,M,,*67
$GPGGA,090017.05,4821.38098541,N,00430.30573026,W,1,05,2.87,160.00,M,-21.3213,M,,*62
$GPGGA,090017.10,4821.38098541,N,00430.30573026,W,1,05,2.87,160.00,M,-21.3213,M,,*66
$GPGGA,090017.15,4821.38098541,N,00430.30573026,W,1,05,2.87,160.00,M,-21.3213,M,,*63
$GPGGA,090017.20,4821.38098541,N,00430.30573026,W,1,05,2.87,160.00,M,-21.3213,M,,*65
$GPGGA,090017.25,4821.38098541,N,00430.30573026,W,1,05,2.87,160.00,M,-21.3213,M,,*60
$GPGGA,090017.30,4821.38098541,N,00430.30573026,W,1,05,2.87,160.00,M,-21.3213,M,,*64
$GPGGA,090017.35,4821.38098541,N,00430.30573026,W,1,05,2.87,160.00,M,-21.3213,M,,*61
$GPGGA,090017.40,4821.38098541,N,00430.30573026,W,1,05,2.87,160.00,M,-21.3213,M,,*63
$GPGGA,090017.45,4821.38098541,N,00430.30573026,W,1,05,2.87,160.00,M,-21.3213,M,,*66
$GPGGA,090017.50,4821.38098541,N,00430.30573026,W,1,05,2.87,160.00,M,-21.3213,M,,*62
$GPGGA,090017.55,4821.38098541,N,00430.30573026,W,1,05,2.87,160.00,M,-21.3213,M,,*67
$GPGGA,090017.60,4821.38098541,N,00430.30573026,W,1,05,2.87,160.00,M,-21.3213,M,,*61
$GPGGA,090017.65,4821.38098541,N,00430.30573026,W,1,05,2.87,160.00,M,-21.3213,M,,*64
$GPGGA,090017.70,4821.38098541,N,00430.30573026,W,1,05,2.87,160.00,M,-21.3213,M,,*60
$GPGGA,090017.75,4821.38098541,N,00430.30573026,W,1,05,2.87,160.00,M,-21.3213,M,,*65
$GPGGA,090017.80,4821.38098541,N,00430.30573026,W,1,05,2.87,160.00,M,-21.3213,M,,*6F
$GPGGA,090017.85,4821.38098541,N,00430.30573026,W,1,05,2.87,160.00,M,-21.3213,M,,*6A
$GPGGA,090017.90,4821.38098541,N,00430.30573026,W,1,05,2.87,160.00,M,-21.3213,M,,*6E
$GPGGA,090017.95,4821.38098541,N,00430.30573026,W,1,05,2.87,160.00,M,-21.3213,M,,*6B
$GPGGA,090018.00,4821.38098541,N,00430.30573026,W,1,05,2.87,160.00,M,-21.3213,M,,*68
$GPGGA,090018.05,4821.38098541,N,00430.30573026,W,1,05,2.87,160.00,M,-21.3213,M,,*6D
$GPGGA,090018.10,4821.38098541,N,00430.30573026,W,1,05,2.87,160.00,M,-21.3213,M,,*69
$GPGGA,090018.15,4821.38098541,N,00430.30573026,W,1,05,2.87,160.00,M,-21.3213,M,,*6C
$GPGGA,090018.20,4821.38098541,N,00430.30573026,W,1,05,2.87,160.00,M,-21.3213,M,,*6A
$GPGGA,090018.25,4821.38098541,N,00430.30573026,W,1,05,2.87,160.00,M,-21.3213,M,,*6F
$GPGGA,090018.30,4821.38098541,N,00430.30573026,W,1,05,2.87,160.00,M,-21.3213,M,,*6B
$GPGGA,090018.35,4821.38098541,N,00430.30573026,W,1,05,2.87,160.00,M,-21.3213,M,,*6E
$GPGGA,090018.40,4821.38098541,N,00430.30573026,W,1,05,2.87,160.00,M,-21.3213,M,,*6C
$GPGGA,090018.45,4821.38098541,N,00430.30573026,W,1,05,2.87,160.00,M,-21.3213,M,,*69
$GPGGA,090018.50,4821.38098541,N,00430.30573026,W,1,05,2.87,160.00,M,-21.3213,M,,*6D
$GPGGA,090018.55,4821.38098541,N,00430.30573026,W,1,05,2.87,160.00,M,-21.3213,M,,*68
$GPGGA,090018.60,4821.38098541,N,00430.30573026,W,1,05,2.87,160.00,M,-21.3213,M,,*6E
$GPGGA,090018.65,4821.38098541,N,00430.30573026,W,1,05,2.87,160.00,M,-21.3213,M,,*6B
$GPGGA,090018.70,4821.38098541,N,00430.30573026,W,1,05,2.87,160.00,M,-21.3213,M,,*6F
$GPGGA,090018.75,4821.38098541,N,00430.30573026,W,1,05,2.87,160.00,M,-21.3213,M,,*6A
$GPGGA,090018.80,4821.38098541,N,00430.30573026,W,1,05,2.87,160.00,M,-21.3213,M,,*60
$GPGGA,090018.85,4821.38098541,N,00430.30573026,W,1,05,2.87,160.00,M,-21.3213,M,,*65
$GPGGA,090018.90,4821.38098541,N,00430.30573026,W,1,05,2.87,160.00,M,-21.3213,M,,*61
$GPGGA,090018.95,4821.38098541,N,00430.30573026,W,1,05,2.87,160.00,M,-21.3213,M,,*64
$GPGGA,090019.00,4821.38098541,N,00430.30573026,W,1,05,2.87,160.00,M,-21.3213,M,,*69
$GPGGA,090019.05,4821.38098541,N,00430.30573026,W,1,05,2.87,160.00,M,-21.3213,M,,*6C
$GPGGA,090019.10,4821.38098541,N,00430.30573026,W,1,05,2.87,160.00,M,-21.3213,M,,*68
$GPGGA,090019.15,4821.38098541,N,00430.30573026,W,1,05,2.87,160.00,M,-21.3213,M,,*6D
$GPGGA,090019.20,4821.38098541,N,00430.30573026,W,1,05,2.87,160.00,M,-21.3213,M,,*6B
$GPGGA,090019.25,4821.38098541,N,00430.30573026,W,1,05,2.87,160.00,M,-21.3213,M,,*6E
$GPGGA,090019.30,4821.38098541,N,00430.30573026,W,1,05,2.87,160.00,M,-21.3213,M,,*6A
$GPGGA,090019.35,4821.38098541,N,00430.30573026,W,1,05,2.87,160.00,M,-21.3213,M,,*6F
$GPGGA,090019.40,4821.38098541,N,00430.30573026,W,1,05,2.87,160.00,M,-21.3213,M,,*6D
$GPGGA,090019.45,4821.38098541,N,00430.30573026,W,1,05,2.87,160.00,M,-21.3213,M,,*68
$GPGGA,090019.50,4821.38098541,N,00430.30573026,W,1,05,2.87,160.00,M,-21.3213,M,,*6C
$GPGGA,090019.55,4821.38098541,N,00430.30573026,W,1,05,2.87,160.00,M,-21.3213,M,,*69
$GPGGA,090019.60,4821.38098541,N,00430.30573026,W,1,05,2.87,160.00,M,-21.3213,M,,*6F
$GPGGA,090019.65,4821.38098541,N,00430.30573026,W,1,05,2.87,160.00,M,-21.3213,M,,*6A
$GPGGA,090019.70,4821.38098541,N,00430.30573026,W,1,05,2.87,160.00,M,-21.3213,M,,*6E
$GPGGA,090019.75,4821.38098541,N,00430.30573026,W,1,05,2.87,160.00,M,-21.3213,M,,*6B
$GPGGA,090019.80,4821.38098541,N,00430.30573026,W,1,05,2.87,160.00,M,-21.3213,M,,*61
$GPGGA,090019.85,4821.38098541,N,00430.30573026,W,1,05,2.87,160.00,M,-21.3213,M,,*64
$GPGGA,090019.90,4821.38098541,N,00430.30573026,W,1,05,2.87,160.00,M,-21.3213,M,,*60
$GPGGA,090019.95,4821.38098541,N,00430.30573026,W,1,05,2.87,160.00,M,-21.3213,M,,*65
$GPGGA,090020.00,4821.38098541,N,00430.30573026,W,1,05,2.87,160.00,M,-21.3213,M,,*63
$GPGGA,090020.05,4821.38098541,N,00430.30573026,W,1,05,2.87,160.00,M,-21.3213,M,,*66
$GPGGA,090020.10,4821.38098541,N,00430.30573026,W,1,05,2.87,160.00,M,-21.3213,M,,*62
$GPGGA,090020.15,4821.38098541,N,00430.30573026,W,1,05,2.87,160.00,M,-21.3213,M,,*67
$GPGGA,090020.20,4821.38098541,N,00430.30573026,W,1,05,2.87,160.00,M,-21.3213,M,,*61
$GPGGA,090020.25,4821.38098541,N,00430.30573026,W,1,05,2.87,160.00,M,-21.3213,M,,*64
$GPGGA,090020.30,4821.38098541,N,00430.30573026,W,1,05,2.87,160.00,M,-21.3213,M,,*60
$GPGGA,090020.35,4821.38098541,N,00430.30573026,W,1,05,2.87,160.00,M,-21.3213,M,,*65
$GPGGA,090020.40,4821.38098541,N,00430.30573026,W,1,05,2.87,160.00,M,-21.3213,M,,*67
$GPGGA,090020.45,4821.38098541,N,00430.30573026,W,1,05,2.87,160.00,M,-21.3213,M,,*62
$GPGGA,090020.50,4821.38098541,N,00430.30573026,W,1,05,2.87,160.00,M,-21.3213,M,,*66
$GPGGA,090020.55,4821.38098541,N,00430.30573026,W,1,05,2.87,160.00,M,-21.3213,M,,*63
$GPGGA,090020.60,4821.38098541,N,00430.30573026,W,1,05,2.87,160.00,M,-21.3213,M,,*65
$GPGGA,090020.65,4821.38098541,N,00430.30573026,W,1,05,2.87,160.00,M,-21.3213,M,,*60
$GPGGA,090020.70,4821.38098541,N,00430.30573026,W,1,05,2.87,160.00,M,-21.3213,M,,*64
$GPGGA,090020.75,4821.38098541,N,00430.30573026,W,1,05,2.87,160.00,M,-21.3213,M,,*61
$GPGGA,090020.80,4821.38098541,N,00430.30573026,W,1,05,2.87,160.00,M,-21.3213,M,,*6B
$GPGGA,090020.85,4821.38098541,N,00430.30573026,W,1,05,2.87,160.00,M,-21.3213,M,,*6E
$GPGGA,090020.90,4821.38098541,N,00430.30573026,W,1,05,2.87,160.00,M,-21.3213,M,,*6A
$GPGGA,090020.95,4821.38098541,N,00430.30573026,W,1,05,2.87,160.00,M,-21.3213,M,,*6F
$GPGGA,090021.00,4821.38098541,N,00430.30573026,W,1,05,2.87,160.00,M,-21.3213,M,,*62
$GPGGA,090021.05,4821.38098541,N,00430.30573026,W,1,05,2.87,160.00,M,-21.3213,M,,*67
$GPGGA,090021.10,4821.38098541,N,00430.30573026,W,1,05,2.87,160.00,M,-21.3213,M,,*63
$GPGGA,090021.15,4821.38098541,N,00430.30573026,W,1,05,2.87,160.00,M,-21.3213,M,,*66
$GPGGA,090021.20,4821.38098541,N,00430.30573026,W,1,05,2.87,160.00,M,-21.3213,M,,*60
$GPGGA,090021.25,4821.38098541,N,00430.30573026,W,1,05,2.87,160.00,M,-21.3213,M,,*65
$GPGGA,090021.30,4821.38098541,N,00430.30573026,W,1,05,2.87,160.00,M,-21.3213,M,,*61
$GPGGA,090021.35,4821.38098541,N,00430.30573026,W,1,05,2.87,160.00,M,-21.3213,M,,*64
$GPGGA,090021.40,4821.38098541,N,00430.30573026,W,1,05,2.87,160.00,M,-21.3213,M,,*66
$GPGGA,090021.45,4821.38098541,N,00430.30573026,W,1,05,2.87,160.00,M,-21.3213,M,,*63
$GPGGA,090021.50,4821.38098541,N,00430.30573026,W,1,05,2.87,160.00,M,-21.3213,M,,*67
$GPGGA,090021.55,4821.38098541,N,00430.30573026,W,1,05,2.87,160.00,M,-21.3213,M,,*62
$GPGGA,090021.60,4821.38098541,N,00430.30573026,W,1,05,2.87,160.00,M,-21.3213,M,,*64
$GPGGA,090021.65,4821.38098541,N,00430.30573026,W,1,05,2.87,160.00,M,-21.3213,M,,*61
$GPGGA,090021.70,4821.38098541,N,00430.30573026,W,1,05,2.87,160.00,M,-21.3213,M,,*65
$GPGGA,090021.75,4821.38098541,N,00430.30573026,W,1,05,2.87,160.00,M,-21.3213,M,,*60
$GPGGA,090021.80,4821.38098541,N,00430.30573026,W,1,05,2.87,160.00,M,-21.3213,M,,*6A
$GPGGA,090021.85,4821.38098541,N,00430.30573026,W,1,05,2.87,160.00,M,-21.3213,M,,*6F
$GPGGA,090021.90,4821.38098541,N,00430.30573026,W,1,05,2.87,160.00,M,-21.3213,M,,*6B
$GPGGA,090021.95,4821.38098541,N,00430.30573026,W,1,05,2.87,160.00,M,-21.3213,M,,*6E
$GPGGA,090022.00,4821.38098541,N,00430.30573026,W,1,05,2.87,160.00,M,-21.3213,M,,*61
$GPGGA,090022.05,4821.38098541,N,00430.30573026,W,1,05,2.87,160.00,M,-21.3213,M,,*64
$GPGGA,090022.10,4821.38098541,N,00430.30573026,W,1,05,2.87,160.00,M,-21.3213,M,,*60
$GPGGA,090022.15,4821.38098541,N,00430.30573026,W,1,05,2.87,160.00,M,-21.3213,M,,*65
$GPGGA,090022.20,4821.38098541,N,00430.30573026,W,1,05,2.87,160.00,M,-21.3213,M,,*63
$GPGGA,090022.25,4821.38098541,N,00430.30573026,W,1,05,2.87,160.00,M,-21.3213,M,,*66
$GPGGA,090022.30,4821.38098541,N,00430.30573026,W,1,05,2.87,160.00,M,-21.3213,M,,*62
$GPGGA,090022.35,4821.38098541,N,00430.30573026,W,1,05,2.87,160.00,M,-21.3213,M,,*67
$GPGGA,090022.40,4821.38098541,N,00430.30573026,W,1,05,2.87,160.00,M,-21.3213,M,,*65
$GPGGA,090022.45,4821.38098541,N,00430.30573026,W,1,05,2.87,160.00,M,-21.3213,M,,*60
$GPGGA,090022.50,4821.38098541,N,00430.30573026,W,1,05,2.87,160.00,M,-21.3213,M,,*64
$GPGGA,090022.55,4821.38098541,N,00430.30573026,W,1,05,2.87,160.00,M,-21.3213,M,,*61
$GPGGA,090022.60,4821.38098541,N,00430.30573026,W,1,05,2.87,160.00,M,-21.3213,M,,*67
$GPGGA,090022.65,4821.38098541,N,00430.30573026,W,1,05,2.87,160.00,M,-21.3213,M,,*62
$GPGGA,090022.70,4821.38098541,N,00430.30573026,W,1,05,2.87,160.00,M,-21.3213,M,,*66
$GPGGA,090022.75,4821.38098541,N,00430.30573026,W,1,05,2.87,160.00,M,-21.3213,M,,*63
$GPGGA,090022.80,4821.38098541,N,00430.30573026,W,1,05,2.87,160.00,M,-21.3213,M,,*69
$GPGGA,090022.85,4821.38098541,N,00430.30573026,W,1,05,2.87,160.00,M,-21.3213,M,,*6C
$GPGGA,090022.90,4821.38098541,N,00430.30573026,W,1,05,2.87,160.00,M,-21.3213,M,,*68
$GPGGA,090022.95,4821.38098541,N,00430.30573026,W,1,05,2.87,160.00,M,-21.3213,M,,*6D
$GPGGA,090023.00,4821.38098541,N,00430.30573026,W,1,05,2.87,160.00,M,-21.3213,M,,*60
$GPGGA,090023.05,4821.38098541,N,00430.30573026,W,1,05,2.87,160.00,M,-21.3213,M,,*65
$GPGGA,090023.10,4821.38098541,N,00430.30573026,W,1,05,2.87,160.00,M,-21.3213,M,,*61
$GPGGA,090023.15,4821.38098541,N,00430.30573026,W,1,05,2.87,160.00,M,-21.3213,M,,*64
$GPGGA,090023.20,4821.38098541,N,00430.30573026,W,1,05,2.87,160.00,M,-21.3213,M,,*62
$GPGGA,090023.25,4821.38098541,N,00430.30573026,W,1,05,2.87,160.00,M,-21.3213,M,,*67
$GPGGA,090023.30,4821.38098541,N,00430.30573026,W,1,05,2.87,160.00,M,-21.3213,M,,*63
$GPGGA,090023.35,4821.38098541,N,00430.30573026,W,1,05,2.87,160.00,M,-21.3213,M,,*66
$GPGGA,090023.40,4821.38098541,N,00430.30573026,W,1,05,2.87,160.00,M,-21.3213,M,,*64
$GPGGA,090023.45,4821.38098541,N,00430.30573026,W,1,05,2.87,160.00,M,-21.3213,M,,*61
$GPGGA,090023.50,4821.38098541,N,00430.30573026,W,1,05,2.87,160.00,M,-21.3213,M,,*65
$GPGGA,090023.55,4821.38098541,N,00430.30573026,W,1,05,2.87,160.00,M,-21.3213,M,,*60
$GPGGA,090023.60,4821.38098541,N,00430.30573026,W,1,05,2.87,160.00,M,-21.3213,M,,*66
$GPGGA,090023.65,4821.38098541,N,00430.30573026,W,1,05,2.87,160.00,M,-21.3213,M,,*63
$GPGGA,090023.70,4821.38098541,N,00430.30573026,W,1,05,2.87,160.00,M,-21.3213,M,,*67
$GPGGA,090023.75,4821.38098541,N,00430.30573026,W,1,05,2.87,160.00,M,-21.3213,M,,*62
$GPGGA,090023.80,4821.38098541,N,00430.30573026,W,1,05,2.87,160.00,M,-21.3213,M,,*68
$GPGGA,090023.85,4821.38098541,N,00430.30573026,W,1,05,2.87,160.00,M,-21.3213,M,,*6D
$GPGGA,090023.90,4821.38098541,N,00430.30573026,W,1,05,2.87,160.00,M,-21.3213,M,,*69
$GPGGA,090023.95,4821.38098541,N,00430.30573026,W,1,05,2.87,160.00,M,-21.3213,M,,*6C
$GPGGA,090024.00,4821.38098541,N,00430.30573026,W,1,05,2.87,160.00,M,-21.3213,M,,*67
$GPGGA,090024.05,4821.38098541,N,00430.30573026,W,1,05,2.87,160.00,M,-21.3213,M,,*62
$GPGGA,090024.10,4821.38098541,N,00430.30573026,W,1,05,2.87,160.00,M,-21.3213,M,,*66
$GPGGA,090024.15,4821.38098541,N,00430.30573026,W,1,05,2.87,160.00,M,-21.3213,M,,*63
$GPGGA,090024.20,4821.38098541,N,00430.30573026,W,1,05,2.87,160.00,M,-21.3213,M,,*65
$GPGGA,090024.25,4821.38098541,N,00430.30573026,W,1,05,2.87,160.00,M,-21.3213,M,,*60
$GPGGA,090024.30,4821.38098541,N,00430.30573026,W,1,05,2.87,160.00,M,-21.3213,M,,*64
$GPGGA,090024.35,4821.38098541,N,00430.30573026,W,1,05,2.87,160.00,M,-21.3213,M,,*61
$GPGGA,090024.40,4821.38098541,N,00430.30573026,W,1,05,2.87,160.00,M,-21.3213,M,,*63
$GPGGA,090024.45,4821.38098541,N,00430.30573026,W,1,05,2.87,160.00,M,-21.3213,M,,*66
$GPGGA,090024.50,4821.38098541,N,00430.30573026,W,1,05,2.87,160.00,M,-21.3213,M,,*62
$GPGGA,090024.55,4821.38098541,N,00430.30573026,W,1,05,2.87,160.00,M,-21.3213,M,,*67
$GPGGA,090024.60,4821.38098541,N,00430.30573026,W,1,05,2.87,160.00,M,-21.3213,M,,*61
$GPGGA,090024.65,4821.38098541,N,00430.30573026,W,1,05,2.87,160.00,M,-21.3213,M,,*64
$GPGGA,090024.70,4821.38098541,N,00430.30573026,W,1,05,2.87,160.00,M,-21.3213,M,,*60
$GPGGA,090024.75,4821.38098541,N,00430.30573026,W,1,05,2.87,160.00,M,-21.3213,M,,*65
$GPGGA,090024.80,4821.38098541,N,00430.30573026,W,1,05,2.87,160.00,M,-21.3213,M,,*6F
$GPGGA,090024.85,4821.38098541,N,00430.30573026,W,1,05,2.87,160.00,M,-21.3213,M,,*6A
$GPGGA,090024.90,4821.38098541,N,00430.30573026,W,1,05,2.87,160.00,M,-21.3213,M,,*6E
$GPGGA,090024.95,4821.38098541,N,00430.30573026,W,1,05,2.87,160.00,M,-21.3213,M,,*6B
$GPGGA,090025.00,4821.38098541,N,00430.30573026,W,1,05,2.87,160.00,M,-21.3213,M,,*66
$GPGGA,090025.05,4821.38098541,N,00430.30573026,W,1,05,2.87,160.00,M,-21.3213,M,,*63
$GPGGA,090025.10,4821.38098541,N,00430.30573026,W,1,05,2.87,160.00,M,-21.3213,M,,*67
$GPGGA,090025.15,4821.38098541,N,00430.30573026,W,1,05,2.87,160.00,M,-21.3213,M,,*62
$GPGGA,090025.20,4821.38098541,N,00430.30573026,W,1,05,2.87,160.00,M,-21.3213,M,,*64
$GPGGA,090025.25,4821.38098541,N,00430.30573026,W,1,05,2.87,160.00,M,-21.3213,M,,*61
$GPGGA,090025.30,4821.38098541,N,00430.30573026,W,1,05,2.87,160.00,M,-21.3213,M,,*65
$GPGGA,090025.35,4821.38098541,N,00430.30573026,W,1,05,2.87,160.00,M,-21.3213,M,,*60
$GPGGA,090025.40,4821.38098541,N,00430.30573026,W,1,05,2.87,160.00,M,-21.3213,M,,*62
$GPGGA,090025.45,4821.38098541,N,00430.30573026,W,1,05,2.87,160.00,M,-21.3213,M,,*67
$GPGGA,090025.50,4821.38098541,N,00430.30573026,W,1,05,2.87,160.00,M,-21.3213,M,,*63
$GPGGA,090025.55,4821.38098541,N,00430.30573026,W,1,05,2.87,160.00,M,-21.3213,M,,*66
$GPGGA,090025.60,4821.38098541,N,00430.30573026,W,1,05,2.87,160.00,M,-21.3213,M,,*60
$GPGGA,090025.65,4821.38098541,N,00430.30573026,W,1,05,2.87,160.00,M,-21.3213,M,,*65
$GPGGA,090025.70,4821.38098541,N,00430.30573026,W,1,05,2.87,160.00,M,-21.3213,M,,*61
$GPGGA,090025.75,4821.38098541,N,00430.30573026,W,1,05,2.87,160.00,M,-21.3213,M,,*64
$GPGGA,090025.80,4821.38098541,N,00430.30573026,W,1,05,2.87,160.00,M,-21.3213,M,,*6E
$GPGGA,090025.85,4821.38098541,N,00430.30573026,W,1,05,2.87,160.00,M,-21.3213,M,,*6B
$GPGGA,090025.90,4821.38098541,N,00430.30573026,W,1,05,2.87,160.00,M,-21.3213,M,,*6F
$GPGGA,090025.95,4821.38098541,N,00430.30573026,W,1,05,2.87,160.00,M,-21.3213,M,,*6A
$GPGGA,090026.00,4821.38098541,N,00430.30573026,W,1,05,2.87,160.00,M,-21.3213,M,,*65
$GPGGA,090026.05,4821.38098541,N,00430.30573026,W,1,05,2.87,160.00,M,-21.3213,M,,*60
$GPGGA,090026.10,4821.38098541,N,00430.30573026,W,1,05,2.87,160.00,M,-21.3213,M,,*64
$GPGGA,090026.15,4821.38098541,N,00430.30573026,W,1,05,2.87,160.00,M,-21.3213,M,,*61
$GPGGA,090026.20,4821.38098541,N,00430.30573026,W,1,05,2.87,160.00,M,-21.3213,M,,*67
$GPGGA,090026.25,4821.38098541,N,00430.30573026,W,1,05,2.87,160.00,M,-21.3213,M,,*62
$GPGGA,090026.30,4821.38098541,N,00430.30573026,W,1,05,2.87,160.00,M,-21.3213,M,,*66
$GPGGA,090026.35,4821.38098541,N,00430.30573026,W,1,05,2.87,160.00,M,-21.3213,M,,*63
$GPGGA,090026.40,4821.38098541,N,00430.30573026,W,1,05,2.87,160.00,M,-21.3213,M,,*61
$GPGGA,090026.45,4821.38098541,N,00430.30573026,W,1,05,2.87,160.00,M,-21.3213,M,,*64
$GPGGA,090026.50,4821.38098541,N,00430.30573026,W,1,05,2.87,160.00,M,-21.3213,M,,*60
$GPGGA,090026.55,4821.38098541,N,00430.30573026,W,1,05,2.87,160.00,M,-21.3213,M,,*65
$GPGGA,090026.60,4821.38098541,N,00430.30573026,W,1,05,2.87,160.00,M,-21.3213,M,,*63
$GPGGA,090026.65,4821.38098541,N,00430.30573026,W,1,05,2.87,160.00,M,-21.3213,M,,*66
$GPGGA,090026.70,4821.38098541,N,00430.30573026,W,1,05,2.87,160.00,M,-21.3213,M,,*62
$GPGGA,090026.75,4821.38098541,N,00430.30573026,W,1,05,2.87,160.00,M,-21.3213,M,,*67
$GPGGA,090026.80,4821.38098541,N,00430.30573026,W,1,05,2.87,160.00,M,-21.3213,M,,*6D
$GPGGA,090026.85,4821.38098541,N,00430.30573026,W,1,05,2.87,160.00,M,-21.3213,M,,*68
$GPGGA,090026.90,4821.38098541,N,00430.30573026,W,1,05,2.87,160.00,M,-21.3213,M,,*6C
$GPGGA,090026.95,4821.38098541,N,00430.30573026,W,1,05,2.87,160.00,M,-21.3213,M,,*69
$GPGGA,090027.00,4821.38098541,N,00430.30573026,W,1,05,2.87,160.00,M,-21.3213,M,,*64
$GPGGA,090027.05,4821.38098541,N,00430.30573026,W,1,05,2.87,160.00,M,-21.3213,M,,*61
$GPGGA,090027.10,4821.38098541,N,00430.30573026,W,1,05,2.87,160.00,M,-21.3213,M,,*65
$GPGGA,090027.15,4821.38098541,N,00430.30573026,W,1,05,2.87,160.00,M,-21.3213,M,,*60
$GPGGA,090027.20,4821.38098541,N,00430.30573026,W,1,05,2.87,160.00,M,-21.3213,M,,*66
$GPGGA,090027.25,4821.38098541,N,00430.30573026,W,1,05,2.87,160.00,M,-21.3213,M,,*63
$GPGGA,090027.30,4821.38098541,N,00430.30573026,W,1,05,2.87,160.00,M,-21.3213,M,,*67
$GPGGA,090027.35,4821.38098541,N,00430.30573026,W,1,05,2.87,160.00,M,-21.3213,M,,*62
$GPGGA,090027.40,4821.38098541,N,00430.30573026,W,1,05,2.87,160.00,M,-21.3213,M,,*60
$GPGGA,090027.45,4821.38098541,N,00430.30573026,W,1,05,2.87,160.00,M,-21.3213,M,,*65
$GPGGA,090027.50,4821.38098541,N,00430.30573026,W,1,05,2.87,160.00,M,-21.3213,M,,*61
$GPGGA,090027.55,4821.38098541,N,00430.30573026,W,1,05,2.87,160.00,M,-21.3213,M,,*64
$GPGGA,090027.60,4821.38098541,N,00430.30573026,W,1,05,2.87,160.00,M,-21.3213,M,,*62
$GPGGA,090027.65,4821.38098541,N,00430.30573026,W,1,05,2.87,160.00,M,-21.3213,M,,*67
$GPGGA,090027.70,4821.38098541,N,00430.30573026,W,1,05,2.87,160.00,M,-21.3213,M,,*63
$GPGGA,090027.75,4821.38098541,N,00430.30573026,W,1,05,2.87,160.00,M,-21.3213,M,,*66
$GPGGA,090027.80,4821.38098541,N,00430.30573026,W,1,05,2.87,160.00,M,-21.3213,M,,*6C
$GPGGA,090027.85,4821.38098541,N,00430.30573026,W,1,05,2.87,160.00,M,-21.3213,M,,*69
$GPGGA,090027.90,4821.38098541,N,00430.30573026,W,1,05,2.87,160.00,M,-21.3213,M,,*6D
$GPGGA,090027.95,4821.38098541,N,00430.30573026,W,1,05,2.87,160.00,M,-21.3213,M,,*68
$GPGGA,090028.00,4821.38098541,N,00430.30573026,W,1,05,2.87,160.00,M,-21.3213,M,,*6B
$GPGGA,090028.05,4821.38098541,N,00430.30573026,W,1,05,2.87,160.00,M,-21.3213,M,,*6E
$GPGGA,090028.10,4821.38098541,N,00430.30573026,W,1,05,2.87,160.00,M,-21.3213,M,,*6A
$GPGGA,090028.15,4821.38098541,N,00430.30573026,W,1,05,2.87,160.00,M,-21.3213,M,,*6F
$GPGGA,090028.20,4821.38098541,N,00430.30573026,W,1,05,2.87,160.00,M,-21.3213,M,,*69
$GPGGA,090028.25,4821.38098541,N,00430.30573026,W,1,05,2.87,160.00,M,-21.3213,M,,*6C
$GPGGA,090028.30,4821.38098541,N,00430.30573026,W,1,05,2.87,160.00,M,-21.3213,M,,*68
$GPGGA,090028.35,4821.38098541,N,00430.30573026,W,1,05,2.87,160.00,M,-21.3213,M,,*6D
$GPGGA,090028.40,4821.38098541,N,00430.30573026,W,1,05,2.87,160.00,M,-21.3213,M,,*6F
$GPGGA,090028.45,4821.38098541,N,00430.30573026,W,1,05,2.87,160.00,M,-21.3213,M,,*6A
$GPGGA,090028.50,4821.38098541,N,00430.30573026,W,1,05,2.87,160.00,M,-21.3213,M,,*6E
$GPGGA,090028.55,4821.38098541,N,00430.30573026,W,1,05,2.87,160.00,M,-21.3213,M,,*6B
$GPGGA,090028.60,4821.38098541,N,00430.30573026,W,1,05,2.87,160.00,M,-21.3213,M,,*6D
$GPGGA,090028.65,4821.38098541,N,00430.30573026,W,1,05,2.87,160.00,M,-21.3213,M,,*68
$GPGGA,090028.70,4821.38098541,N,00430.30573026,W,1,05,2.87,160.00,M,-21.3213,M,,*6C
$GPGGA,090028.75,4821.38098541,N,00430.30573026,W,1,05,2.87,160.00,M,-21.3213,M,,*69
$GPGGA,090028.80,4821.38098541,N,00430.30573026,W,1,05,2.87,160.00,M,-21.3213,M,,*63
$GPGGA,090028.85,4821.38098541,N,00430.30573026,W,1,05,2.87,160.00,M,-21.3213,M,,*66
$GPGGA,090028.90,4821.38098541,N,00430.30573026,W,1,05,2.87,160.00,M,-21.3213,M,,*62
$GPGGA,090028.95,4821.38098541,N,00430.30573026,W,1,05,2.87,160.00,M,-21.3213,M,,*67
$GPGGA,090029.00,4821.38098541,N,00430.30573026,W,1,05,2.87,160.00,M,-21.3213,M,,*6A
$GPGGA,090029.05,4821.38098541,N,00430.30573026,W,1,05,2.87,160.00,M,-21.3213,M,,*6F
$GPGGA,090029.10,4821.38098541,N,00430.30573026,W,1,05,2.87,160.00,M,-21.3213,M,,*6B
$GPGGA,090029.15,4821.38098541,N,00430.30573026,W,1,05,2.87,160.00,M,-21.3213,M,,*6E
$GPGGA,090029.20,4821.38098541,N,00430.30573026,W,1,05,2.87,160.00,M,-21.3213,M,,*68
$GPGGA,090029.25,4821.38098541,N,00430.30573026,W,1,05,2.87,160.00,M,-21.3213,M,,*6D
$GPGGA,090029.30,4821.38098541,N,00430.30573026,W,1,05,2.87,160.00,M,-21.3213,M,,*69
$GPGGA,090029.35,4821.38098541,N,00430.30573026,W,1,05,2.87,160.00,M,-21.3213,M,,*6C
$GPGGA,090029.40,4821.38098541,N,00430.30573026,W,1,05,2.87,160.00,M,-21.3213,M,,*6E
$GPGGA,090029.45,4821.38098541,N,00430.30573026,W,1,05,2.87,160.00,M,-21.3213,M,,*6B
$GPGGA,090029.50,4821.38098541,N,00430.30573026,W,1,05,2.87,160.00,M,-21.3213,M,,*6F
$GPGGA,090029.55,4821.38098541,N,00430.30573026,W,1,05,2.87,160.00,M,-21.3213,M,,*6A
$GPGGA,090029.60,4821.38098541,N,00430.30573026,W,1,05,2.87,160.00,M,-21.3213,M,,*6C
$GPGGA,090029.65,4821.38098541,N,00430.30573026,W,1,05,2.87,160.00,M,-21.3213,M,,*69
$GPGGA,090029.70,4821.38098541,N,00430.30573026,W,1,05,2.87,160.00,M,-21.3213,M,,*6D
$GPGGA,090029.75,4821.38098541,N,00430.30573026,W,1,05,2.87,160.00,M,-21.3213,M,,*68
$GPGGA,090029.80,4821.38098541,N,00430.30573026,W,1,05,2.87,160.00,M,-21.3213,M,,*62
$GPGGA,090029.85,4821.38098541,N,00430.30573026,W,1,05,2.87,160.00,M,-21.3213,M,,*67
$GPGGA,090029.90,4821.38098541,N,00430.30573026,W,1,05,2.87,160.00,M,-21.3213,M,,*63
$GPGGA,090029.95,4821.38098541,N,00430.30573026,W,1,05,2.87,160.00,M,-21.3213,M,,*66
$GPGGA,090030.00,4821.38098541,N,00430.30573026,W,1,05,2.87,160.00,M,-21.3213,M,,*62
$GPGGA,090030.05,4821.38098541,N,00430.30573026,W,1,05,2.87,160.00,M,-21.3213,M,,*67
$GPGGA,090030.10,4821.38098541,N,00430.30573026,W,1,05,2.87,160.00,M,-21.3213,M,,*63
$GPGGA,090030.15,4821.38098541,N,00430.30573026,W,1,05,2.87,160.00,M,-21.3213,M,,*66
$GPGGA,090030.20,4821.38098541,N,00430.30573026,W,1,05,2.87,160.00,M,-21.3213,M,,*60
$GPGGA,090030.25,4821.38098541,N,00430.30573026,W,1,05,2.87,160.00,M,-21.3213,M,,*65
$GPGGA,090030.30,4821.38098541,N,00430.30573026,W,1,05,2.87,160.00,M,-21.3213,M,,*61
$GPGGA,090030.35,4821.38098541,N,00430.30573026,W,1,05,2.87,160.00,M,-21.3213,M,,*64
$GPGGA,090030.40,4821.38098541,N,00430.30573026,W,1,05,2.87,160.00,M,-21.3213,M,,*66
$GPGGA,090030.45,4821.38098541,N,00430.30573026,W,1,05,2.87,160.00,M,-21.3213,M,,*63
$GPGGA,090030.50,4821.38098541,N,00430.30573026,W,1,05,2.87,160.00,M,-21.3213,M,,*67
$GPGGA,090030.55,4821.38098541,N,00430.30573026,W,1,05,2.87,160.00,M,-21.3213,M,,*62
$GPGGA,090030.60,4821.38098541,N,00430.30573026,W,1,05,2.87,160.00,M,-21.3213,M,,*64
$GPGGA,090030.65,4821.38098541,N,00430.30573026,W,1,05,2.87,160.00,M,-21.3213,M,,*61
$GPGGA,090030.70,4821.38098541,N,00430.30573026,W,1,05,2.87,160.00,M,-21.3213,M,,*65
$GPGGA,090030.75,4821.38098541,N,00430.30573026,W,1,05,2.87,160.00,M,-21.3213,M,,*60
$GPGGA,090030.80,4821.38098541,N,00430.30573026,W,1,05,2.87,160.00,M,-21.3213,M,,*6A
$GPGGA,090030.85,4821.38098541,N,00430.30573026,W,1,05,2.87,160.00,M,-21.3213,M,,*6F
$GPGGA,090030.90,4821.38098541,N,00430.30573026,W,1,05,2.87,160.00,M,-21.3213,M,,*6B
$GPGGA,090030.95,4821.38098541,N,00430.30573026,W,1,05,2.87,160.00,M,-21.3213,M,,*6E
$GPGGA,090031.00,4821.38098541,N,00430.30573026,W,1,05,2.87,160.00,M,-21.3213,M,,*63
$GPGGA,090031.05,4821.38098541,N,00430.30573026,W,1,05,2.87,160.00,M,-21.3213,M,,*66
$GPGGA,090031.10,4821.38098541,N,00430.30573026,W,1,05,2.87,160.00,M,-21.3213,M,,*62
$GPGGA,090031.15,4821.38098541,N,00430.30573026,W,1,05,2.87,160.00,M,-21.3213,M,,*67
$GPGGA,090031.20,4821.38098541,N,00430.30573026,W,1,05,2.87,160.00,M,-21.3213,M,,*61
$GPGGA,090031.25,4821.38098541,N,00430.30573026,W,1,05,2.87,160.00,M,-21.3213,M,,*64
$GPGGA,090031.30,4821.38098541,N,00430.30573026,W,1,05,2.87,160.00,M,-21.3213,M,,*60
$GPGGA,090031.35,4821.38098541,N,00430.30573026,W,1,05,2.87,160.00,M,-21.3213,M,,*65
$GPGGA,090031.40,4821.38098541,N,00430.30573026,W,1,05,2.87,160.00,M,-21.3213,M,,*67
$GPGGA,090031.45,4821.38098541,N,00430.30573026,W,1,05,2.87,160.00,M,-21.3213,M,,*62
$GPGGA,090031.50,4821.38098541,N,00430.30573026,W,1,05,2.87,160.00,M,-21.3213,M,,*66
$GPGGA,090031.55,4821.38098541,N,00430.30573026,W,1,05,2.87,160.00,M,-21.3213,M,,*63
$GPGGA,090031.60,4821.38098541,N,00430.30573026,W,1,05,2.87,160.00,M,-21.3213,M,,*65
$GPGGA,090031.65,4821.38098541,N,00430.30573026,W,1,05,2.87,160.00,M,-21.3213,M,,*60
$GPGGA,090031.70,4821.38098541,N,00430.30573026,W,1,05,2.87,160.00,M,-21.3213,M,,*64
$GPGGA,090031.75,4821.38098541,N,00430.30573026,W,1,05,2.87,160.00,M,-21.3213,M,,*61
$GPGGA,090031.80,4821.38098541,N,00430.30573026,W,1,05,2.87,160.00,M,-21.3213,M,,*6B
$GPGGA,090031.85,4821.38098541,N,00430.30573026,W,1,05,2.87,160.00,M,-21.3213,M,,*6E
$GPGGA,090031.90,4821.38098541,N,00430.30573026,W,1,05,2.87,160.00,M,-21.3213,M,,*6A
$GPGGA,090031.95,4821.38098541,N,00430.30573026,W,1,05,2.87,160.00,M,-21.3213,M,,*6F
$GPGGA,090032.00,4821.38098541,N,00430.30573026,W,1,05,2.87,160.00,M,-21.3213,M,,*60
$GPGGA,090032.05,4821.38098541,N,00430.30573026,W,1,05,2.87,160.00,M,-21.3213,M,,*65
$GPGGA,090032.10,4821.38098541,N,00430.30573026,W,1,05,2.87,160.00,M,-21.3213,M,,*61
$GPGGA,090032.15,4821.38098541,N,00430.30573026,W,1,05,2.87,160.00,M,-21.3213,M,,*64
$GPGGA,090032.20,4821.38098541,N,00430.30573026,W,1,05,2.87,160.00,M,-21.3213,M,,*62
$GPGGA,090032.25,4821.38098541,N,00430.30573026,W,1,05,2.87,160.00,M,-21.3213,M,,*67
$GPGGA,090032.30,4821.38098541,N,00430.30573026,W,1,05,2.87,160.00,M,-21.3213,M,,*63
$GPGGA,090032.35,4821.38098541,N,00430.30573026,W,1,05,2.87,160.00,M,-21.3213,M,,*66
$GPGGA,090032.40,4821.38098541,N,00430.30573026,W,1,05,2.87,160.00,M,-21.3213,M,,*64
$GPGGA,090032.45,4821.38098541,N,00430.30573026,W,1,05,2.87,160.00,M,-21.3213,M,,*61
$GPGGA,090032.50,4821.38098541,N,00430.30573026,W,1,05,2.87,160.00,M,-21.3213,M,,*65
$GPGGA,090032.55,4821.38098541,N,00430.30573026,W,1,05,2.87,160.00,M,-21.3213,M,,*60
$GPGGA,090032.60,4821.38098541,N,00430.30573026,W,1,05,2.87,160.00,M,-21.3213,M,,*66
$GPGGA,090032.65,4821.38098541,N,00430.30573026,W,1,05,2.87,160.00,M,-21.3213,M,,*63
$GPGGA,090032.70,4821.38098541,N,00430.30573026,W,1,05,2.87,160.00,M,-21.3213,M,,*67
$GPGGA,090032.75,4821.38098541,N,00430.30573026,W,1,05,2.87,160.00,M,-21.3213,M,,*62
$GPGGA,090032.80,4821.38098541,N,00430.30573026,W,1,05,2.87,160.00,M,-21.3213,M,,*68
$GPGGA,090032.85,4821.38098541,N,00430.30573026,W,1,05,2.87,160.00,M,-21.3213,M,,*6D
$GPGGA,090032.90,4821.38098541,N,00430.30573026,W,1,05,2.87,160.00,M,-21.3213,M,,*69
$GPGGA,090032.95,4821.38098541,N,00430.30573026,W,1,05,2.87,160.00,M,-21.3213,M,,*6C
$GPGGA,090033.00,4821.38098541,N,00430.30573026,W,1,05,2.87,160.00,M,-21.3213,M,,*61
$GPGGA,090033.05,4821.38098541,N,00430.30573026,W,1,05,2.87,160.00,M,-21.3213,M,,*64
$GPGGA,090033.10,4821.38098541,N,00430.30573026,W,1,05,2.87,160.00,M,-21.3213,M,,*60
$GPGGA,090033.15,4821.38098541,N,00430.30573026,W,1,05,2.87,160.00,M,-21.3213,M,,*65
$GPGGA,090033.20,4821.38098541,N,00430.30573026,W,1,05,2.87,160.00,M,-21.3213,M,,*63
$GPGGA,090033.25,4821.38098541,N,00430.30573026,W,1,05,2.87,160.00,M,-21.3213,M,,*66
$GPGGA,090033.30,4821.38098541,N,00430.30573026,W,1,05,2.87,160.00,M,-21.3213,M,,*62
$GPGGA,090033.35,4821.38098541,N,00430.30573026,W,1,05,2.87,160.00,M,-21.3213,M,,*67
$GPGGA,090033.40,4821.38098541,N,00430.30573026,W,1,05,2.87,160.00,M,-21.3213,M,,*65
$GPGGA,090033.45,4821.38098541,N,00430.30573026,W,1,05,2.87,160.00,M,-21.3213,M,,*60
$GPGGA,090033.50,4821.38098541,N,00430.30573026,W,1,05,2.87,160.00,M,-21.3213,M,,*64
$GPGGA,090033.55,4821.38098541,N,00430.30573026,W,1,05,2.87,160.00,M,-21.3213,M,,*61
$GPGGA,090033.60,4821.38098541,N,00430.30573026,W,1,05,2.87,160.00,M,-21.3213,M,,*67
$GPGGA,090033.65,4821.38098541,N,00430.30573026,W,1,05,2.87,160.00,M,-21.3213,M,,*62
$GPGGA,090033.70,4821.38098541,N,00430.30573026,W,1,05,2.87,160.00,M,-21.3213,M,,*66
$GPGGA,090033.75,4821.38098541,N,00430.30573026,W,1,05,2.87,160.00,M,-21.3213,M,,*63
$GPGGA,090033.80,4821.38098541,N,00430.30573026,W,1,05,2.87,160.00,M,-21.3213,M,,*69
$GPGGA,090033.85,4821.38098541,N,00430.30573026,W,1,05,2.87,160.00,M,-21.3213,M,,*6C
$GPGGA,090033.90,4821.38098541,N,00430.30573026,W,1,05,2.87,160.00,M,-21.3213,M,,*68
$GPGGA,090033.95,4821.38098541,N,00430.30573026,W,1,05,2.87,160.00,M,-21.3213,M,,*6D
$GPGGA,090034.00,4821.38098541,N,00430.30573026,W,1,05,2.87,160.00,M,-21.3213,M,,*66
$GPGGA,090034.05,4821.38098541,N,00430.30573026,W,1,05,2.87,160.00,M,-21.3213,M,,*63
$GPGGA,090034.10,4821.38098541,N,00430.30573026,W,1,05,2.87,160.00,M,-21.3213,M,,*67
$GPGGA,090034.15,4821.38098541,N,00430.30573026,W,1,05,2.87,160.00,M,-21.3213,M,,*62
$GPGGA,090034.20,4821.38098541,N,00430.30573026,W,1,05,2.87,160.00,M,-21.3213,M,,*64
$GPGGA,090034.25,4821.38098541,N,00430.30573026,W,1,05,2.87,160.00,M,-21.3213,M,,*61
$GPGGA,090034.30,4821.38098541,N,00430.30573026,W,1,05,2.87,160.00,M,-21.3213,M,,*65
$GPGGA,090034.35,4821.38098541,N,00430.30573026,W,1,05,2.87,160.00,M,-21.3213,M,,*60
$GPGGA,090034.40,4821.38098541,N,00430.30573026,W,1,05,2.87,160.00,M,-21.3213,M,,*62
$GPGGA,090034.45,4821.38098541,N,00430.30573026,W,1,05,2.87,160.00,M,-21.3213,M,,*67
$GPGGA,090034.50,4821.38098541,N,00430.30573026,W,1,05,2.87,160.00,M,-21.3213,M,,*63
$GPGGA,090034.55,4821.38098541,N,00430.30573026,W,1,05,2.87,160.00,M,-21.3213,M,,*66
$GPGGA,090034.60,4821.38098541,N,00430.30573026,W,1,05,2.87,160.00,M,-21.3213,M,,*60
$GPGGA,090034.65,4821.38098541,N,00430.30573026,W,1,05,2.87,160.00,M,-21.3213,M,,*65
$GPGGA,090034.70,4821.38098541,N,00430.30573026,W,1,05,2.87,160.00,M,-21.3213,M,,*61
$GPGGA,090034.75,4821.38098541,N,00430.30573026,W,1,05,2.87,160.00,M,-21.3213,M,,*64
$GPGGA,090034.80,4821.38098541,N,00430.30573026,W,1,05,2.87,160.00,M,-21.3213,M,,*6E
