$GPGGA,090000.00,4822.69484600,N,00429.55351935,W,1,05,2.87,160.00,M,-21.3213,M,,*6F
$GPGGA,090000.50,4822.69484600,N,00429.55351935,W,1,05,2.87,160.00,M,-21.3213,M,,*6A
$GPGGA,090001.00,4822.69484600,N,00429.55351935,W,1,05,2.87,160.00,M,-21.3213,M,,*6E
$GPGGA,090001.50,4822.69484600,N,00429.55351935,W,1,05,2.87,160.00,M,-21.3213,M,,*6B
$GPGGA,090002.00,4822.69484600,N,00429.55351935,W,1,05,2.87,160.00,M,-21.3213,M,,*6D
$GPGGA,090002.50,4822.69484600,N,00429.55351935,W,1,05,2.87,160.00,M,-21.3213,M,,*68
$GPGGA,090003.00,4822.69484600,N,00429.55351935,W,1,05,2.87,160.00,M,-21.3213,M,,*6C
$GPGGA,090003.50,4822.69484600,N,00429.55351935,W,1,05,2.87,160.00,M,-21.3213,M,,*69
$GPGGA,090004.00,4822.69484600,N,00429.55351935,W,1,05,2.87,160.00,M,-21.3213,M,,*6B
$GPGGA,090004.50,4822.69484600,N,00429.55351935,W,1,05,2.87,160.00,M,-21.3213,M,,*6E
$GPGGA,090005.00,4822.69484600,N,00429.55351935,W,1,05,2.87,160.00,M,-21.3213,M,,*6A
$GPGGA,090005.50,4822.69484600,N,00429.55351935,W,1,05,2.87,160.00,M,-21.3213,M,,*6F
$GPGGA,090006.00,4822.69484600,N,00429.55351935,W,1,05,2.87,160.00,M,-21.3213,M,,*69
$GPGGA,090006.50,4822.69484600,N,00429.55351935,W,1,05,2.87,160.00,M,-21.3213,M,,*6C
$GPGGA,090007.00,4822.69484600,N,00429.55351935,W,1,05,2.87,160.00,M,-21.3213,M,,*68
$GPGGA,090007.50,4822.69484600,N,00429.55351935,W,1,05,2.87,160.00,M,-21.3213,M,,*6D
$GPGGA,090008.00,4822.69484600,N,00429.55351935,W,1,05,2.87,160.00,M,-21.3213,M,,*67
$GPGGA,090008.50,4822.69484600,N,00429.55351935,W,1,05,2.87,160.00,M,-21.3213,M,,*62
$GPGGA,090009.00,4822.69484600,N,00429.55351935,W,1,05,2.87,160.00,M,-21.3213,M,,*66
$GPGGA,090009.50,4822.69484600,N,00429.55351935,W,1,05,2.87,160.00,M,-21.3213,M,,*63
$GPGGA,090010.00,4822.69484600,N,00429.55351935,W,1,05,2.87,160.00,M,-21.3213,M,,*6E
$GPGGA,090010.50,4822.69484600,N,00429.55351935,W,1,05,2.87,160.00,M,-21.3213,M,,*6B
$GPGGA,090011.00,4822.69484600,N,00429.55351935,W,1,05,2.87,160.00,M,-21.3213,M,,*6F
$GPGGA,090011.50,4822.69484600,N,00429.55351935,W,1,05,2.87,160.00,M,-21.3213,M,,*6A
$GPGGA,090012.00,4822.69484600,N,00429.55351935,W,1,05,2.87,160.00,M,-21.3213,M,,*6C
$GPGGA,090012.50,4822.69484600,N,00429.55351935,W,1,05,2.87,160.00,M,-21.3213,M,,*69
$GPGGA,090013.00,4822.69484600,N,00429.55351935,W,1,05,2.87,160.00,M,-21.3213,M,,*6D
$GPGGA,090013.50,4822.69484600,N,00429.55351935,W,1,05,2.87,160.00,M,-21.3213,M,,*68
$GPGGA,090014.00,4822.69484600,N,00429.55351935,W,1,05,2.87,160.00,M,-21.3213,M,,*6A
$GPGGA,090014.50,4822.69484600,N,00429.55351935,W,1,05,2.87,160.00,M,-21.3213,M,,*6F
$GPGGA,090015.00,4822.69484600,N,00429.55351935,W,1,05,2.87,160.00,M,-21.3213,M,,*6B
$GPGGA,090015.50,4822.69484600,N,00429.55351935,W,1,05,2.87,160.00,M,-21.3213,M,,*6E
$GPGGA,090016.00,4822.69484600,N,00429.55351935,W,1,05,2.87,160.00,M,-21.3213,M,,*68
$GPGGA,090016.50,4822.69484600,N,00429.55351935,W,1,05,2.87,160.00,M,-21.3213,M,,*6D
$GPGGA,090017.00,4822.69484600,N,00429.55351935,W,1,05,2.87,160.00,M,-21.3213,M,,*69
$GPGGA,090017.50,4822.69484600,N,00429.55351935,W,1,05,2.87,160.00,M,-21.3213,M,,*6C
$GPGGA,090018.00,4822.69484600,N,00429.55351935,W,1,05,2.87,160.00,M,-21.3213,M,,*66
$GPGGA,090018.50,4822.69484600,N,00429.55351935,W,1,05,2.87,160.00,M,-21.3213,M,,*63
$GPGGA,090019.00,4822.69484600,N,00429.55351935,W,1,05,2.87,160.00,M,-21.3213,M,,*67
$GPGGA,090019.50,4822.69484600,N,00429.55351935,W,1,05,2.87,160.00,M,-21.3213,M,,*62
$GPGGA,090020.00,4822.69484600,N,00429.55351935,W,1,05,2.87,160.00,M,-21.3213,M,,*6D
$GPGGA,090020.50,4822.69484600,N,00429.55351935,W,1,05,2.87,160.00,M,-21.3213,M,,*68
$GPGGA,090021.00,4822.69484600,N,00429.55351935,W,1,05,2.87,160.00,M,-21.3213,M,,*6C
$GPGGA,090021.50,4822.69484600,N,00429.55351935,W,1,05,2.87,160.00,M,-21.3213,M,,*69
$GPGGA,090022.00,4822.69484600,N,00429.55351935,W,1,05,2.87,160.00,M,-21.3213,M,,*6F
$GPGGA,090022.50,4822.69484600,N,00429.55351935,W,1,05,2.87,160.00,M,-21.3213,M,,*6A
$GPGGA,090023.00,4822.69484600,N,00429.55351935,W,1,05,2.87,160.00,M,-21.3213,M,,*6E
$GPGGA,090023.50,4822.69484600,N,00429.55351935,W,1,05,2.87,160.00,M,-21.3213,M,,*6B
$GPGGA,090024.00,4822.69484600,N,00429.55351935,W,1,05,2.87,160.00,M,-21.3213,M,,*69
$GPGGA,090024.50,4822.69484600,N,00429.55351935,W,1,05,2.87,160.00,M,-21.3213,M,,*6C
$GPGGA,090025.00,4822.69484600,N,00429.55351935,W,1,05,2.87,160.00,M,-21.3213,M,,*68
$GPGGA,090025.50,4822.69484600,N,00429.55351935,W,1,05,2.87,160.00,M,-21.3213,M,,*6D
$GPGGA,090026.00,4822.69484600,N,00429.55351935,W,1,05,2.87,160.00,M,-21.3213,M,,*6B
$GPGGA,090026.50,4822.69484600,N,00429.55351935,W,1,05,2.87,160.00,M,-21.3213,M,,*6E
$GPGGA,090027.00,4822.69484600,N,00429.55351935,W,1,05,2.87,160.00,M,-21.3213,M,,*6A
$GPGGA,090027.50,4822.69484600,N,00429.55351935,W,1,05,2.87,160.00,M,-21.3213,M,,*6F
$GPGGA,090028.00,4822.69484600,N,00429.55351935,W,1,05,2.87,160.00,M,-21.3213,M,,*65
$GPGGA,090028.50,4822.69484600,N,00429.55351935,W,1,05,2.87,160.00,M,-21.3213,M,,*60
$GPGGA,090029.00,4822.69484600,N,00429.55351935,W,1,05,2.87,160.00,M,-21.3213,M,,*64
$GPGGA,090029.50,4822.69484600,N,00429.55351935,W,1,05,2.87,160.00,M,-21.3213,M,,*61
$GPGGA,090030.00,4822.69484600,N,00429.55351935,W,1,05,2.87,160.00,M,-21.3213,M,,*6C
$GPGGA,090030.50,4822.69484600,N,00429.55351935,W,1,05,2.87,160.00,M,-21.3213,M,,*69
$GPGGA,090031.00,4822.69484600,N,00429.55351935,W,1,05,2.87,160.00,M,-21.3213,M,,*6D
$GPGGA,090031.50,4822.69484600,N,00429.55351935,W,1,05,2.87,160.00,M,-21.3213,M,,*68
$GPGGA,090032.00,4822.69484600,N,00429.55351935,W,1,05,2.87,160.00,M,-21.3213,M,,*6E
$GPGGA,090032.50,4822.69484600,N,00429.55351935,W,1,05,2.87,160.00,M,-21.3213,M,,*6B
$GPGGA,090033.00,4822.69484600,N,00429.55351935,W,1,05,2.87,160.00,M,-21.3213,M,,*6F
$GPGGA,090033.50,4822.69484600,N,00429.55351935,W,1,05,2.87,160.00,M,-21.3213,M,,*6A
$GPGGA,090034.00,4822.69484600,N,00429.55351935,W,1,05,2.87,160.00,M,-21.3213,M,,*68
$GPGGA,090034.50,4822.69484600,N,00429.55351935,W,1,05,2.87,160.00,M,-21.3213,M,,*6D
$GPGGA,090035.00,4822.69484600,N,00429.55351935,W,1,05,2.87,160.00,M,-21.3213,M,,*69
$GPGGA,090035.50,4822.69484600,N,00429.55351935,W,1,05,2.87,160.00,M,-21.3213,M,,*6C
$GPGGA,090036.00,4822.69484600,N,00429.55351935,W,1,05,2.87,160.00,M,-21.3213,M,,*6A
$GPGGA,090036.50,4822.69484600,N,00429.55351935,W,1,05,2.87,160.00,M,-21.3213,M,,*6F
$GPGGA,090037.00,4822.69484600,N,00429.55351935,W,1,05,2.87,160.00,M,-21.3213,M,,*6B
$GPGGA,090037.50,4822.69484600,N,00429.55351935,W,1,05,2.87,160.00,M,-21.3213,M,,*6E
$GPGGA,090038.00,4822.69484600,N,00429.55351935,W,1,05,2.87,160.00,M,-21.3213,M,,*64
$GPGGA,090038.50,4822.69484600,N,00429.55351935,W,1,05,2.87,160.00,M,-21.3213,M,,*61
$GPGGA,090039.00,4822.69484600,N,00429.55351935,W,1,05,2.87,160.00,M,-21.3213,M,,*65
$GPGGA,090039.50,4822.69484600,N,00429.55351935,W,1,05,2.87,160.00,M,-21.3213,M,,*60
$GPGGA,090040.00,4822.69484600,N,00429.55351935,W,1,05,2.87,160.00,M,-21.3213,M,,*6B
$GPGGA,090040.50,4822.69484600,N,00429.55351935,W,1,05,2.87,160.00,M,-21.3213,M,,*6E
$GPGGA,090041.00,4822.69484600,N,00429.55351935,W,1,05,2.87,160.00,M,-21.3213,M,,*6A
$GPGGA,090041.50,4822.69484600,N,00429.55351935,W,1,05,2.87,160.00,M,-21.3213,M,,*6F
$GPGGA,090042.00,4822.69484600,N,00429.55351935,W,1,05,2.87,160.00,M,-21.3213,M,,*69
$GPGGA,090042.50,4822.69484600,N,00429.55351935,W,1,05,2.87,160.00,M,-21.3213,M,,*6C
$GPGGA,090043.00,4822.69484600,N,00429.55351935,W,1,05,2.87,160.00,M,-21.3213,M,,*68
$GPGGA,090043.50,4822.69484600,N,00429.55351935,W,1,05,2.87,160.00,M,-21.3213,M,,*6D
$GPGGA,090044.00,4822.69484600,N,00429.55351935,W,1,05,2.87,160.00,M,-21.3213,M,,*6F
$GPGGA,090044.50,4822.69484600,N,00429.55351935,W,1,05,2.87,160.00,M,-21.3213,M,,*6A
$GPGGA,090045.00,4822.69484600,N,00429.55351935,W,1,05,2.87,160.00,M,-21.3213,M,,*6E
$GPGGA,090045.50,4822.69484600,N,00429.55351935,W,1,05,2.87,160.00,M,-21.3213,M,,*6B
$GPGGA,090046.00,4822.69484600,N,00429.55351935,W,1,05,2.87,160.00,M,-21.3213,M,,*6D
$GPGGA,090046.50,4822.69484600,N,00429.55351935,W,1,05,2.87,160.00,M,-21.3213,M,,*68
$GPGGA,090047.00,4822.69484600,N,00429.55351935,W,1,05,2.87,160.00,M,-21.3213,M,,*6C
$GPGGA,090047.50,4822.69484600,N,00429.55351935,W,1,05,2.87,160.00,M,-21.3213,M,,*69
$GPGGA,090048.00,4822.69484600,N,00429.55351935,W,1,05,2.87,160.00,M,-21.3213,M,,*63
$GPGGA,090048.50,4822.69484600,N,00429.55351935,W,1,05,2.87,160.00,M,-21.3213,M,,*66
$GPGGA,090049.00,4822.69484600,N,00429.55351935,W,1,05,2.87,160.00,M,-21.3213,M,,*62
$GPGGA,090049.50,4822.69484600,N,00429.55351935,W,1,05,2.87,160.00,M,-21.3213,M,,*67
$GPGGA,090050.00,4822.69484600,N,00429.55351935,W,1,05,2.87,160.00,M,-21.3213,M,,*6A
$GPGGA,090050.50,4822.69484600,N,00429.55351935,W,1,05,2.87,160.00,M,-21.3213,M,,*6F
$GPGGA,090051.00,4822.69484600,N,00429.55351935,W,1,05,2.87,160.00,M,-21.3213,M,,*6B
$GPGGA,090051.50,4822.69484600,N,00429.55351935,W,1,05,2.87,160.00,M,-21.3213,M,,*6E
$GPGGA,090052.00,4822.69484600,N,00429.55351935,W,1,05,2.87,160.00,M,-21.3213,M,,*68
$GPGGA,090052.50,4822.69484600,N,00429.55351935,W,1,05,2.87,160.00,M,-21.3213,M,,*6D
$GPGGA,090053.00,4822.69484600,N,00429.55351935,W,1,05,2.87,160.00,M,-21.3213,M,,*69
$GPGGA,090053.50,4822.69484600,N,00429.55351935,W,1,05,2.87,160.00,M,-21.3213,M,,*6C
$GPGGA,090054.00,4822.69484600,N,00429.55351935,W,1,05,2.87,160.00,M,-21.3213,M,,*6E
$GPGGA,090054.50,4822.69484600,N,00429.55351935,W,1,05,2.87,160.00,M,-21.3213,M,,*6B
$GPGGA,090055.00,4822.69484600,N,00429.55351935,W,1,05,2.87,160.00,M,-21.3213,M,,*6F
$GPGGA,090055.50,4822.69484600,N,00429.55351935,W,1,05,2.87,160.00,M,-21.3213,M,,*6A
$GPGGA,090056.00,4822.69484600,N,00429.55351935,W,1,05,2.87,160.00,M,-21.3213,M,,*6C
$GPGGA,090056.50,4822.69484600,N,00429.55351935,W,1,05,2.87,160.00,M,-21.3213,M,,*69
$GPGGA,090057.00,4822.69484600,N,00429.55351935,W,1,05,2.87,160.00,M,-21.3213,M,,*6D
$GPGGA,090057.50,4822.69484600,N,00429.55351935,W,1,05,2.87,160.00,M,-21.3213,M,,*68
$GPGGA,090058.00,4822.69484600,N,00429.55351935,W,1,05,2.87,160.00,M,-21.3213,M,,*62
$GPGGA,090058.50,4822.69484600,N,00429.55351935,W,1,05,2.87,160.00,M,-21.3213,M,,*67
$GPGGA,090059.00,4822.69484600,N,00429.55351935,W,1,05,2.87,160.00,M,-21.3213,M,,*63
$GPGGA,090059.50,4822.69484600,N,00429.55351935,W,1,05,2.87,160.00,M,-21.3213,M,,*66
$GPGGA,090100.00,4822.69484600,N,00429.55351935,W,1,05,2.87,160.00,M,-21.3213,M,,*6E
$GPGGA,090100.50,4822.69484600,N,00429.55351935,W,1,05,2.87,160.00,M,-21.3213,M,,*6B
$GPGGA,090101.00,4822.69484600,N,00429.55351935,W,1,05,2.87,160.00,M,-21.3213,M,,*6F
$GPGGA,090101.50,4822.69484600,N,00429.55351935,W,1,05,2.87,160.00,M,-21.3213,M,,*6A
$GPGGA,090102.00,4822.69484600,N,00429.55351935,W,1,05,2.87,160.00,M,-21.3213,M,,*6C
$GPGGA,090102.50,4822.69484600,N,00429.55351935,W,1,05,2.87,160.00,M,-21.3213,M,,*69
$GPGGA,090103.00,4822.69484600,N,00429.55351935,W,1,05,2.87,160.00,M,-21.3213,M,,*6D
$GPGGA,090103.50,4822.69484600,N,00429.55351935,W,1,05,2.87,160.00,M,-21.3213,M,,*68
$GPGGA,090104.00,4822.69484600,N,00429.55351935,W,1,05,2.87,160.00,M,-21.3213,M,,*6A
$GPGGA,090104.50,4822.69484600,N,00429.55351935,W,1,05,2.87,160.00,M,-21.3213,M,,*6F
$GPGGA,090105.00,4822.69484600,N,00429.55351935,W,1,05,2.87,160.00,M,-21.3213,M,,*6B
$GPGGA,090105.50,4822.69484600,N,00429.55351935,W,1,05,2.87,160.00,M,-21.3213,M,,*6E
$GPGGA,090106.00,4822.69484600,N,00429.55351935,W,1,05,2.87,160.00,M,-21.3213,M,,*68
$GPGGA,090106.50,4822.69484600,N,00429.55351935,W,1,05,2.87,160.00,M,-21.3213,M,,*6D
$GPGGA,090107.00,4822.69484600,N,00429.55351935,W,1,05,2.87,160.00,M,-21.3213,M,,*69
$GPGGA,090107.50,4822.69484600,N,00429.55351935,W,1,05,2.87,160.00,M,-21.3213,M,,*6C
$GPGGA,090108.00,4822.69484600,N,00429.55351935,W,1,05,2.87,160.00,M,-21.3213,M,,*66
$GPGGA,090108.50,4822.69484600,N,00429.55351935,W,1,05,2.87,160.00,M,-21.3213,M,,*63
$GPGGA,090109.00,4822.69484600,N,00429.55351935,W,1,05,2.87,160.00,M,-21.3213,M,,*67
$GPGGA,090109.50,4822.69484600,N,00429.55351935,W,1,05,2.87,160.00,M,-21.3213,M,,*62
$GPGGA,090110.00,4822.69484600,N,00429.55351935,W,1,05,2.87,160.00,M,-21.3213,M,,*6F
$GPGGA,090110.50,4822.69484600,N,00429.55351935,W,1,05,2.87,160.00,M,-21.3213,M,,*6A
$GPGGA,090111.00,4822.69484600,N,00429.55351935,W,1,05,2.87,160.00,M,-21.3213,M,,*6E
$GPGGA,090111.50,4822.69484600,N,00429.55351935,W,1,05,2.87,160.00,M,-21.3213,M,,*6B
$GPGGA,090112.00,4822.69484600,N,00429.55351935,W,1,05,2.87,160.00,M,-21.3213,M,,*6D
$GPGGA,090112.50,4822.69484600,N,00429.55351935,W,1,05,2.87,160.00,M,-21.3213,M,,*68
$GPGGA,090113.00,4822.69484600,N,00429.55351935,W,1,05,2.87,160.00,M,-21.3213,M,,*6C
$GPGGA,090113.50,4822.69484600,N,00429.55351935,W,1,05,2.87,160.00,M,-21.3213,M,,*69
$GPGGA,090114.00,4822.69484600,N,00429.55351935,W,1,05,2.87,160.00,M,-21.3213,M,,*6B
$GPGGA,090114.50,4822.69484600,N,00429.55351935,W,1,05,2.87,160.00,M,-21.3213,M,,*6E
$GPGGA,090115.00,4822.69484600,N,00429.55351935,W,1,05,2.87,160.00,M,-21.3213,M,,*6A
$GPGGA,090115.50,4822.69484600,N,00429.55351935,W,1,05,2.87,160.00,M,-21.3213,M,,*6F
$GPGGA,090116.00,4822.69484600,N,00429.55351935,W,1,05,2.87,160.00,M,-21.3213,M,,*69
$GPGGA,090116.50,4822.69484600,N,00429.55351935,W,1,05,2.87,160.00,M,-21.3213,M,,*6C
$GPGGA,090117.00,4822.69484600,N,00429.55351935,W,1,05,2.87,160.00,M,-21.3213,M,,*68
$GPGGA,090117.50,4822.69484600,N,00429.55351935,W,1,05,2.87,160.00,M,-21.3213,M,,*6D
$GPGGA,090118.00,4822.69484600,N,00429.55351935,W,1,05,2.87,160.00,M,-21.3213,M,,*67
$GPGGA,090118.50,4822.69484600,N,00429.55351935,W,1,05,2.87,160.00,M,-21.3213,M,,*62
$GPGGA,090119.00,4822.69484600,N,00429.55351935,W,1,05,2.87,160.00,M,-21.3213,M,,*66
$GPGGA,090119.50,4822.69484600,N,00429.55351935,W,1,05,2.87,160.00,M,-21.3213,M,,*63
$GPGGA,090120.00,4822.68773505,N,00429.55016907,W,1,05,2.87,160.00,M,-21.3213,M,,*61
$GPGGA,090120.50,4822.68052254,N,00429.54677096,W,1,05,2.87,160.00,M,-21.3213,M,,*62
$GPGGA,090121.00,4822.67339949,N,00429.54341501,W,1,05,2.87,160.00,M,-21.3213,M,,*6B
$GPGGA,090121.50,4822.66624871,N,00429.54004601,W,1,05,2.87,160.00,M,-21.3213,M,,*6D
$GPGGA,090122.00,4822.65909105,N,00429.53667380,W,1,05,2.87,160.00,M,-21.3213,M,,*6A
$GPGGA,090122.50,4822.65193170,N,00429.53330079,W,1,05,2.87,160.00,M,-21.3213,M,,*64
$GPGGA,090123.00,4822.64477192,N,00429.52992761,W,1,05,2.87,160.00,M,-21.3213,M,,*6F
$GPGGA,090123.50,4822.63761203,N,00429.52655439,W,1,05,2.87,160.00,M,-21.3213,M,,*68
$GPGGA,090124.00,4822.63045212,N,00429.52318118,W,1,05,2.87,160.00,M,-21.3213,M,,*61
$GPGGA,090124.50,4822.62329220,N,00429.51980797,W,1,05,2.87,160.00,M,-21.3213,M,,*64
$GPGGA,090125.00,4822.61613227,N,00429.51643479,W,1,05,2.87,160.00,M,-21.3213,M,,*6B
$GPGGA,090125.50,4822.60897235,N,00429.51306162,W,1,05,2.87,160.00,M,-21.3213,M,,*65
$GPGGA,090126.00,4822.60191538,N,00429.50973697,W,1,05,2.87,160.00,M,-21.3213,M,,*62
$GPGGA,090126.50,4822.59475545,N,00429.50636383,W,1,05,2.87,160.00,M,-21.3213,M,,*66
$GPGGA,090127.00,4822.58759552,N,00429.50299070,W,1,05,2.87,160.00,M,-21.3213,M,,*66
$GPGGA,090127.50,4822.58043559,N,00429.49961759,W,1,05,2.87,160.00,M,-21.3213,M,,*6C
$GPGGA,090128.00,4822.57327565,N,00429.49624450,W,1,05,2.87,160.00,M,-21.3213,M,,*63
$GPGGA,090128.50,4822.56611571,N,00429.49287142,W,1,05,2.87,160.00,M,-21.3213,M,,*69
$GPGGA,090129.00,4822.55895577,N,00429.48949836,W,1,05,2.87,160.00,M,-21.3213,M,,*68
$GPGGA,090129.50,4822.55179583,N,00429.48612532,W,1,05,2.87,160.00,M,-21.3213,M,,*65
$GPGGA,090130.00,4822.54463589,N,00429.48275229,W,1,05,2.87,160.00,M,-21.3213,M,,*65
$GPGGA,090130.50,4822.53747594,N,00429.47937927,W,1,05,2.87,160.00,M,-21.3213,M,,*69
$GPGGA,090131.00,4822.53031599,N,00429.47600627,W,1,05,2.87,160.00,M,-21.3213,M,,*62
$GPGGA,090131.50,4822.52315604,N,00429.47263329,W,1,05,2.87,160.00,M,-21.3213,M,,*6E
$GPGGA,090132.00,4822.51599609,N,00429.46926032,W,1,05,2.87,160.00,M,-21.3213,M,,*66
$GPGGA,090132.50,4822.50893910,N,00429.46593588,W,1,05,2.87,160.00,M,-21.3213,M,,*64
$GPGGA,090133.00,4822.50177915,N,00429.46256294,W,1,05,2.87,160.00,M,-21.3213,M,,*62
$GPGGA,090133.50,4822.49461926,N,00429.45919005,W,1,05,2.87,160.00,M,-21.3213,M,,*64
$GPGGA,090134.00,4822.48745930,N,00429.45581715,W,1,05,2.87,160.00,M,-21.3213,M,,*6E
$GPGGA,090134.50,4822.48029934,N,00429.45244426,W,1,05,2.87,160.00,M,-21.3213,M,,*6F
$GPGGA,090135.00,4822.47313938,N,00429.44907139,W,1,05,2.87,160.00,M,-21.3213,M,,*64
$GPGGA,090135.50,4822.46597942,N,00429.44569853,W,1,05,2.87,160.00,M,-21.3213,M,,*66
$GPGGA,090136.00,4822.45881945,N,00429.44232569,W,1,05,2.87,160.00,M,-21.3213,M,,*63
$GPGGA,090136.50,4822.45165948,N,00429.43895288,W,1,05,2.87,160.00,M,-21.3213,M,,*60
$GPGGA,090137.00,4822.44449950,N,00429.43558015,W,1,05,2.87,160.00,M,-21.3213,M,,*6D
$GPGGA,090137.50,4822.43733947,N,00429.43220766,W,1,05,2.87,160.00,M,-21.3213,M,,*6C
$GPGGA,090138.00,4822.43017929,N,00429.42883612,W,1,05,2.87,160.00,M,-21.3213,M,,*6F
$GPGGA,090138.50,4822.42301849,N,00429.42546835,W,1,05,2.87,160.00,M,-21.3213,M,,*67
$GPGGA,090139.00,4822.41595821,N,00429.42216380,W,1,05,2.87,160.00,M,-21.3213,M,,*62
$GPGGA,090139.50,4822.40878476,N,00429.41887116,W,1,05,2.87,160.00,M,-21.3213,M,,*6A
$GPGGA,090140.00,4822.40157066,N,00429.41580501,W,1,05,2.87,160.00,M,-21.3213,M,,*68
$GPGGA,090140.50,4822.39430650,N,00429.41299838,W,1,05,2.87,160.00,M,-21.3213,M,,*6C
$GPGGA,090141.00,4822.38702705,N,00429.41026655,W,1,05,2.87,160.00,M,-21.3213,M,,*69
$GPGGA,090141.50,4822.37974375,N,00429.40755321,W,1,05,2.87,160.00,M,-21.3213,M,,*6B
$GPGGA,090142.00,4822.37245950,N,00429.40484444,W,1,05,2.87,160.00,M,-21.3213,M,,*62
$GPGGA,090142.50,4822.36517501,N,00429.40213680,W,1,05,2.87,160.00,M,-21.3213,M,,*6C
$GPGGA,090143.00,4822.35789046,N,00429.39942947,W,1,05,2.87,160.00,M,-21.3213,M,,*6D
$GPGGA,090143.50,4822.35060590,N,00429.39672221,W,1,05,2.87,160.00,M,-21.3213,M,,*61
$GPGGA,090144.00,4822.34332133,N,00429.39401498,W,1,05,2.87,160.00,M,-21.3213,M,,*69
$GPGGA,090144.50,4822.33603675,N,00429.39130777,W,1,05,2.87,160.00,M,-21.3213,M,,*6C
$GPGGA,090145.00,4822.32875218,N,00429.38860057,W,1,05,2.87,160.00,M,-21.3213,M,,*61
$GPGGA,090145.50,4822.32146760,N,00429.38589339,W,1,05,2.87,160.00,M,-21.3213,M,,*66
$GPGGA,090146.00,4822.31418303,N,00429.38318622,W,1,05,2.87,160.00,M,-21.3213,M,,*6D
$GPGGA,090146.50,4822.30700320,N,00429.38051799,W,1,05,2.87,160.00,M,-21.3213,M,,*6D
$GPGGA,090147.00,4822.29971863,N,00429.37781084,W,1,05,2.87,160.00,M,-21.3213,M,,*6B
$GPGGA,090147.50,4822.29243405,N,00429.37510371,W,1,05,2.87,160.00,M,-21.3213,M,,*6B
$GPGGA,090148.00,4822.28514946,N,00429.37239659,W,1,05,2.87,160.00,M,-21.3213,M,,*6C
$GPGGA,090148.50,4822.27786488,N,00429.36968948,W,1,05,2.87,160.00,M,-21.3213,M,,*61
$GPGGA,090149.00,4822.27058030,N,00429.36698239,W,1,05,2.87,160.00,M,-21.3213,M,,*6B
$GPGGA,090149.50,4822.26329571,N,00429.36427531,W,1,05,2.87,160.00,M,-21.3213,M,,*63
$GPGGA,090150.00,4822.25601112,N,00429.36156824,W,1,05,2.87,160.00,M,-21.3213,M,,*69
$GPGGA,090150.50,4822.24872654,N,00429.35886118,W,1,05,2.87,160.00,M,-21.3213,M,,*63
$GPGGA,090151.00,4822.24144195,N,00429.35615414,W,1,05,2.87,160.00,M,-21.3213,M,,*6C
$GPGGA,090151.50,4822.23415736,N,00429.35344711,W,1,05,2.87,160.00,M,-21.3213,M,,*67
$GPGGA,090152.00,4822.22687276,N,00429.35074010,W,1,05,2.87,160.00,M,-21.3213,M,,*6E
$GPGGA,090152.50,4822.21969292,N,00429.34807202,W,1,05,2.87,160.00,M,-21.3213,M,,*61
$GPGGA,090153.00,4822.21240833,N,00429.34536503,W,1,05,2.87,160.00,M,-21.3213,M,,*6D
$GPGGA,090153.50,4822.20512373,N,00429.34265805,W,1,05,2.87,160.00,M,-21.3213,M,,*6C
$GPGGA,090154.00,4822.19783914,N,00429.33995108,W,1,05,2.87,160.00,M,-21.3213,M,,*62
$GPGGA,090154.50,4822.19055454,N,00429.33724413,W,1,05,2.87,160.00,M,-21.3213,M,,*69
$GPGGA,090155.00,4822.18326994,N,00429.33453719,W,1,05,2.87,160.00,M,-21.3213,M,,*60
$GPGGA,090155.50,4822.17598534,N,00429.33183026,W,1,05,2.87,160.00,M,-21.3213,M,,*6C
$GPGGA,090156.00,4822.16870073,N,00429.32912335,W,1,05,2.87,160.00,M,-21.3213,M,,*66
$GPGGA,090156.50,4822.16141613,N,00429.32641644,W,1,05,2.87,160.00,M,-21.3213,M,,*62
$GPGGA,090157.00,4822.15413152,N,00429.32370956,W,1,05,2.87,160.00,M,-21.3213,M,,*6E
$GPGGA,090157.50,4822.14684692,N,00429.32100268,W,1,05,2.87,160.00,M,-21.3213,M,,*6E
$GPGGA,090158.00,4822.13956231,N,00429.31829582,W,1,05,2.87,160.00,M,-21.3213,M,,*6C
$GPGGA,090158.50,4822.13227770,N,00429.31558897,W,1,05,2.87,160.00,M,-21.3213,M,,*66
$GPGGA,090159.00,4822.12509784,N,00429.31292105,W,1,05,2.87,160.00,M,-21.3213,M,,*60
$GPGGA,090159.50,4822.11781323,N,00429.31021423,W,1,05,2.87,160.00,M,-21.3213,M,,*66
$GPGGA,090200.00,4822.11052862,N,00429.30750742,W,1,05,2.87,160.00,M,-21.3213,M,,*6F
$GPGGA,090200.50,4822.10324401,N,00429.30480062,W,1,05,2.87,160.00,M,-21.3213,M,,*6B
$GPGGA,090201.00,4822.09595939,N,00429.30209383,W,1,05,2.87,160.00,M,-21.3213,M,,*66
$GPGGA,090201.50,4822.08867477,N,00429.29938706,W,1,05,2.87,160.00,M,-21.3213,M,,*6D
$GPGGA,090202.00,4822.08139015,N,00429.29668030,W,1,05,2.87,160.00,M,-21.3213,M,,*61
$GPGGA,090202.50,4822.07410553,N,00429.29397355,W,1,05,2.87,160.00,M,-21.3213,M,,*67
$GPGGA,090203.00,4822.06682091,N,00429.29126681,W,1,05,2.87,160.00,M,-21.3213,M,,*64
$GPGGA,090203.50,4822.05953629,N,00429.28856009,W,1,05,2.87,160.00,M,-21.3213,M,,*6D
$GPGGA,090204.00,4822.05225167,N,00429.28585338,W,1,05,2.87,160.00,M,-21.3213,M,,*6A
$GPGGA,090204.50,4822.04496704,N,00429.28314669,W,1,05,2.87,160.00,M,-21.3213,M,,*6C
$GPGGA,090205.00,4822.03778717,N,00429.28047892,W,1,05,2.87,160.00,M,-21.3213,M,,*61
$GPGGA,090205.50,4822.03050254,N,00429.27777225,W,1,05,2.87,160.00,M,-21.3213,M,,*66
$GPGGA,090206.00,4822.02321792,N,00429.27506559,W,1,05,2.87,160.00,M,-21.3213,M,,*63
$GPGGA,090206.50,4822.01593329,N,00429.27235895,W,1,05,2.87,160.00,M,-21.3213,M,,*64
$GPGGA,090207.00,4822.00864865,N,00429.26965232,W,1,05,2.87,160.00,M,-21.3213,M,,*6F
$GPGGA,090207.50,4822.00136402,N,00429.26694570,W,1,05,2.87,160.00,M,-21.3213,M,,*69
$GPGGA,090208.00,4821.99407939,N,00429.26423909,W,1,05,2.87,160.00,M,-21.3213,M,,*6E
$GPGGA,090208.50,4821.98679475,N,00429.26153250,W,1,05,2.87,160.00,M,-21.3213,M,,*61
$GPGGA,090209.00,4821.97951011,N,00429.25882591,W,1,05,2.87,160.00,M,-21.3213,M,,*65
$GPGGA,090209.50,4821.97222548,N,00429.25611935,W,1,05,2.87,160.00,M,-21.3213,M,,*60
$GPGGA,090210.00,4821.96494084,N,00429.25341279,W,1,05,2.87,160.00,M,-21.3213,M,,*61
$GPGGA,090210.50,4821.95765620,N,00429.25070625,W,1,05,2.87,160.00,M,-21.3213,M,,*6E
$GPGGA,090211.00,4821.95037155,N,00429.24799972,W,1,05,2.87,160.00,M,-21.3213,M,,*63
$GPGGA,090211.50,4821.94319167,N,00429.24533212,W,1,05,2.87,160.00,M,-21.3213,M,,*66
$GPGGA,090212.00,4821.93590702,N,00429.24262562,W,1,05,2.87,160.00,M,-21.3213,M,,*66
$GPGGA,090212.50,4821.92862238,N,00429.23991912,W,1,05,2.87,160.00,M,-21.3213,M,,*65
$GPGGA,090213.00,4821.92133773,N,00429.23721265,W,1,05,2.87,160.00,M,-21.3213,M,,*68
$GPGGA,090213.50,4821.91405308,N,00429.23450618,W,1,05,2.87,160.00,M,-21.3213,M,,*6D
$GPGGA,090214.00,4821.90676843,N,00429.23179973,W,1,05,2.87,160.00,M,-21.3213,M,,*60
$GPGGA,090214.50,4821.89948378,N,00429.22909329,W,1,05,2.87,160.00,M,-21.3213,M,,*67
$GPGGA,090215.00,4821.89219913,N,00429.22638686,W,1,05,2.87,160.00,M,-21.3213,M,,*66
$GPGGA,090215.50,4821.88491447,N,00429.22368044,W,1,05,2.87,160.00,M,-21.3213,M,,*60
$GPGGA,090216.00,4821.87762982,N,00429.22097402,W,1,05,2.87,160.00,M,-21.3213,M,,*67
$GPGGA,090216.50,4821.87034518,N,00429.21826758,W,1,05,2.87,160.00,M,-21.3213,M,,*64
$GPGGA,090217.00,4821.86306057,N,00429.21556099,W,1,05,2.87,160.00,M,-21.3213,M,,*6D
$GPGGA,090217.50,4821.85577611,N,00429.21285376,W,1,05,2.87,160.00,M,-21.3213,M,,*64
$GPGGA,090218.00,4821.84859698,N,00429.21018289,W,1,05,2.87,160.00,M,-21.3213,M,,*68
$GPGGA,090218.50,4821.84131547,N,00429.20746258,W,1,05,2.87,160.00,M,-21.3213,M,,*6A
$GPGGA,090219.00,4821.83404345,N,00429.20469971,W,1,05,2.87,160.00,M,-21.3213,M,,*60
$GPGGA,090219.50,4821.82680847,N,00429.20176430,W,1,05,2.87,160.00,M,-21.3213,M,,*60
$GPGGA,090220.00,4821.81965462,N,00429.19841485,W,1,05,2.87,160.00,M,-21.3213,M,,*6A
$GPGGA,090220.50,4821.81253507,N,00429.19487252,W,1,05,2.87,160.00,M,-21.3213,M,,*69
$GPGGA,090221.00,4821.80542361,N,00429.19128228,W,1,05,2.87,160.00,M,-21.3213,M,,*60
$GPGGA,090221.50,4821.79831412,N,00429.18768018,W,1,05,2.87,160.00,M,-21.3213,M,,*6B
$GPGGA,090222.00,4821.79120512,N,00429.18407516,W,1,05,2.87,160.00,M,-21.3213,M,,*64
$GPGGA,090222.50,4821.78409624,N,00429.18046944,W,1,05,2.87,160.00,M,-21.3213,M,,*62
$GPGGA,090223.00,4821.77698739,N,00429.17686356,W,1,05,2.87,160.00,M,-21.3213,M,,*62
$GPGGA,090223.50,4821.76987854,N,00429.17325764,W,1,05,2.87,160.00,M,-21.3213,M,,*6A
$GPGGA,090224.00,4821.76276969,N,00429.16965174,W,1,05,2.87,160.00,M,-21.3213,M,,*6A
$GPGGA,090224.50,4821.75566084,N,00429.16604584,W,1,05,2.87,160.00,M,-21.3213,M,,*63
$GPGGA,090225.00,4821.74855198,N,00429.16243996,W,1,05,2.87,160.00,M,-21.3213,M,,*6F
$GPGGA,090225.50,4821.74144313,N,00429.15883410,W,1,05,2.87,160.00,M,-21.3213,M,,*64
$GPGGA,090226.00,4821.73443650,N,00429.15528011,W,1,05,2.87,160.00,M,-21.3213,M,,*6C
$GPGGA,090226.50,4821.72732764,N,00429.15167429,W,1,05,2.87,160.00,M,-21.3213,M,,*6B
$GPGGA,090227.00,4821.72021878,N,00429.14806848,W,1,05,2.87,160.00,M,-21.3213,M,,*6C
$GPGGA,090227.50,4821.71310992,N,00429.14446268,W,1,05,2.87,160.00,M,-21.3213,M,,*6E
$GPGGA,090228.00,4821.70600105,N,00429.14085690,W,1,05,2.87,160.00,M,-21.3213,M,,*6F
$GPGGA,090228.50,4821.69889218,N,00429.13725114,W,1,05,2.87,160.00,M,-21.3213,M,,*63
$GPGGA,090229.00,4821.69178331,N,00429.13364540,W,1,05,2.87,160.00,M,-21.3213,M,,*6E
$GPGGA,090229.50,4821.68467444,N,00429.13003967,W,1,05,2.87,160.00,M,-21.3213,M,,*6F
$GPGGA,090230.00,4821.67756557,N,00429.12643396,W,1,05,2.87,160.00,M,-21.3213,M,,*68
$GPGGA,090230.50,4821.67045669,N,00429.12282826,W,1,05,2.87,160.00,M,-21.3213,M,,*6F
$GPGGA,090231.00,4821.66334781,N,00429.11922259,W,1,05,2.87,160.00,M,-21.3213,M,,*68
$GPGGA,090231.50,4821.65623893,N,00429.11561692,W,1,05,2.87,160.00,M,-21.3213,M,,*69
$GPGGA,090232.00,4821.64913005,N,00429.11201128,W,1,05,2.87,160.00,M,-21.3213,M,,*62
$GPGGA,090232.50,4821.64202116,N,00429.10840565,W,1,05,2.87,160.00,M,-21.3213,M,,*6C
$GPGGA,090233.00,4821.63501451,N,00429.10485189,W,1,05,2.87,160.00,M,-21.3213,M,,*6E
$GPGGA,090233.50,4821.62790562,N,00429.10124630,W,1,05,2.87,160.00,M,-21.3213,M,,*6A
$GPGGA,090234.00,4821.62079673,N,00429.09764072,W,1,05,2.87,160.00,M,-21.3213,M,,*61
$GPGGA,090234.50,4821.61368784,N,00429.09403516,W,1,05,2.87,160.00,M,-21.3213,M,,*68
$GPGGA,090235.00,4821.60657894,N,00429.09042961,W,1,05,2.87,160.00,M,-21.3213,M,,*67
$GPGGA,090235.50,4821.59947004,N,00429.08682409,W,1,05,2.87,160.00,M,-21.3213,M,,*6F
$GPGGA,090236.00,4821.59236114,N,00429.08321858,W,1,05,2.87,160.00,M,-21.3213,M,,*60
$GPGGA,090236.50,4821.58525224,N,00429.07961308,W,1,05,2.87,160.00,M,-21.3213,M,,*6E
$GPGGA,090237.00,4821.57814334,N,00429.07600760,W,1,05,2.87,160.00,M,-21.3213,M,,*68
$GPGGA,090237.50,4821.57103443,N,00429.07240214,W,1,05,2.87,160.00,M,-21.3213,M,,*63
$GPGGA,090238.00,4821.56392552,N,00429.06879670,W,1,05,2.87,160.00,M,-21.3213,M,,*64
$GPGGA,090238.50,4821.55681661,N,00429.06519127,W,1,05,2.87,160.00,M,-21.3213,M,,*68
$GPGGA,090239.00,4821.54970770,N,00429.06158586,W,1,05,2.87,160.00,M,-21.3213,M,,*63
$GPGGA,090239.50,4821.54270102,N,00429.05803231,W,1,05,2.87,160.00,M,-21.3213,M,,*61
$GPGGA,090240.00,4821.53559210,N,00429.05442693,W,1,05,2.87,160.00,M,-21.3213,M,,*64
$GPGGA,090240.50,4821.52848318,N,00429.05082157,W,1,05,2.87,160.00,M,-21.3213,M,,*63
$GPGGA,090241.00,4821.52137426,N,00429.04721623,W,1,05,2.87,160.00,M,-21.3213,M,,*67
$GPGGA,090241.50,4821.51426534,N,00429.04361090,W,1,05,2.87,160.00,M,-21.3213,M,,*68
$GPGGA,090242.00,4821.50715641,N,00429.04000559,W,1,05,2.87,160.00,M,-21.3213,M,,*69
$GPGGA,090242.50,4821.50004749,N,00429.03640029,W,1,05,2.87,160.00,M,-21.3213,M,,*65
$GPGGA,090243.00,4821.49293856,N,00429.03279502,W,1,05,2.87,160.00,M,-21.3213,M,,*66
$GPGGA,090243.50,4821.48582963,N,00429.02918975,W,1,05,2.87,160.00,M,-21.3213,M,,*63
$GPGGA,090244.00,4821.47872069,N,00429.02558451,W,1,05,2.87,160.00,M,-21.3213,M,,*6C
$GPGGA,090244.50,4821.47161176,N,00429.02197928,W,1,05,2.87,160.00,M,-21.3213,M,,*69
$GPGGA,090245.00,4821.46450282,N,00429.01837407,W,1,05,2.87,160.00,M,-21.3213,M,,*63
$GPGGA,090245.50,4821.45739388,N,00429.01476888,W,1,05,2.87,160.00,M,-21.3213,M,,*60
$GPGGA,090246.00,4821.45028494,N,00429.01116370,W,1,05,2.87,160.00,M,-21.3213,M,,*64
$GPGGA,090246.50,4821.44327823,N,00429.00761038,W,1,05,2.87,160.00,M,-21.3213,M,,*64
$GPGGA,090247.00,4821.43616928,N,00429.00400524,W,1,05,2.87,160.00,M,-21.3213,M,,*66
$GPGGA,090247.50,4821.42906033,N,00429.00040011,W,1,05,2.87,160.00,M,-21.3213,M,,*6C
$GPGGA,090248.00,4821.42195138,N,00428.99679500,W,1,05,2.87,160.00,M,-21.3213,M,,*66
$GPGGA,090248.50,4821.41484243,N,00428.99318990,W,1,05,2.87,160.00,M,-21.3213,M,,*6D
$GPGGA,090249.00,4821.40773347,N,00428.98958482,W,1,05,2.87,160.00,M,-21.3213,M,,*67
$GPGGA,090249.50,4821.40062452,N,00428.98597976,W,1,05,2.87,160.00,M,-21.3213,M,,*6F
$GPGGA,090250.00,4821.39351556,N,00428.98237472,W,1,05,2.87,160.00,M,-21.3213,M,,*6E
$GPGGA,090250.50,4821.38640660,N,00428.97876969,W,1,05,2.87,160.00,M,-21.3213,M,,*6E
$GPGGA,090251.00,4821.37929763,N,00428.97516468,W,1,05,2.87,160.00,M,-21.3213,M,,*60
$GPGGA,090251.50,4821.37218867,N,00428.97155968,W,1,05,2.87,160.00,M,-21.3213,M,,*69
$GPGGA,090252.00,4821.36507970,N,00428.96795471,W,1,05,2.87,160.00,M,-21.3213,M,,*6E
$GPGGA,090252.50,4821.35797073,N,00428.96434974,W,1,05,2.87,160.00,M,-21.3213,M,,*69
$GPGGA,090253.00,4821.35096399,N,00428.96079664,W,1,05,2.87,160.00,M,-21.3213,M,,*6F
$GPGGA,090253.50,4821.34385502,N,00428.95719171,W,1,05,2.87,160.00,M,-21.3213,M,,*6F
$GPGGA,090254.00,4821.33674604,N,00428.95358680,W,1,05,2.87,160.00,M,-21.3213,M,,*6C
$GPGGA,090254.50,4821.32963707,N,00428.94998191,W,1,05,2.87,160.00,M,-21.3213,M,,*63
$GPGGA,090255.00,4821.32252809,N,00428.94637703,W,1,05,2.87,160.00,M,-21.3213,M,,*68
$GPGGA,090255.50,4821.31541910,N,00428.94277217,W,1,05,2.87,160.00,M,-21.3213,M,,*62
$GPGGA,090256.00,4821.30831012,N,00428.93916732,W,1,05,2.87,160.00,M,-21.3213,M,,*6D
$GPGGA,090256.50,4821.30120113,N,00428.93556249,W,1,05,2.87,160.00,M,-21.3213,M,,*60
$GPGGA,090257.00,4821.29409214,N,00428.93195768,W,1,05,2.87,160.00,M,-21.3213,M,,*6B
$GPGGA,090257.50,4821.28698315,N,00428.92835289,W,1,05,2.87,160.00,M,-21.3213,M,,*6D
$GPGGA,090258.00,4821.27987416,N,00428.92474811,W,1,05,2.87,160.00,M,-21.3213,M,,*6F
$GPGGA,090258.50,4821.27276517,N,00428.92114335,W,1,05,2.87,160.00,M,-21.3213,M,,*61
$GPGGA,090259.00,4821.26565617,N,00428.91753860,W,1,05,2.87,160.00,M,-21.3213,M,,*6F
$GPGGA,090259.50,4821.25854717,N,00428.91393387,W,1,05,2.87,160.00,M,-21.3213,M,,*6D
$GPGGA,090300.00,4821.25154040,N,00428.91038100,W,1,05,2.87,160.00,M,-21.3213,M,,*66
$GPGGA,090300.50,4821.24443140,N,00428.90677631,W,1,05,2.87,160.00,M,-21.3213,M,,*69
$GPGGA,090301.00,4821.23732239,N,00428.90317163,W,1,05,2.87,160.00,M,-21.3213,M,,*61
$GPGGA,090301.50,4821.23021339,N,00428.89956697,W,1,05,2.87,160.00,M,-21.3213,M,,*6B
$GPGGA,090302.00,4821.22310438,N,00428.89596232,W,1,05,2.87,160.00,M,-21.3213,M,,*60
$GPGGA,090302.50,4821.21599536,N,00428.89235769,W,1,05,2.87,160.00,M,-21.3213,M,,*6B
$GPGGA,090303.00,4821.20888635,N,00428.88875308,W,1,05,2.87,160.00,M,-21.3213,M,,*6F
$GPGGA,090303.50,4821.20177734,N,00428.88514849,W,1,05,2.87,160.00,M,-21.3213,M,,*67
$GPGGA,090304.00,4821.19466832,N,00428.88154391,W,1,05,2.87,160.00,M,-21.3213,M,,*6D
$GPGGA,090304.50,4821.18755930,N,00428.87793935,W,1,05,2.87,160.00,M,-21.3213,M,,*6F
$GPGGA,090305.00,4821.18045027,N,00428.87433480,W,1,05,2.87,160.00,M,-21.3213,M,,*68
$GPGGA,090305.50,4821.17334125,N,00428.87073027,W,1,05,2.87,160.00,M,-21.3213,M,,*6D
$GPGGA,090306.00,4821.16623222,N,00428.86712576,W,1,05,2.87,160.00,M,-21.3213,M,,*6D
$GPGGA,090306.50,4821.15922543,N,00428.86357310,W,1,05,2.87,160.00,M,-21.3213,M,,*66
$GPGGA,090307.00,4821.15211640,N,00428.85996862,W,1,05,2.87,160.00,M,-21.3213,M,,*63
$GPGGA,090307.50,4821.14500737,N,00428.85636416,W,1,05,2.87,160.00,M,-21.3213,M,,*6B
$GPGGA,090308.00,4821.13789833,N,00428.85275971,W,1,05,2.87,160.00,M,-21.3213,M,,*61
$GPGGA,090308.50,4821.13078929,N,00428.84915529,W,1,05,2.87,160.00,M,-21.3213,M,,*6A
$GPGGA,090309.00,4821.12368025,N,00428.84555087,W,1,05,2.87,160.00,M,-21.3213,M,,*61
$GPGGA,090309.50,4821.11657121,N,00428.84194648,W,1,05,2.87,160.00,M,-21.3213,M,,*67
$GPGGA,090310.00,4821.10946217,N,00428.83834210,W,1,05,2.87,160.00,M,-21.3213,M,,*6F
$GPGGA,090310.50,4821.10235312,N,00428.83473774,W,1,05,2.87,160.00,M,-21.3213,M,,*69
$GPGGA,090311.00,4821.09524408,N,00428.83113339,W,1,05,2.87,160.00,M,-21.3213,M,,*60
$GPGGA,090311.50,4821.08813503,N,00428.82752906,W,1,05,2.87,160.00,M,-21.3213,M,,*63
$GPGGA,090312.00,4821.08102598,N,00428.82392475,W,1,05,2.87,160.00,M,-21.3213,M,,*6F
$GPGGA,090312.50,4821.07391685,N,00428.82032042,W,1,05,2.87,160.00,M,-21.3213,M,,*6B
$GPGGA,090313.00,4821.06680779,N,00428.81671614,W,1,05,2.87,160.00,M,-21.3213,M,,*6E
$GPGGA,090313.50,4821.05980097,N,00428.81316371,W,1,05,2.87,160.00,M,-21.3213,M,,*62
$GPGGA,090314.00,4821.05269191,N,00428.80955947,W,1,05,2.87,160.00,M,-21.3213,M,,*68
$GPGGA,090314.50,4821.04558285,N,00428.80595524,W,1,05,2.87,160.00,M,-21.3213,M,,*66
$GPGGA,090315.00,4821.03847378,N,00428.80235103,W,1,05,2.87,160.00,M,-21.3213,M,,*69
$GPGGA,090315.50,4821.03136472,N,00428.79874683,W,1,05,2.87,160.00,M,-21.3213,M,,*68
$GPGGA,090316.00,4821.02425565,N,00428.79514265,W,1,05,2.87,160.00,M,-21.3213,M,,*68
$GPGGA,090316.50,4821.01714658,N,00428.79153849,W,1,05,2.87,160.00,M,-21.3213,M,,*61
$GPGGA,090317.00,4821.01003750,N,00428.78793434,W,1,05,2.87,160.00,M,-21.3213,M,,*60
$GPGGA,090317.50,4821.00292843,N,00428.78433022,W,1,05,2.87,160.00,M,-21.3213,M,,*69
$GPGGA,090318.00,4820.99581935,N,00428.78072610,W,1,05,2.87,160.00,M,-21.3213,M,,*61
$GPGGA,090318.50,4820.98871027,N,00428.77712201,W,1,05,2.87,160.00,M,-21.3213,M,,*67
$GPGGA,090319.00,4820.98160119,N,00428.77351793,W,1,05,2.87,160.00,M,-21.3213,M,,*6B
$GPGGA,090319.50,4820.97449211,N,00428.76991387,W,1,05,2.87,160.00,M,-21.3213,M,,*62
$GPGGA,090320.00,4820.96738302,N,00428.76630982,W,1,05,2.87,160.00,M,-21.3213,M,,*61
$GPGGA,090320.50,4820.96037617,N,00428.76275762,W,1,05,2.87,160.00,M,-21.3213,M,,*68
$GPGGA,090321.00,4820.95326708,N,00428.75915361,W,1,05,2.87,160.00,M,-21.3213,M,,*6A
$GPGGA,090321.50,4820.94615799,N,00428.75554961,W,1,05,2.87,160.00,M,-21.3213,M,,*60
$GPGGA,090322.00,4820.93904889,N,00428.75194563,W,1,05,2.87,160.00,M,-21.3213,M,,*66
$GPGGA,090322.50,4820.93193980,N,00428.74834167,W,1,05,2.87,160.00,M,-21.3213,M,,*6F
$GPGGA,090323.00,4820.92483070,N,00428.74473773,W,1,05,2.87,160.00,M,-21.3213,M,,*64
$GPGGA,090323.50,4820.91772160,N,00428.74113380,W,1,05,2.87,160.00,M,-21.3213,M,,*64
$GPGGA,090324.00,4820.91061250,N,00428.73752989,W,1,05,2.87,160.00,M,-21.3213,M,,*64
$GPGGA,090324.50,4820.90350339,N,00428.73392599,W,1,05,2.87,160.00,M,-21.3213,M,,*6A
$GPGGA,090325.00,4820.89639429,N,00428.73032211,W,1,05,2.87,160.00,M,-21.3213,M,,*64
$GPGGA,090325.50,4820.88928518,N,00428.72671825,W,1,05,2.87,160.00,M,-21.3213,M,,*61
$GPGGA,090326.00,4820.88217607,N,00428.72311440,W,1,05,2.87,160.00,M,-21.3213,M,,*61
$GPGGA,090326.50,4820.87506695,N,00428.71951057,W,1,05,2.87,160.00,M,-21.3213,M,,*68
$GPGGA,090327.00,4820.86806007,N,00428.71595859,W,1,05,2.87,160.00,M,-21.3213,M,,*6F
$GPGGA,090327.50,4820.86095096,N,00428.71235479,W,1,05,2.87,160.00,M,-21.3213,M,,*63
$GPGGA,090328.00,4820.85384184,N,00428.70875101,W,1,05,2.87,160.00,M,-21.3213,M,,*6E
$GPGGA,090328.50,4820.84673272,N,00428.70514725,W,1,05,2.87,160.00,M,-21.3213,M,,*67
$GPGGA,090329.00,4820.83962359,N,00428.70154350,W,1,05,2.87,160.00,M,-21.3213,M,,*65
$GPGGA,090329.50,4820.83251447,N,00428.69793977,W,1,05,2.87,160.00,M,-21.3213,M,,*69
$GPGGA,090330.00,4820.82540534,N,00428.69433606,W,1,05,2.87,160.00,M,-21.3213,M,,*67
$GPGGA,090330.50,4820.81829621,N,00428.69073237,W,1,05,2.87,160.00,M,-21.3213,M,,*62
$GPGGA,090331.00,4820.81118708,N,00428.68712869,W,1,05,2.87,160.00,M,-21.3213,M,,*67
$GPGGA,090331.50,4820.80407794,N,00428.68352502,W,1,05,2.87,160.00,M,-21.3213,M,,*6D
$GPGGA,090332.00,4820.79696881,N,00428.67992138,W,1,05,2.87,160.00,M,-21.3213,M,,*68
$GPGGA,090332.50,4820.78985967,N,00428.67631775,W,1,05,2.87,160.00,M,-21.3213,M,,*61
$GPGGA,090333.00,4820.78275053,N,00428.67271414,W,1,05,2.87,160.00,M,-21.3213,M,,*6B
$GPGGA,090333.50,4820.77564139,N,00428.66911054,W,1,05,2.87,160.00,M,-21.3213,M,,*67
$GPGGA,090334.00,4820.76863448,N,00428.66555878,W,1,05,2.87,160.00,M,-21.3213,M,,*67
$GPGGA,090334.50,4820.76152533,N,00428.66195522,W,1,05,2.87,160.00,M,-21.3213,M,,*6E
$GPGGA,090335.00,4820.75441618,N,00428.65835167,W,1,05,2.87,160.00,M,-21.3213,M,,*61
$GPGGA,090335.50,4820.74730703,N,00428.65474814,W,1,05,2.87,160.00,M,-21.3213,M,,*6F
$GPGGA,090336.00,4820.74019788,N,00428.65114463,W,1,05,2.87,160.00,M,-21.3213,M,,*69
$GPGGA,090336.50,4820.73308872,N,00428.64754114,W,1,05,2.87,160.00,M,-21.3213,M,,*64
$GPGGA,090337.00,4820.72597956,N,00428.64393766,W,1,05,2.87,160.00,M,-21.3213,M,,*6A
$GPGGA,090337.50,4820.71887041,N,00428.64033419,W,1,05,2.87,160.00,M,-21.3213,M,,*6D
$GPGGA,090338.00,4820.71176124,N,00428.63673075,W,1,05,2.87,160.00,M,-21.3213,M,,*69
$GPGGA,090338.50,4820.70465208,N,00428.63312732,W,1,05,2.87,160.00,M,-21.3213,M,,*61
$GPGGA,090339.00,4820.69754291,N,00428.62952391,W,1,05,2.87,160.00,M,-21.3213,M,,*6E
$GPGGA,090339.50,4820.69043374,N,00428.62592052,W,1,05,2.87,160.00,M,-21.3213,M,,*6C
$GPGGA,090340.00,4820.68332457,N,00428.62231718,W,1,05,2.87,160.00,M,-21.3213,M,,*62
$GPGGA,090340.50,4820.67631761,N,00428.61876579,W,1,05,2.87,160.00,M,-21.3213,M,,*67
$GPGGA,090341.00,4820.66920835,N,00428.61516305,W,1,05,2.87,160.00,M,-21.3213,M,,*65
$GPGGA,090341.50,4820.66209880,N,00428.61156221,W,1,05,2.87,160.00,M,-21.3213,M,,*69
$GPGGA,090342.00,4820.65498812,N,00428.60796893,W,1,05,2.87,160.00,M,-21.3213,M,,*61
$GPGGA,090342.50,4820.64787282,N,00428.60440623,W,1,05,2.87,160.00,M,-21.3213,M,,*66
$GPGGA,090343.00,4820.64073820,N,00428.60096663,W,1,05,2.87,160.00,M,-21.3213,M,,*67
$GPGGA,090343.50,4820.63352719,N,00428.59796092,W,1,05,2.87,160.00,M,-21.3213,M,,*65
$GPGGA,090344.00,4820.62623529,N,00428.59536077,W,1,05,2.87,160.00,M,-21.3213,M,,*67
$GPGGA,090344.50,4820.61891955,N,00428.59286997,W,1,05,2.87,160.00,M,-21.3213,M,,*6A
$GPGGA,090345.00,4820.61159778,N,00428.59040619,W,1,05,2.87,160.00,M,-21.3213,M,,*63
$GPGGA,090345.50,4820.60427451,N,00428.58794909,W,1,05,2.87,160.00,M,-21.3213,M,,*62
$GPGGA,090346.00,4820.59695087,N,00428.58549366,W,1,05,2.87,160.00,M,-21.3213,M,,*6B
$GPGGA,090346.50,4820.58962713,N,00428.58303865,W,1,05,2.87,160.00,M,-21.3213,M,,*62
$GPGGA,090347.00,4820.58230337,N,00428.58058375,W,1,05,2.87,160.00,M,-21.3213,M,,*6F
$GPGGA,090347.50,4820.57497961,N,00428.57812889,W,1,05,2.87,160.00,M,-21.3213,M,,*66
$GPGGA,090348.00,4820.56765584,N,00428.57567404,W,1,05,2.87,160.00,M,-21.3213,M,,*62
$GPGGA,090348.50,4820.56033207,N,00428.57321921,W,1,05,2.87,160.00,M,-21.3213,M,,*61
$GPGGA,090349.00,4820.55300829,N,00428.57076439,W,1,05,2.87,160.00,M,-21.3213,M,,*66
$GPGGA,090349.50,4820.54568452,N,00428.56830958,W,1,05,2.87,160.00,M,-21.3213,M,,*6B
$GPGGA,090350.00,4820.53846607,N,00428.56589009,W,1,05,2.87,160.00,M,-21.3213,M,,*60
$GPGGA,090350.50,4820.53114229,N,00428.56343531,W,1,05,2.87,160.00,M,-21.3213,M,,*6D
$GPGGA,090351.00,4820.52381851,N,00428.56098053,W,1,05,2.87,160.00,M,-21.3213,M,,*67
$GPGGA,090351.50,4820.51649474,N,00428.55852577,W,1,05,2.87,160.00,M,-21.3213,M,,*65
$GPGGA,090352.00,4820.50917096,N,00428.55607102,W,1,05,2.87,160.00,M,-21.3213,M,,*66
$GPGGA,090352.50,4820.50184718,N,00428.55361628,W,1,05,2.87,160.00,M,-21.3213,M,,*6A
$GPGGA,090353.00,4820.49452340,N,00428.55116156,W,1,05,2.87,160.00,M,-21.3213,M,,*6D
$GPGGA,090353.50,4820.48719961,N,00428.54870684,W,1,05,2.87,160.00,M,-21.3213,M,,*6C
$GPGGA,090354.00,4820.47987583,N,00428.54625214,W,1,05,2.87,160.00,M,-21.3213,M,,*6B
$GPGGA,090354.50,4820.47255205,N,00428.54379745,W,1,05,2.87,160.00,M,-21.3213,M,,*6E
$GPGGA,090355.00,4820.46522826,N,00428.54134277,W,1,05,2.87,160.00,M,-21.3213,M,,*68
$GPGGA,090355.50,4820.45790448,N,00428.53888810,W,1,05,2.87,160.00,M,-21.3213,M,,*63
$GPGGA,090356.00,4820.45058069,N,00428.53643345,W,1,05,2.87,160.00,M,-21.3213,M,,*63
$GPGGA,090356.50,4820.44336222,N,00428.53401410,W,1,05,2.87,160.00,M,-21.3213,M,,*62
$GPGGA,090357.00,4820.43603843,N,00428.53155947,W,1,05,2.87,160.00,M,-21.3213,M,,*64
$GPGGA,090357.50,4820.42871464,N,00428.52910485,W,1,05,2.87,160.00,M,-21.3213,M,,*69
$GPGGA,090358.00,4820.42139085,N,00428.52665024,W,1,05,2.87,160.00,M,-21.3213,M,,*6F
$GPGGA,090358.50,4820.41406705,N,00428.52419564,W,1,05,2.87,160.00,M,-21.3213,M,,*67
$GPGGA,090359.00,4820.40674326,N,00428.52174105,W,1,05,2.87,160.00,M,-21.3213,M,,*6D
$GPGGA,090359.50,4820.39941946,N,00428.51928648,W,1,05,2.87,160.00,M,-21.3213,M,,*6F
$GPGGA,090400.00,4820.39209567,N,00428.51683192,W,1,05,2.87,160.00,M,-21.3213,M,,*67
$GPGGA,090400.50,4820.38477187,N,00428.51437737,W,1,05,2.87,160.00,M,-21.3213,M,,*62
$GPGGA,090401.00,4820.37744807,N,00428.51192283,W,1,05,2.87,160.00,M,-21.3213,M,,*6B
$GPGGA,090401.50,4820.37012427,N,00428.50946830,W,1,05,2.87,160.00,M,-21.3213,M,,*66
$GPGGA,090402.00,4820.36280047,N,00428.50701378,W,1,05,2.87,160.00,M,-21.3213,M,,*60
$GPGGA,090402.50,4820.35547667,N,00428.50455928,W,1,05,2.87,160.00,M,-21.3213,M,,*63
$GPGGA,090403.00,4820.34825818,N,00428.50214008,W,1,05,2.87,160.00,M,-21.3213,M,,*61
$GPGGA,090403.50,4820.34093438,N,00428.49968560,W,1,05,2.87,160.00,M,-21.3213,M,,*6C
$GPGGA,090404.00,4820.33361057,N,00428.49723113,W,1,05,2.87,160.00,M,-21.3213,M,,*6B
$GPGGA,090404.50,4820.32628677,N,00428.49477668,W,1,05,2.87,160.00,M,-21.3213,M,,*6A
$GPGGA,090405.00,4820.31896296,N,00428.49232223,W,1,05,2.87,160.00,M,-21.3213,M,,*61
$GPGGA,090405.50,4820.31163915,N,00428.48986780,W,1,05,2.87,160.00,M,-21.3213,M,,*6E
$GPGGA,090406.00,4820.30431534,N,00428.48741337,W,1,05,2.87,160.00,M,-21.3213,M,,*69
$GPGGA,090406.50,4820.29699153,N,00428.48495896,W,1,05,2.87,160.00,M,-21.3213,M,,*6B
$GPGGA,090407.00,4820.28966772,N,00428.48250456,W,1,05,2.87,160.00,M,-21.3213,M,,*6B
$GPGGA,090407.50,4820.28234390,N,00428.48005018,W,1,05,2.87,160.00,M,-21.3213,M,,*66
$GPGGA,090408.00,4820.27502009,N,00428.47759580,W,1,05,2.87,160.00,M,-21.3213,M,,*67
$GPGGA,090408.50,4820.26769628,N,00428.47514144,W,1,05,2.87,160.00,M,-21.3213,M,,*6E
$GPGGA,090409.00,4820.26037246,N,00428.47268709,W,1,05,2.87,160.00,M,-21.3213,M,,*69
$GPGGA,090409.50,4820.25315396,N,00428.47026804,W,1,05,2.87,160.00,M,-21.3213,M,,*6A
$GPGGA,090410.00,4820.24583014,N,00428.46781371,W,1,05,2.87,160.00,M,-21.3213,M,,*64
$GPGGA,090410.50,4820.23850632,N,00428.46535939,W,1,05,2.87,160.00,M,-21.3213,M,,*6C
$GPGGA,090411.00,4820.23118250,N,00428.46290509,W,1,05,2.87,160.00,M,-21.3213,M,,*6A
$GPGGA,090411.50,4820.22385868,N,00428.46045079,W,1,05,2.87,160.00,M,-21.3213,M,,*61
$GPGGA,090412.00,4820.21653486,N,00428.45799651,W,1,05,2.87,160.00,M,-21.3213,M,,*6F
$GPGGA,090412.50,4820.20921103,N,00428.45554224,W,1,05,2.87,160.00,M,-21.3213,M,,*6C
$GPGGA,090413.00,4820.20188721,N,00428.45308798,W,1,05,2.87,160.00,M,-21.3213,M,,*68
$GPGGA,090413.50,4820.19456338,N,00428.45063373,W,1,05,2.87,160.00,M,-21.3213,M,,*62
$GPGGA,090414.00,4820.18723955,N,00428.44817950,W,1,05,2.87,160.00,M,-21.3213,M,,*60
$GPGGA,090414.50,4820.17991572,N,00428.44572527,W,1,05,2.87,160.00,M,-21.3213,M,,*66
$GPGGA,090415.00,4820.17259189,N,00428.44327106,W,1,05,2.87,160.00,M,-21.3213,M,,*6C
$GPGGA,090415.50,4820.16526806,N,00428.44081686,W,1,05,2.87,160.00,M,-21.3213,M,,*69
$GPGGA,090416.00,4820.15804955,N,00428.43839797,W,1,05,2.87,160.00,M,-21.3213,M,,*6B
$GPGGA,090416.50,4820.15072572,N,00428.43594379,W,1,05,2.87,160.00,M,-21.3213,M,,*60
$GPGGA,090417.00,4820.14340188,N,00428.43348962,W,1,05,2.87,160.00,M,-21.3213,M,,*61
$GPGGA,090417.50,4820.13607805,N,00428.43103547,W,1,05,2.87,160.00,M,-21.3213,M,,*6F
$GPGGA,090418.00,4820.12875421,N,00428.42858133,W,1,05,2.87,160.00,M,-21.3213,M,,*64
$GPGGA,090418.50,4820.12143038,N,00428.42612720,W,1,05,2.87,160.00,M,-21.3213,M,,*65
$GPGGA,090419.00,4820.11410654,N,00428.42367308,W,1,05,2.87,160.00,M,-21.3213,M,,*64
$GPGGA,090419.50,4820.10678270,N,00428.42121897,W,1,05,2.87,160.00,M,-21.3213,M,,*63
$GPGGA,090420.00,4820.09945886,N,00428.41876487,W,1,05,2.87,160.00,M,-21.3213,M,,*63
$GPGGA,090420.50,4820.09213501,N,00428.41631079,W,1,05,2.87,160.00,M,-21.3213,M,,*64
$GPGGA,090421.00,4820.08481117,N,00428.41385672,W,1,05,2.87,160.00,M,-21.3213,M,,*68
$GPGGA,090421.50,4820.07748733,N,00428.41140266,W,1,05,2.87,160.00,M,-21.3213,M,,*6E
$GPGGA,090422.00,4820.07026880,N,00428.40898390,W,1,05,2.87,160.00,M,-21.3213,M,,*65
$GPGGA,090422.50,4820.06294496,N,00428.40652986,W,1,05,2.87,160.00,M,-21.3213,M,,*64
$GPGGA,090423.00,4820.05562111,N,00428.40407584,W,1,05,2.87,160.00,M,-21.3213,M,,*6B
$GPGGA,090423.50,4820.04829726,N,00428.40162182,W,1,05,2.87,160.00,M,-21.3213,M,,*6B
$GPGGA,090424.00,4820.04097341,N,00428.39916782,W,1,05,2.87,160.00,M,-21.3213,M,,*62
$GPGGA,090424.50,4820.03364956,N,00428.39671383,W,1,05,2.87,160.00,M,-21.3213,M,,*68
$GPGGA,090425.00,4820.02632571,N,00428.39425985,W,1,05,2.87,160.00,M,-21.3213,M,,*6D
$GPGGA,090425.50,4820.01900185,N,00428.39180588,W,1,05,2.87,160.00,M,-21.3213,M,,*61
$GPGGA,090426.00,4820.01167800,N,00428.38935193,W,1,05,2.87,160.00,M,-21.3213,M,,*63
$GPGGA,090426.50,4820.00435414,N,00428.38689799,W,1,05,2.87,160.00,M,-21.3213,M,,*68
$GPGGA,090427.00,4819.99703029,N,00428.38444405,W,1,05,2.87,160.00,M,-21.3213,M,,*6F
$GPGGA,090427.50,4819.98970643,N,00428.38199013,W,1,05,2.87,160.00,M,-21.3213,M,,*6D
$GPGGA,090428.00,4819.98238257,N,00428.37953623,W,1,05,2.87,160.00,M,-21.3213,M,,*65
$GPGGA,090428.50,4819.97516403,N,00428.37711762,W,1,05,2.87,160.00,M,-21.3213,M,,*6F
$GPGGA,090429.00,4819.96784017,N,00428.37466373,W,1,05,2.87,160.00,M,-21.3213,M,,*65
$GPGGA,090429.50,4819.96051631,N,00428.37220986,W,1,05,2.87,160.00,M,-21.3213,M,,*69
$GPGGA,090430.00,4819.95319245,N,00428.36975600,W,1,05,2.87,160.00,M,-21.3213,M,,*64
$GPGGA,090430.50,4819.94586858,N,00428.36730214,W,1,05,2.87,160.00,M,-21.3213,M,,*68
$GPGGA,090431.00,4819.93854472,N,00428.36484831,W,1,05,2.87,160.00,M,-21.3213,M,,*6C
$GPGGA,090431.50,4819.93122085,N,00428.36239448,W,1,05,2.87,160.00,M,-21.3213,M,,*6F
$GPGGA,090432.00,4819.92389698,N,00428.35994066,W,1,05,2.87,160.00,M,-21.3213,M,,*66
$GPGGA,090432.50,4819.91657312,N,00428.35748686,W,1,05,2.87,160.00,M,-21.3213,M,,*66
$GPGGA,090433.00,4819.90924925,N,00428.35503307,W,1,05,2.87,160.00,M,-21.3213,M,,*67
$GPGGA,090433.50,4819.90192538,N,00428.35257929,W,1,05,2.87,160.00,M,-21.3213,M,,*67
$GPGGA,090434.00,4819.89460150,N,00428.35012552,W,1,05,2.87,160.00,M,-21.3213,M,,*6C
$GPGGA,090434.50,4819.88727763,N,00428.34767176,W,1,05,2.87,160.00,M,-21.3213,M,,*68
$GPGGA,090435.00,4819.88005908,N,00428.34525330,W,1,05,2.87,160.00,M,-21.3213,M,,*6C
$GPGGA,090435.50,4819.87273520,N,00428.34279957,W,1,05,2.87,160.00,M,-21.3213,M,,*66
$GPGGA,090436.00,4819.86541133,N,00428.34034584,W,1,05,2.87,160.00,M,-21.3213,M,,*68
$GPGGA,090436.50,4819.85808745,N,00428.33789212,W,1,05,2.87,160.00,M,-21.3213,M,,*67
$GPGGA,090437.00,4819.85076359,N,00428.33543835,W,1,05,2.87,160.00,M,-21.3213,M,,*60
$GPGGA,090437.50,4819.84343975,N,00428.33298440,W,1,05,2.87,160.00,M,-21.3213,M,,*6A
$GPGGA,090438.00,4819.83611604,N,00428.33052964,W,1,05,2.87,160.00,M,-21.3213,M,,*63
$GPGGA,090438.50,4819.82879285,N,00428.32807159,W,1,05,2.87,160.00,M,-21.3213,M,,*65
$GPGGA,090439.00,4819.82147178,N,00428.32560018,W,1,05,2.87,160.00,M,-21.3213,M,,*6C
$GPGGA,090439.50,4819.81415893,N,00428.32307593,W,1,05,2.87,160.00,M,-21.3213,M,,*65
$GPGGA,090440.00,4819.80685785,N,00428.32047429,W,1,05,2.87,160.00,M,-21.3213,M,,*6B
$GPGGA,090440.50,4819.79956047,N,00428.31784775,W,1,05,2.87,160.00,M,-21.3213,M,,*61
$GPGGA,090441.00,4819.79226401,N,00428.31521505,W,1,05,2.87,160.00,M,-21.3213,M,,*67
$GPGGA,090441.50,4819.78507269,N,00428.31261873,W,1,05,2.87,160.00,M,-21.3213,M,,*60
$GPGGA,090442.00,4819.77777650,N,00428.30998416,W,1,05,2.87,160.00,M,-21.3213,M,,*61
$GPGGA,090442.50,4819.77048032,N,00428.30734950,W,1,05,2.87,160.00,M,-21.3213,M,,*6A
$GPGGA,090443.00,4819.76318415,N,00428.30471484,W,1,05,2.87,160.00,M,-21.3213,M,,*6E
$GPGGA,090443.50,4819.75588797,N,00428.30208019,W,1,05,2.87,160.00,M,-21.3213,M,,*66
$GPGGA,090444.00,4819.74859180,N,00428.29944554,W,1,05,2.87,160.00,M,-21.3213,M,,*63
$GPGGA,090444.50,4819.74129562,N,00428.29681091,W,1,05,2.87,160.00,M,-21.3213,M,,*6A
$GPGGA,090445.00,4819.73399944,N,00428.29417629,W,1,05,2.87,160.00,M,-21.3213,M,,*60
$GPGGA,090445.50,4819.72670327,N,00428.29154168,W,1,05,2.87,160.00,M,-21.3213,M,,*69
$GPGGA,090446.00,4819.71940709,N,00428.28890708,W,1,05,2.87,160.00,M,-21.3213,M,,*68
$GPGGA,090446.50,4819.71211090,N,00428.28627250,W,1,05,2.87,160.00,M,-21.3213,M,,*6F
$GPGGA,090447.00,4819.70481472,N,00428.28363793,W,1,05,2.87,160.00,M,-21.3213,M,,*62
$GPGGA,090447.50,4819.69751854,N,00428.28100337,W,1,05,2.87,160.00,M,-21.3213,M,,*64
$GPGGA,090448.00,4819.69032727,N,00428.27840671,W,1,05,2.87,160.00,M,-21.3213,M,,*62
$GPGGA,090448.50,4819.68303109,N,00428.27577218,W,1,05,2.87,160.00,M,-21.3213,M,,*6F
$GPGGA,090449.00,4819.67573490,N,00428.27313766,W,1,05,2.87,160.00,M,-21.3213,M,,*68
$GPGGA,090449.50,4819.66843871,N,00428.27050315,W,1,05,2.87,160.00,M,-21.3213,M,,*65
$GPGGA,090450.00,4819.66114252,N,00428.26786865,W,1,05,2.87,160.00,M,-21.3213,M,,*69
$GPGGA,090450.50,4819.65384633,N,00428.26523417,W,1,05,2.87,160.00,M,-21.3213,M,,*63
$GPGGA,090451.00,4819.64655014,N,00428.26259970,W,1,05,2.87,160.00,M,-21.3213,M,,*6A
$GPGGA,090451.50,4819.63925394,N,00428.25996524,W,1,05,2.87,160.00,M,-21.3213,M,,*6D
$GPGGA,090452.00,4819.63195775,N,00428.25733080,W,1,05,2.87,160.00,M,-21.3213,M,,*69
$GPGGA,090452.50,4819.62466155,N,00428.25469636,W,1,05,2.87,160.00,M,-21.3213,M,,*67
$GPGGA,090453.00,4819.61736535,N,00428.25206194,W,1,05,2.87,160.00,M,-21.3213,M,,*64
$GPGGA,090453.50,4819.61006916,N,00428.24942753,W,1,05,2.87,160.00,M,-21.3213,M,,*6F
$GPGGA,090454.00,4819.60287788,N,00428.24683102,W,1,05,2.87,160.00,M,-21.3213,M,,*6E
$GPGGA,090454.50,4819.59558168,N,00428.24419664,W,1,05,2.87,160.00,M,-21.3213,M,,*6A
$GPGGA,090455.00,4819.58828547,N,00428.24156227,W,1,05,2.87,160.00,M,-21.3213,M,,*61
$GPGGA,090455.50,4819.58098927,N,00428.23892791,W,1,05,2.87,160.00,M,-21.3213,M,,*63
$GPGGA,090456.00,4819.57369306,N,00428.23629356,W,1,05,2.87,160.00,M,-21.3213,M,,*6F
$GPGGA,090456.50,4819.56639686,N,00428.23365923,W,1,05,2.87,160.00,M,-21.3213,M,,*63
$GPGGA,090457.00,4819.55910065,N,00428.23102491,W,1,05,2.87,160.00,M,-21.3213,M,,*6C
$GPGGA,090457.50,4819.55180444,N,00428.22839060,W,1,05,2.87,160.00,M,-21.3213,M,,*65
$GPGGA,090458.00,4819.54450823,N,00428.22575630,W,1,05,2.87,160.00,M,-21.3213,M,,*6D
$GPGGA,090458.50,4819.53721202,N,00428.22312202,W,1,05,2.87,160.00,M,-21.3213,M,,*61
$GPGGA,090459.00,4819.52991581,N,00428.22048775,W,1,05,2.87,160.00,M,-21.3213,M,,*64
$GPGGA,090459.50,4819.52261960,N,00428.21785349,W,1,05,2.87,160.00,M,-21.3213,M,,*68
$GPGGA,090500.00,4819.51532338,N,00428.21521925,W,1,05,2.87,160.00,M,-21.3213,M,,*69
$GPGGA,090500.50,4819.50813209,N,00428.21262289,W,1,05,2.87,160.00,M,-21.3213,M,,*6D
$GPGGA,090501.00,4819.50083587,N,00428.20998867,W,1,05,2.87,160.00,M,-21.3213,M,,*6C
$GPGGA,090501.50,4819.49353965,N,00428.20735446,W,1,05,2.87,160.00,M,-21.3213,M,,*69
$GPGGA,090502.00,4819.48624343,N,00428.20472027,W,1,05,2.87,160.00,M,-21.3213,M,,*66
$GPGGA,090502.50,4819.47894721,N,00428.20208608,W,1,05,2.87,160.00,M,-21.3213,M,,*69
$GPGGA,090503.00,4819.47165099,N,00428.19945191,W,1,05,2.87,160.00,M,-21.3213,M,,*61
$GPGGA,090503.50,4819.46435477,N,00428.19681775,W,1,05,2.87,160.00,M,-21.3213,M,,*6A
$GPGGA,090504.00,4819.45705854,N,00428.19418361,W,1,05,2.87,160.00,M,-21.3213,M,,*65
$GPGGA,090504.50,4819.44976232,N,00428.19154947,W,1,05,2.87,160.00,M,-21.3213,M,,*62
$GPGGA,090505.00,4819.44246609,N,00428.18891535,W,1,05,2.87,160.00,M,-21.3213,M,,*6A
$GPGGA,090505.50,4819.43516986,N,00428.18628124,W,1,05,2.87,160.00,M,-21.3213,M,,*6A
$GPGGA,090506.00,4819.42787363,N,00428.18364715,W,1,05,2.87,160.00,M,-21.3213,M,,*6F
$GPGGA,090506.50,4819.42068232,N,00428.18105094,W,1,05,2.87,160.00,M,-21.3213,M,,*62
$GPGGA,090507.00,4819.41338609,N,00428.17841687,W,1,05,2.87,160.00,M,-21.3213,M,,*6D
$GPGGA,090507.50,4819.40608986,N,00428.17578281,W,1,05,2.87,160.00,M,-21.3213,M,,*62
$GPGGA,090508.00,4819.39879362,N,00428.17314877,W,1,05,2.87,160.00,M,-21.3213,M,,*61
$GPGGA,090508.50,4819.39149739,N,00428.17051473,W,1,05,2.87,160.00,M,-21.3213,M,,*6E
$GPGGA,090509.00,4819.38420115,N,00428.16788071,W,1,05,2.87,160.00,M,-21.3213,M,,*6D
$GPGGA,090509.50,4819.37690491,N,00428.16524670,W,1,05,2.87,160.00,M,-21.3213,M,,*64
$GPGGA,090510.00,4819.36960867,N,00428.16261271,W,1,05,2.87,160.00,M,-21.3213,M,,*6E
$GPGGA,090510.50,4819.36231243,N,00428.15997872,W,1,05,2.87,160.00,M,-21.3213,M,,*60
$GPGGA,090511.00,4819.35501619,N,00428.15734475,W,1,05,2.87,160.00,M,-21.3213,M,,*64
$GPGGA,090511.50,4819.34771995,N,00428.15471079,W,1,05,2.87,160.00,M,-21.3213,M,,*64
$GPGGA,090512.00,4819.34042370,N,00428.15207685,W,1,05,2.87,160.00,M,-21.3213,M,,*66
$GPGGA,090512.50,4819.33312746,N,00428.14944291,W,1,05,2.87,160.00,M,-21.3213,M,,*6F
$GPGGA,090513.00,4819.32593613,N,00428.14684687,W,1,05,2.87,160.00,M,-21.3213,M,,*64
$GPGGA,090513.50,4819.31863988,N,00428.14421296,W,1,05,2.87,160.00,M,-21.3213,M,,*64
$GPGGA,090514.00,4819.31134363,N,00428.14157906,W,1,05,2.87,160.00,M,-21.3213,M,,*64
$GPGGA,090514.50,4819.30404738,N,00428.13894518,W,1,05,2.87,160.00,M,-21.3213,M,,*6E
$GPGGA,090515.00,4819.29675113,N,00428.13631131,W,1,05,2.87,160.00,M,-21.3213,M,,*67
$GPGGA,090515.50,4819.28945488,N,00428.13367745,W,1,05,2.87,160.00,M,-21.3213,M,,*6B
$GPGGA,090516.00,4819.28215863,N,00428.13104360,W,1,05,2.87,160.00,M,-21.3213,M,,*6E
$GPGGA,090516.50,4819.27486237,N,00428.12840977,W,1,05,2.87,160.00,M,-21.3213,M,,*67
$GPGGA,090517.00,4819.26756611,N,00428.12577594,W,1,05,2.87,160.00,M,-21.3213,M,,*64
$GPGGA,090517.50,4819.26026986,N,00428.12314214,W,1,05,2.87,160.00,M,-21.3213,M,,*6C
$GPGGA,090518.00,4819.25297360,N,00428.12050834,W,1,05,2.87,160.00,M,-21.3213,M,,*64
$GPGGA,090518.50,4819.24567734,N,00428.11787455,W,1,05,2.87,160.00,M,-21.3213,M,,*68
$GPGGA,090519.00,4819.23848600,N,00428.11527866,W,1,05,2.87,160.00,M,-21.3213,M,,*69
$GPGGA,090519.50,4819.23118974,N,00428.11264490,W,1,05,2.87,160.00,M,-21.3213,M,,*69
$GPGGA,090520.00,4819.22389347,N,00428.11001115,W,1,05,2.87,160.00,M,-21.3213,M,,*6E
$GPGGA,090520.50,4819.21659721,N,00428.10737742,W,1,05,2.87,160.00,M,-21.3213,M,,*63
$GPGGA,090521.00,4819.20930094,N,00428.10474369,W,1,05,2.87,160.00,M,-21.3213,M,,*66
$GPGGA,090521.50,4819.20200467,N,00428.10210999,W,1,05,2.87,160.00,M,-21.3213,M,,*62
$GPGGA,090522.00,4819.19470840,N,00428.09947629,W,1,05,2.87,160.00,M,-21.3213,M,,*63
$GPGGA,090522.50,4819.18741213,N,00428.09684260,W,1,05,2.87,160.00,M,-21.3213,M,,*63
$GPGGA,090523.00,4819.18011586,N,00428.09420893,W,1,05,2.87,160.00,M,-21.3213,M,,*64
$GPGGA,090523.50,4819.17281959,N,00428.09157527,W,1,05,2.87,160.00,M,-21.3213,M,,*6C
$GPGGA,090524.00,4819.16552332,N,00428.08894163,W,1,05,2.87,160.00,M,-21.3213,M,,*62
$GPGGA,090524.50,4819.15822704,N,00428.08630799,W,1,05,2.87,160.00,M,-21.3213,M,,*6C
$GPGGA,090525.00,4819.15093076,N,00428.08367437,W,1,05,2.87,160.00,M,-21.3213,M,,*68
$GPGGA,090525.50,4819.14373941,N,00428.08107863,W,1,05,2.87,160.00,M,-21.3213,M,,*65
$GPGGA,090526.00,4819.13644313,N,00428.07844504,W,1,05,2.87,160.00,M,-21.3213,M,,*65
$GPGGA,090526.50,4819.12914685,N,00428.07581145,W,1,05,2.87,160.00,M,-21.3213,M,,*64
$GPGGA,090527.00,4819.12185057,N,00428.07317788,W,1,05,2.87,160.00,M,-21.3213,M,,*67
$GPGGA,090527.50,4819.11455429,N,00428.07054432,W,1,05,2.87,160.00,M,-21.3213,M,,*62
$GPGGA,090528.00,4819.10725800,N,00428.06791077,W,1,05,2.87,160.00,M,-21.3213,M,,*60
$GPGGA,090528.50,4819.09996172,N,00428.06527724,W,1,05,2.87,160.00,M,-21.3213,M,,*69
$GPGGA,090529.00,4819.09266543,N,00428.06264372,W,1,05,2.87,160.00,M,-21.3213,M,,*68
$GPGGA,090529.50,4819.08536915,N,00428.06001021,W,1,05,2.87,160.00,M,-21.3213,M,,*65
$GPGGA,090530.00,4819.07807286,N,00428.05737671,W,1,05,2.87,160.00,M,-21.3213,M,,*6B
$GPGGA,090530.50,4819.07077657,N,00428.05474323,W,1,05,2.87,160.00,M,-21.3213,M,,*6F
$GPGGA,090531.00,4819.06348028,N,00428.05210976,W,1,05,2.87,160.00,M,-21.3213,M,,*65
$GPGGA,090531.50,4819.05628891,N,00428.04951420,W,1,05,2.87,160.00,M,-21.3213,M,,*6B
$GPGGA,090532.00,4819.04899261,N,00428.04688087,W,1,05,2.87,160.00,M,-21.3213,M,,*6F
$GPGGA,090532.50,4819.04169631,N,00428.04424790,W,1,05,2.87,160.00,M,-21.3213,M,,*68
$GPGGA,090533.00,4819.03439998,N,00428.04161636,W,1,05,2.87,160.00,M,-21.3213,M,,*6E
$GPGGA,090533.50,4819.02710356,N,00428.03899058,W,1,05,2.87,160.00,M,-21.3213,M,,*6D
$GPGGA,090534.00,4819.01980674,N,00428.03638801,W,1,05,2.87,160.00,M,-21.3213,M,,*6F
$GPGGA,090534.50,4819.01250796,N,00428.03387901,W,1,05,2.87,160.00,M,-21.3213,M,,*61
$GPGGA,090535.00,4819.00508974,N,00428.03171901,W,1,05,2.87,160.00,M,-21.3213,M,,*67
$GPGGA,090535.50,4818.99769391,N,00428.03065250,W,1,05,2.87,160.00,M,-21.3213,M,,*6C
$GPGGA,090536.00,4818.99022217,N,00428.03020056,W,1,05,2.87,160.00,M,-21.3213,M,,*68
$GPGGA,090536.50,4818.98272731,N,00428.02990302,W,1,05,2.87,160.00,M,-21.3213,M,,*6B
$GPGGA,090537.00,4818.97522647,N,00428.02964377,W,1,05,2.87,160.00,M,-21.3213,M,,*6B
$GPGGA,090537.50,4818.96772413,N,00428.02939400,W,1,05,2.87,160.00,M,-21.3213,M,,*64
$GPGGA,090538.00,4818.96022143,N,00428.02914657,W,1,05,2.87,160.00,M,-21.3213,M,,*63
$GPGGA,090538.50,4818.95271863,N,00428.02889972,W,1,05,2.87,160.00,M,-21.3213,M,,*67
$GPGGA,090539.00,4818.94521581,N,00428.02865301,W,1,05,2.87,160.00,M,-21.3213,M,,*6D
$GPGGA,090539.50,4818.93771298,N,00428.02840634,W,1,05,2.87,160.00,M,-21.3213,M,,*63
$GPGGA,090540.00,4818.93021016,N,00428.02815968,W,1,05,2.87,160.00,M,-21.3213,M,,*68
$GPGGA,090540.50,4818.92270733,N,00428.02791302,W,1,05,2.87,160.00,M,-21.3213,M,,*6F
$GPGGA,090541.00,4818.91520450,N,00428.02766637,W,1,05,2.87,160.00,M,-21.3213,M,,*67
$GPGGA,090541.50,4818.90770167,N,00428.02741971,W,1,05,2.87,160.00,M,-21.3213,M,,*6D
$GPGGA,090542.00,4818.90019884,N,00428.02717306,W,1,05,2.87,160.00,M,-21.3213,M,,*6E
$GPGGA,090542.50,4818.89280390,N,00428.02692996,W,1,05,2.87,160.00,M,-21.3213,M,,*60
$GPGGA,090543.00,4818.88530107,N,00428.02668331,W,1,05,2.87,160.00,M,-21.3213,M,,*67
$GPGGA,090543.50,4818.87779824,N,00428.02643666,W,1,05,2.87,160.00,M,-21.3213,M,,*64
$GPGGA,090544.00,4818.87029541,N,00428.02619001,W,1,05,2.87,160.00,M,-21.3213,M,,*62
$GPGGA,090544.50,4818.86279258,N,00428.02594336,W,1,05,2.87,160.00,M,-21.3213,M,,*6F
$GPGGA,090545.00,4818.85528975,N,00428.02569672,W,1,05,2.87,160.00,M,-21.3213,M,,*68
$GPGGA,090545.50,4818.84778692,N,00428.02545007,W,1,05,2.87,160.00,M,-21.3213,M,,*67
$GPGGA,090546.00,4818.84028409,N,00428.02520343,W,1,05,2.87,160.00,M,-21.3213,M,,*63
$GPGGA,090546.50,4818.83278126,N,00428.02495679,W,1,05,2.87,160.00,M,-21.3213,M,,*6D
$GPGGA,090547.00,4818.82527842,N,00428.02471015,W,1,05,2.87,160.00,M,-21.3213,M,,*68
$GPGGA,090547.50,4818.81777559,N,00428.02446351,W,1,05,2.87,160.00,M,-21.3213,M,,*69
$GPGGA,090548.00,4818.81027276,N,00428.02421687,W,1,05,2.87,160.00,M,-21.3213,M,,*64
