$GPGGA,090000.00,4822.68908631,N,00429.51038427,W,1,05,2.87,160.00,M,-21.3213,M,,*63
$GPGGA,090000.50,4822.68908631,N,00429.51038427,W,1,05,2.87,160.00,M,-21.3213,M,,*66
$GPGGA,090001.00,4822.68908631,N,00429.51038427,W,1,05,2.87,160.00,M,-21.3213,M,,*62
$GPGGA,090001.50,4822.68908631,N,00429.51038427,W,1,05,2.87,160.00,M,-21.3213,M,,*67
$GPGGA,090002.00,4822.68908631,N,00429.51038427,W,1,05,2.87,160.00,M,-21.3213,M,,*61
$GPGGA,090002.50,4822.68908631,N,00429.51038427,W,1,05,2.87,160.00,M,-21.3213,M,,*64
$GPGGA,090003.00,4822.68908631,N,00429.51038427,W,1,05,2.87,160.00,M,-21.3213,M,,*60
$GPGGA,090003.50,4822.68908631,N,00429.51038427,W,1,05,2.87,160.00,M,-21.3213,M,,*65
$GPGGA,090004.00,4822.68908631,N,00429.51038427,W,1,05,2.87,160.00,M,-21.3213,M,,*67
$GPGGA,090004.50,4822.68908631,N,00429.51038427,W,1,05,2.87,160.00,M,-21.3213,M,,*62
$GPGGA,090005.00,4822.68908631,N,00429.51038427,W,1,05,2.87,160.00,M,-21.3213,M,,*66
$GPGGA,090005.50,4822.68908631,N,00429.51038427,W,1,05,2.87,160.00,M,-21.3213,M,,*63
$GPGGA,090006.00,4822.68908631,N,00429.51038427,W,1,05,2.87,160.00,M,-21.3213,M,,*65
$GPGGA,090006.50,4822.68908631,N,00429.51038427,W,1,05,2.87,160.00,M,-21.3213,M,,*60
$GPGGA,090007.00,4822.68908631,N,00429.51038427,W,1,05,2.87,160.00,M,-21.3213,M,,*64
$GPGGA,090007.50,4822.68908631,N,00429.51038427,W,1,05,2.87,160.00,M,-21.3213,M,,*61
$GPGGA,090008.00,4822.68908631,N,00429.51038427,W,1,05,2.87,160.00,M,-21.3213,M,,*6B
$GPGGA,090008.50,4822.68908631,N,00429.51038427,W,1,05,2.87,160.00,M,-21.3213,M,,*6E
$GPGGA,090009.00,4822.68908631,N,00429.51038427,W,1,05,2.87,160.00,M,-21.3213,M,,*6A
$GPGGA,090009.50,4822.68908631,N,00429.51038427,W,1,05,2.87,160.00,M,-21.3213,M,,*6F
$GPGGA,090010.00,4822.68908631,N,00429.51038427,W,1,05,2.87,160.00,M,-21.3213,M,,*62
$GPGGA,090010.50,4822.68908631,N,00429.51038427,W,1,05,2.87,160.00,M,-21.3213,M,,*67
$GPGGA,090011.00,4822.68908631,N,00429.51038427,W,1,05,2.87,160.00,M,-21.3213,M,,*63
$GPGGA,090011.50,4822.68908631,N,00429.51038427,W,1,05,2.87,160.00,M,-21.3213,M,,*66
$GPGGA,090012.00,4822.68908631,N,00429.51038427,W,1,05,2.87,160.00,M,-21.3213,M,,*60
$GPGGA,090012.50,4822.68908631,N,00429.51038427,W,1,05,2.87,160.00,M,-21.3213,M,,*65
$GPGGA,090013.00,4822.68908631,N,00429.51038427,W,1,05,2.87,160.00,M,-21.3213,M,,*61
$GPGGA,090013.50,4822.68908631,N,00429.51038427,W,1,05,2.87,160.00,M,-21.3213,M,,*64
$GPGGA,090014.00,4822.68908631,N,00429.51038427,W,1,05,2.87,160.00,M,-21.3213,M,,*66
$GPGGA,090014.50,4822.68908631,N,00429.51038427,W,1,05,2.87,160.00,M,-21.3213,M,,*63
$GPGGA,090015.00,4822.68908631,N,00429.51038427,W,1,05,2.87,160.00,M,-21.3213,M,,*67
$GPGGA,090015.50,4822.68908631,N,00429.51038427,W,1,05,2.87,160.00,M,-21.3213,M,,*62
$GPGGA,090016.00,4822.68908631,N,00429.51038427,W,1,05,2.87,160.00,M,-21.3213,M,,*64
$GPGGA,090016.50,4822.68908631,N,00429.51038427,W,1,05,2.87,160.00,M,-21.3213,M,,*61
$GPGGA,090017.00,4822.68908631,N,00429.51038427,W,1,05,2.87,160.00,M,-21.3213,M,,*65
$GPGGA,090017.50,4822.68908631,N,00429.51038427,W,1,05,2.87,160.00,M,-21.3213,M,,*60
$GPGGA,090018.00,4822.68908631,N,00429.51038427,W,1,05,2.87,160.00,M,-21.3213,M,,*6A
$GPGGA,090018.50,4822.68908631,N,00429.51038427,W,1,05,2.87,160.00,M,-21.3213,M,,*6F
$GPGGA,090019.00,4822.68908631,N,00429.51038427,W,1,05,2.87,160.00,M,-21.3213,M,,*6B
$GPGGA,090019.50,4822.68908631,N,00429.51038427,W,1,05,2.87,160.00,M,-21.3213,M,,*6E
$GPGGA,090020.00,4822.68908631,N,00429.51038427,W,1,05,2.87,160.00,M,-21.3213,M,,*61
$GPGGA,090020.50,4822.68908631,N,00429.51038427,W,1,05,2.87,160.00,M,-21.3213,M,,*64
$GPGGA,090021.00,4822.68908631,N,00429.51038427,W,1,05,2.87,160.00,M,-21.3213,M,,*60
$GPGGA,090021.50,4822.68908631,N,00429.51038427,W,1,05,2.87,160.00,M,-21.3213,M,,*65
$GPGGA,090022.00,4822.68908631,N,00429.51038427,W,1,05,2.87,160.00,M,-21.3213,M,,*63
$GPGGA,090022.50,4822.68908631,N,00429.51038427,W,1,05,2.87,160.00,M,-21.3213,M,,*66
$GPGGA,090023.00,4822.68908631,N,00429.51038427,W,1,05,2.87,160.00,M,-21.3213,M,,*62
$GPGGA,090023.50,4822.68908631,N,00429.51038427,W,1,05,2.87,160.00,M,-21.3213,M,,*67
$GPGGA,090024.00,4822.68908631,N,00429.51038427,W,1,05,2.87,160.00,M,-21.3213,M,,*65
$GPGGA,090024.50,4822.68908631,N,00429.51038427,W,1,05,2.87,160.00,M,-21.3213,M,,*60
$GPGGA,090025.00,4822.68908631,N,00429.51038427,W,1,05,2.87,160.00,M,-21.3213,M,,*64
$GPGGA,090025.50,4822.68908631,N,00429.51038427,W,1,05,2.87,160.00,M,-21.3213,M,,*61
$GPGGA,090026.00,4822.68908631,N,00429.51038427,W,1,05,2.87,160.00,M,-21.3213,M,,*67
$GPGGA,090026.50,4822.68908631,N,00429.51038427,W,1,05,2.87,160.00,M,-21.3213,M,,*62
$GPGGA,090027.00,4822.68908631,N,00429.51038427,W,1,05,2.87,160.00,M,-21.3213,M,,*66
$GPGGA,090027.50,4822.68908631,N,00429.51038427,W,1,05,2.87,160.00,M,-21.3213,M,,*63
$GPGGA,090028.00,4822.68908631,N,00429.51038427,W,1,05,2.87,160.00,M,-21.3213,M,,*69
$GPGGA,090028.50,4822.68908631,N,00429.51038427,W,1,05,2.87,160.00,M,-21.3213,M,,*6C
$GPGGA,090029.00,4822.68908631,N,00429.51038427,W,1,05,2.87,160.00,M,-21.3213,M,,*68
$GPGGA,090029.50,4822.68908631,N,00429.51038427,W,1,05,2.87,160.00,M,-21.3213,M,,*6D
$GPGGA,090030.00,4822.68908631,N,00429.51038427,W,1,05,2.87,160.00,M,-21.3213,M,,*60
$GPGGA,090030.50,4822.68908631,N,00429.51038427,W,1,05,2.87,160.00,M,-21.3213,M,,*65
$GPGGA,090031.00,4822.68908631,N,00429.51038427,W,1,05,2.87,160.00,M,-21.3213,M,,*61
$GPGGA,090031.50,4822.68908631,N,00429.51038427,W,1,05,2.87,160.00,M,-21.3213,M,,*64
$GPGGA,090032.00,4822.68908631,N,00429.51038427,W,1,05,2.87,160.00,M,-21.3213,M,,*62
$GPGGA,090032.50,4822.68908631,N,00429.51038427,W,1,05,2.87,160.00,M,-21.3213,M,,*67
$GPGGA,090033.00,4822.68908631,N,00429.51038427,W,1,05,2.87,160.00,M,-21.3213,M,,*63
$GPGGA,090033.50,4822.68908631,N,00429.51038427,W,1,05,2.87,160.00,M,-21.3213,M,,*66
$GPGGA,090034.00,4822.68908631,N,00429.51038427,W,1,05,2.87,160.00,M,-21.3213,M,,*64
$GPGGA,090034.50,4822.68908631,N,00429.51038427,W,1,05,2.87,160.00,M,-21.3213,M,,*61
$GPGGA,090035.00,4822.68908631,N,00429.51038427,W,1,05,2.87,160.00,M,-21.3213,M,,*65
$GPGGA,090035.50,4822.68908631,N,00429.51038427,W,1,05,2.87,160.00,M,-21.3213,M,,*60
$GPGGA,090036.00,4822.68908631,N,00429.51038427,W,1,05,2.87,160.00,M,-21.3213,M,,*66
$GPGGA,090036.50,4822.68908631,N,00429.51038427,W,1,05,2.87,160.00,M,-21.3213,M,,*63
$GPGGA,090037.00,4822.68908631,N,00429.51038427,W,1,05,2.87,160.00,M,-21.3213,M,,*67
$GPGGA,090037.50,4822.68908631,N,00429.51038427,W,1,05,2.87,160.00,M,-21.3213,M,,*62
$GPGGA,090038.00,4822.68908631,N,00429.51038427,W,1,05,2.87,160.00,M,-21.3213,M,,*68
$GPGGA,090038.50,4822.68908631,N,00429.51038427,W,1,05,2.87,160.00,M,-21.3213,M,,*6D
$GPGGA,090039.00,4822.68908631,N,00429.51038427,W,1,05,2.87,160.00,M,-21.3213,M,,*69
$GPGGA,090039.50,4822.68908631,N,00429.51038427,W,1,05,2.87,160.00,M,-21.3213,M,,*6C
$GPGGA,090040.00,4822.68908631,N,00429.51038427,W,1,05,2.87,160.00,M,-21.3213,M,,*67
$GPGGA,090040.50,4822.68908631,N,00429.51038427,W,1,05,2.87,160.00,M,-21.3213,M,,*62
$GPGGA,090041.00,4822.68908631,N,00429.51038427,W,1,05,2.87,160.00,M,-21.3213,M,,*66
$GPGGA,090041.50,4822.68908631,N,00429.51038427,W,1,05,2.87,160.00,M,-21.3213,M,,*63
$GPGGA,090042.00,4822.68908631,N,00429.51038427,W,1,05,2.87,160.00,M,-21.3213,M,,*65
$GPGGA,090042.50,4822.68908631,N,00429.51038427,W,1,05,2.87,160.00,M,-21.3213,M,,*60
$GPGGA,090043.00,4822.68908631,N,00429.51038427,W,1,05,2.87,160.00,M,-21.3213,M,,*64
$GPGGA,090043.50,4822.68908631,N,00429.51038427,W,1,05,2.87,160.00,M,-21.3213,M,,*61
$GPGGA,090044.00,4822.68908631,N,00429.51038427,W,1,05,2.87,160.00,M,-21.3213,M,,*63
$GPGGA,090044.50,4822.68908631,N,00429.51038427,W,1,05,2.87,160.00,M,-21.3213,M,,*66
$GPGGA,090045.00,4822.68908631,N,00429.51038427,W,1,05,2.87,160.00,M,-21.3213,M,,*62
$GPGGA,090045.50,4822.68908631,N,00429.51038427,W,1,05,2.87,160.00,M,-21.3213,M,,*67
$GPGGA,090046.00,4822.68908631,N,00429.51038427,W,1,05,2.87,160.00,M,-21.3213,M,,*61
$GPGGA,090046.50,4822.68908631,N,00429.51038427,W,1,05,2.87,160.00,M,-21.3213,M,,*64
$GPGGA,090047.00,4822.68908631,N,00429.51038427,W,1,05,2.87,160.00,M,-21.3213,M,,*60
$GPGGA,090047.50,4822.68908631,N,00429.51038427,W,1,05,2.87,160.00,M,-21.3213,M,,*65
$GPGGA,090048.00,4822.68908631,N,00429.51038427,W,1,05,2.87,160.00,M,-21.3213,M,,*6F
$GPGGA,090048.50,4822.68908631,N,00429.51038427,W,1,05,2.87,160.00,M,-21.3213,M,,*6A
$GPGGA,090049.00,4822.68908631,N,00429.51038427,W,1,05,2.87,160.00,M,-21.3213,M,,*6E
$GPGGA,090049.50,4822.68908631,N,00429.51038427,W,1,05,2.87,160.00,M,-21.3213,M,,*6B
$GPGGA,090050.00,4822.68908631,N,00429.51038427,W,1,05,2.87,160.00,M,-21.3213,M,,*66
$GPGGA,090050.50,4822.68908631,N,00429.51038427,W,1,05,2.87,160.00,M,-21.3213,M,,*63
$GPGGA,090051.00,4822.68908631,N,00429.51038427,W,1,05,2.87,160.00,M,-21.3213,M,,*67
$GPGGA,090051.50,4822.68908631,N,00429.51038427,W,1,05,2.87,160.00,M,-21.3213,M,,*62
$GPGGA,090052.00,4822.68908631,N,00429.51038427,W,1,05,2.87,160.00,M,-21.3213,M,,*64
$GPGGA,090052.50,4822.68908631,N,00429.51038427,W,1,05,2.87,160.00,M,-21.3213,M,,*61
$GPGGA,090053.00,4822.68908631,N,00429.51038427,W,1,05,2.87,160.00,M,-21.3213,M,,*65
$GPGGA,090053.50,4822.68908631,N,00429.51038427,W,1,05,2.87,160.00,M,-21.3213,M,,*60
$GPGGA,090054.00,4822.68908631,N,00429.51038427,W,1,05,2.87,160.00,M,-21.3213,M,,*62
$GPGGA,090054.50,4822.68908631,N,00429.51038427,W,1,05,2.87,160.00,M,-21.3213,M,,*67
$GPGGA,090055.00,4822.68908631,N,00429.51038427,W,1,05,2.87,160.00,M,-21.3213,M,,*63
$GPGGA,090055.50,4822.68908631,N,00429.51038427,W,1,05,2.87,160.00,M,-21.3213,M,,*66
$GPGGA,090056.00,4822.68908631,N,00429.51038427,W,1,05,2.87,160.00,M,-21.3213,M,,*60
$GPGGA,090056.50,4822.68908631,N,00429.51038427,W,1,05,2.87,160.00,M,-21.3213,M,,*65
$GPGGA,090057.00,4822.68908631,N,00429.51038427,W,1,05,2.87,160.00,M,-21.3213,M,,*61
$GPGGA,090057.50,4822.68908631,N,00429.51038427,W,1,05,2.87,160.00,M,-21.3213,M,,*64
$GPGGA,090058.00,4822.68908631,N,00429.51038427,W,1,05,2.87,160.00,M,-21.3213,M,,*6E
$GPGGA,090058.50,4822.68908631,N,00429.51038427,W,1,05,2.87,160.00,M,-21.3213,M,,*6B
$GPGGA,090059.00,4822.68908631,N,00429.51038427,W,1,05,2.87,160.00,M,-21.3213,M,,*6F
$GPGGA,090059.50,4822.68908631,N,00429.51038427,W,1,05,2.87,160.00,M,-21.3213,M,,*6A
$GPGGA,090100.00,4822.68908631,N,00429.51038427,W,1,05,2.87,160.00,M,-21.3213,M,,*62
$GPGGA,090100.50,4822.68908631,N,00429.51038427,W,1,05,2.87,160.00,M,-21.3213,M,,*67
$GPGGA,090101.00,4822.68908631,N,00429.51038427,W,1,05,2.87,160.00,M,-21.3213,M,,*63
$GPGGA,090101.50,4822.68908631,N,00429.51038427,W,1,05,2.87,160.00,M,-21.3213,M,,*66
$GPGGA,090102.00,4822.68908631,N,00429.51038427,W,1,05,2.87,160.00,M,-21.3213,M,,*60
$GPGGA,090102.50,4822.68908631,N,00429.51038427,W,1,05,2.87,160.00,M,-21.3213,M,,*65
$GPGGA,090103.00,4822.68908631,N,00429.51038427,W,1,05,2.87,160.00,M,-21.3213,M,,*61
$GPGGA,090103.50,4822.68908631,N,00429.51038427,W,1,05,2.87,160.00,M,-21.3213,M,,*64
$GPGGA,090104.00,4822.68908631,N,00429.51038427,W,1,05,2.87,160.00,M,-21.3213,M,,*66
$GPGGA,090104.50,4822.68908631,N,00429.51038427,W,1,05,2.87,160.00,M,-21.3213,M,,*63
$GPGGA,090105.00,4822.68908631,N,00429.51038427,W,1,05,2.87,160.00,M,-21.3213,M,,*67
$GPGGA,090105.50,4822.68908631,N,00429.51038427,W,1,05,2.87,160.00,M,-21.3213,M,,*62
$GPGGA,090106.00,4822.68908631,N,00429.51038427,W,1,05,2.87,160.00,M,-21.3213,M,,*64
$GPGGA,090106.50,4822.68908631,N,00429.51038427,W,1,05,2.87,160.00,M,-21.3213,M,,*61
$GPGGA,090107.00,4822.68908631,N,00429.51038427,W,1,05,2.87,160.00,M,-21.3213,M,,*65
$GPGGA,090107.50,4822.68908631,N,00429.51038427,W,1,05,2.87,160.00,M,-21.3213,M,,*60
$GPGGA,090108.00,4822.68908631,N,00429.51038427,W,1,05,2.87,160.00,M,-21.3213,M,,*6A
$GPGGA,090108.50,4822.68908631,N,00429.51038427,W,1,05,2.87,160.00,M,-21.3213,M,,*6F
$GPGGA,090109.00,4822.68908631,N,00429.51038427,W,1,05,2.87,160.00,M,-21.3213,M,,*6B
$GPGGA,090109.50,4822.68908631,N,00429.51038427,W,1,05,2.87,160.00,M,-21.3213,M,,*6E
$GPGGA,090110.00,4822.68908631,N,00429.51038427,W,1,05,2.87,160.00,M,-21.3213,M,,*63
$GPGGA,090110.50,4822.68908631,N,00429.51038427,W,1,05,2.87,160.00,M,-21.3213,M,,*66
$GPGGA,090111.00,4822.68908631,N,00429.51038427,W,1,05,2.87,160.00,M,-21.3213,M,,*62
$GPGGA,090111.50,4822.68908631,N,00429.51038427,W,1,05,2.87,160.00,M,-21.3213,M,,*67
$GPGGA,090112.00,4822.68908631,N,00429.51038427,W,1,05,2.87,160.00,M,-21.3213,M,,*61
$GPGGA,090112.50,4822.68908631,N,00429.51038427,W,1,05,2.87,160.00,M,-21.3213,M,,*64
$GPGGA,090113.00,4822.68908631,N,00429.51038427,W,1,05,2.87,160.00,M,-21.3213,M,,*60
$GPGGA,090113.50,4822.68908631,N,00429.51038427,W,1,05,2.87,160.00,M,-21.3213,M,,*65
$GPGGA,090114.00,4822.68908631,N,00429.51038427,W,1,05,2.87,160.00,M,-21.3213,M,,*67
$GPGGA,090114.50,4822.68908631,N,00429.51038427,W,1,05,2.87,160.00,M,-21.3213,M,,*62
$GPGGA,090115.00,4822.68908631,N,00429.51038427,W,1,05,2.87,160.00,M,-21.3213,M,,*66
$GPGGA,090115.50,4822.68908631,N,00429.51038427,W,1,05,2.87,160.00,M,-21.3213,M,,*63
$GPGGA,090116.00,4822.68908631,N,00429.51038427,W,1,05,2.87,160.00,M,-21.3213,M,,*65
$GPGGA,090116.50,4822.68908631,N,00429.51038427,W,1,05,2.87,160.00,M,-21.3213,M,,*60
$GPGGA,090117.00,4822.68908631,N,00429.51038427,W,1,05,2.87,160.00,M,-21.3213,M,,*64
$GPGGA,090117.50,4822.68908631,N,00429.51038427,W,1,05,2.87,160.00,M,-21.3213,M,,*61
$GPGGA,090118.00,4822.68908631,N,00429.51038427,W,1,05,2.87,160.00,M,-21.3213,M,,*6B
$GPGGA,090118.50,4822.68908631,N,00429.51038427,W,1,05,2.87,160.00,M,-21.3213,M,,*6E
$GPGGA,090119.00,4822.68908631,N,00429.51038427,W,1,05,2.87,160.00,M,-21.3213,M,,*6A
$GPGGA,090119.50,4822.68908631,N,00429.51038427,W,1,05,2.87,160.00,M,-21.3213,M,,*6F
$GPGGA,090120.00,4822.68908631,N,00429.51038427,W,1,05,2.87,160.00,M,-21.3213,M,,*60
$GPGGA,090120.50,4822.68908631,N,00429.51038427,W,1,05,2.87,160.00,M,-21.3213,M,,*65
$GPGGA,090121.00,4822.68908631,N,00429.51038427,W,1,05,2.87,160.00,M,-21.3213,M,,*61
$GPGGA,090121.50,4822.68908631,N,00429.51038427,W,1,05,2.87,160.00,M,-21.3213,M,,*64
$GPGGA,090122.00,4822.68908631,N,00429.51038427,W,1,05,2.87,160.00,M,-21.3213,M,,*62
$GPGGA,090122.50,4822.68908631,N,00429.51038427,W,1,05,2.87,160.00,M,-21.3213,M,,*67
$GPGGA,090123.00,4822.68908631,N,00429.51038427,W,1,05,2.87,160.00,M,-21.3213,M,,*63
$GPGGA,090123.50,4822.68908631,N,00429.51038427,W,1,05,2.87,160.00,M,-21.3213,M,,*66
$GPGGA,090124.00,4822.68908631,N,00429.51038427,W,1,05,2.87,160.00,M,-21.3213,M,,*64
$GPGGA,090124.50,4822.68908631,N,00429.51038427,W,1,05,2.87,160.00,M,-21.3213,M,,*61
$GPGGA,090125.00,4822.68908631,N,00429.51038427,W,1,05,2.87,160.00,M,-21.3213,M,,*65
$GPGGA,090125.50,4822.68908631,N,00429.51038427,W,1,05,2.87,160.00,M,-21.3213,M,,*60
$GPGGA,090126.00,4822.68908631,N,00429.51038427,W,1,05,2.87,160.00,M,-21.3213,M,,*66
$GPGGA,090126.50,4822.68908631,N,00429.51038427,W,1,05,2.87,160.00,M,-21.3213,M,,*63
$GPGGA,090127.00,4822.68908631,N,00429.51038427,W,1,05,2.87,160.00,M,-21.3213,M,,*67
$GPGGA,090127.50,4822.68908631,N,00429.51038427,W,1,05,2.87,160.00,M,-21.3213,M,,*62
$GPGGA,090128.00,4822.68908631,N,00429.51038427,W,1,05,2.87,160.00,M,-21.3213,M,,*68
$GPGGA,090128.50,4822.68908631,N,00429.51038427,W,1,05,2.87,160.00,M,-21.3213,M,,*6D
$GPGGA,090129.00,4822.68908631,N,00429.51038427,W,1,05,2.87,160.00,M,-21.3213,M,,*69
$GPGGA,090129.50,4822.68908631,N,00429.51038427,W,1,05,2.87,160.00,M,-21.3213,M,,*6C
$GPGGA,090130.00,4822.68908631,N,00429.51038427,W,1,05,2.87,160.00,M,-21.3213,M,,*61
$GPGGA,090130.50,4822.68908631,N,00429.51038427,W,1,05,2.87,160.00,M,-21.3213,M,,*64
$GPGGA,090131.00,4822.68908631,N,00429.51038427,W,1,05,2.87,160.00,M,-21.3213,M,,*60
$GPGGA,090131.50,4822.68908631,N,00429.51038427,W,1,05,2.87,160.00,M,-21.3213,M,,*65
$GPGGA,090132.00,4822.68908631,N,00429.51038427,W,1,05,2.87,160.00,M,-21.3213,M,,*63
$GPGGA,090132.50,4822.68908631,N,00429.51038427,W,1,05,2.87,160.00,M,-21.3213,M,,*66
$GPGGA,090133.00,4822.68908631,N,00429.51038427,W,1,05,2.87,160.00,M,-21.3213,M,,*62
$GPGGA,090133.50,4822.68908631,N,00429.51038427,W,1,05,2.87,160.00,M,-21.3213,M,,*67
$GPGGA,090134.00,4822.68908631,N,00429.51038427,W,1,05,2.87,160.00,M,-21.3213,M,,*65
$GPGGA,090134.50,4822.68908631,N,00429.51038427,W,1,05,2.87,160.00,M,-21.3213,M,,*60
$GPGGA,090135.00,4822.68908631,N,00429.51038427,W,1,05,2.87,160.00,M,-21.3213,M,,*64
$GPGGA,090135.50,4822.68908631,N,00429.51038427,W,1,05,2.87,160.00,M,-21.3213,M,,*61
$GPGGA,090136.00,4822.68908631,N,00429.51038427,W,1,05,2.87,160.00,M,-21.3213,M,,*67
$GPGGA,090136.50,4822.68908631,N,00429.51038427,W,1,05,2.87,160.00,M,-21.3213,M,,*62
$GPGGA,090137.00,4822.68908631,N,00429.51038427,W,1,05,2.87,160.00,M,-21.3213,M,,*66
$GPGGA,090137.50,4822.68908631,N,00429.51038427,W,1,05,2.87,160.00,M,-21.3213,M,,*63
$GPGGA,090138.00,4822.68908631,N,00429.51038427,W,1,05,2.87,160.00,M,-21.3213,M,,*69
$GPGGA,090138.50,4822.68908631,N,00429.51038427,W,1,05,2.87,160.00,M,-21.3213,M,,*6C
$GPGGA,090139.00,4822.68908631,N,00429.51038427,W,1,05,2.87,160.00,M,-21.3213,M,,*68
$GPGGA,090139.50,4822.68908631,N,00429.51038427,W,1,05,2.87,160.00,M,-21.3213,M,,*6D
$GPGGA,090140.00,4822.68776724,N,00429.51077794,W,1,05,2.87,160.00,M,-21.3213,M,,*64
$GPGGA,090140.50,4822.68522913,N,00429.51153543,W,1,05,2.87,160.00,M,-21.3213,M,,*67
$GPGGA,090141.00,4822.68231732,N,00429.51240445,W,1,05,2.87,160.00,M,-21.3213,M,,*6D
$GPGGA,090141.50,4822.67942655,N,00429.51326718,W,1,05,2.87,160.00,M,-21.3213,M,,*62
$GPGGA,090142.00,4822.67645323,N,00429.51415455,W,1,05,2.87,160.00,M,-21.3213,M,,*65
$GPGGA,090142.50,4822.67348382,N,00429.51504076,W,1,05,2.87,160.00,M,-21.3213,M,,*67
$GPGGA,090143.00,4822.67056477,N,00429.51591193,W,1,05,2.87,160.00,M,-21.3213,M,,*64
$GPGGA,090143.50,4822.66761574,N,00429.51679204,W,1,05,2.87,160.00,M,-21.3213,M,,*69
$GPGGA,090144.00,4822.66464963,N,00429.51767726,W,1,05,2.87,160.00,M,-21.3213,M,,*6C
$GPGGA,090144.50,4822.66177949,N,00429.51853383,W,1,05,2.87,160.00,M,-21.3213,M,,*65
$GPGGA,090145.00,4822.65879877,N,00429.51942340,W,1,05,2.87,160.00,M,-21.3213,M,,*67
$GPGGA,090145.50,4822.65581427,N,00429.52031409,W,1,05,2.87,160.00,M,-21.3213,M,,*65
$GPGGA,090146.00,4822.65293380,N,00429.52117374,W,1,05,2.87,160.00,M,-21.3213,M,,*65
$GPGGA,090146.50,4822.64994647,N,00429.52206528,W,1,05,2.87,160.00,M,-21.3213,M,,*6F
$GPGGA,090147.00,4822.64706440,N,00429.52292540,W,1,05,2.87,160.00,M,-21.3213,M,,*68
$GPGGA,090147.50,4822.64407614,N,00429.52381721,W,1,05,2.87,160.00,M,-21.3213,M,,*6A
$GPGGA,090148.00,4822.64119354,N,00429.52467749,W,1,05,2.87,160.00,M,-21.3213,M,,*6A
$GPGGA,090148.50,4822.63820498,N,00429.52556938,W,1,05,2.87,160.00,M,-21.3213,M,,*67
$GPGGA,090149.00,4822.63532221,N,00429.52642971,W,1,05,2.87,160.00,M,-21.3213,M,,*62
$GPGGA,090149.50,4822.63233355,N,00429.52732163,W,1,05,2.87,160.00,M,-21.3213,M,,*6E
$GPGGA,090150.00,4822.62945073,N,00429.52818197,W,1,05,2.87,160.00,M,-21.3213,M,,*63
$GPGGA,090150.50,4822.62646203,N,00429.52907390,W,1,05,2.87,160.00,M,-21.3213,M,,*65
$GPGGA,090151.00,4822.62347332,N,00429.52996583,W,1,05,2.87,160.00,M,-21.3213,M,,*6A
$GPGGA,090151.50,4822.62059048,N,00429.53082617,W,1,05,2.87,160.00,M,-21.3213,M,,*6E
$GPGGA,090152.00,4822.61760176,N,00429.53171810,W,1,05,2.87,160.00,M,-21.3213,M,,*6E
$GPGGA,090152.50,4822.61471892,N,00429.53257843,W,1,05,2.87,160.00,M,-21.3213,M,,*6A
$GPGGA,090153.00,4822.61173020,N,00429.53347036,W,1,05,2.87,160.00,M,-21.3213,M,,*62
$GPGGA,090153.50,4822.60884735,N,00429.53433069,W,1,05,2.87,160.00,M,-21.3213,M,,*6A
$GPGGA,090154.00,4822.60585864,N,00429.53522262,W,1,05,2.87,160.00,M,-21.3213,M,,*67
$GPGGA,090154.50,4822.60297579,N,00429.53608295,W,1,05,2.87,160.00,M,-21.3213,M,,*64
$GPGGA,090155.00,4822.59998707,N,00429.53697487,W,1,05,2.87,160.00,M,-21.3213,M,,*66
$GPGGA,090155.50,4822.59710422,N,00429.53783519,W,1,05,2.87,160.00,M,-21.3213,M,,*6B
$GPGGA,090156.00,4822.59411551,N,00429.53872711,W,1,05,2.87,160.00,M,-21.3213,M,,*61
$GPGGA,090156.50,4822.59123266,N,00429.53958743,W,1,05,2.87,160.00,M,-21.3213,M,,*6D
$GPGGA,090157.00,4822.58824394,N,00429.54047934,W,1,05,2.87,160.00,M,-21.3213,M,,*64
$GPGGA,090157.50,4822.58525522,N,00429.54137125,W,1,05,2.87,160.00,M,-21.3213,M,,*68
$GPGGA,090158.00,4822.58237238,N,00429.54223156,W,1,05,2.87,160.00,M,-21.3213,M,,*68
$GPGGA,090158.50,4822.57938366,N,00429.54312345,W,1,05,2.87,160.00,M,-21.3213,M,,*6F
$GPGGA,090159.00,4822.57650082,N,00429.54398373,W,1,05,2.87,160.00,M,-21.3213,M,,*64
$GPGGA,090159.50,4822.57351211,N,00429.54487559,W,1,05,2.87,160.00,M,-21.3213,M,,*6A
$GPGGA,090200.00,4822.57062927,N,00429.54573582,W,1,05,2.87,160.00,M,-21.3213,M,,*61
$GPGGA,090200.50,4822.56764058,N,00429.54662757,W,1,05,2.87,160.00,M,-21.3213,M,,*6C
$GPGGA,090201.00,4822.56475778,N,00429.54748762,W,1,05,2.87,160.00,M,-21.3213,M,,*61
$GPGGA,090201.50,4822.56176915,N,00429.54837905,W,1,05,2.87,160.00,M,-21.3213,M,,*6F
$GPGGA,090202.00,4822.55888645,N,00429.54923858,W,1,05,2.87,160.00,M,-21.3213,M,,*65
$GPGGA,090202.50,4822.55589800,N,00429.55012906,W,1,05,2.87,160.00,M,-21.3213,M,,*63
$GPGGA,090203.00,4822.55290974,N,00429.55101846,W,1,05,2.87,160.00,M,-21.3213,M,,*6C
$GPGGA,090203.50,4822.55002770,N,00429.55187457,W,1,05,2.87,160.00,M,-21.3213,M,,*68
$GPGGA,090204.00,4822.54704041,N,00429.55275887,W,1,05,2.87,160.00,M,-21.3213,M,,*60
$GPGGA,090204.50,4822.54416002,N,00429.55360638,W,1,05,2.87,160.00,M,-21.3213,M,,*6D
$GPGGA,090205.00,4822.54117562,N,00429.55447517,W,1,05,2.87,160.00,M,-21.3213,M,,*62
$GPGGA,090205.50,4822.53830024,N,00429.55529661,W,1,05,2.87,160.00,M,-21.3213,M,,*60
$GPGGA,090206.00,4822.53532456,N,00429.55611844,W,1,05,2.87,160.00,M,-21.3213,M,,*69
$GPGGA,090206.50,4822.53235832,N,00429.55688755,W,1,05,2.87,160.00,M,-21.3213,M,,*6D
$GPGGA,090207.00,4822.52940787,N,00429.55756511,W,1,05,2.87,160.00,M,-21.3213,M,,*60
$GPGGA,090207.50,4822.52637738,N,00429.55810002,W,1,05,2.87,160.00,M,-21.3213,M,,*64
$GPGGA,090208.00,4822.52338352,N,00429.55834231,W,1,05,2.87,160.00,M,-21.3213,M,,*68
$GPGGA,090208.50,4822.52042466,N,00429.55809459,W,1,05,2.87,160.00,M,-21.3213,M,,*65
$GPGGA,090209.00,4822.51746739,N,00429.55735538,W,1,05,2.87,160.00,M,-21.3213,M,,*6E
$GPGGA,090209.50,4822.51459855,N,00429.55635966,W,1,05,2.87,160.00,M,-21.3213,M,,*65
$GPGGA,090210.00,4822.51161325,N,00429.55515746,W,1,05,2.87,160.00,M,-21.3213,M,,*67
$GPGGA,090210.50,4822.50882522,N,00429.55394708,W,1,05,2.87,160.00,M,-21.3213,M,,*63
$GPGGA,090211.00,4822.50592862,N,00429.55263845,W,1,05,2.87,160.00,M,-21.3213,M,,*6D
$GPGGA,090211.50,4822.50302876,N,00429.55129842,W,1,05,2.87,160.00,M,-21.3213,M,,*68
$GPGGA,090212.00,4822.50022991,N,00429.54998884,W,1,05,2.87,160.00,M,-21.3213,M,,*6E
$GPGGA,090212.50,4822.49732703,N,00429.54862096,W,1,05,2.87,160.00,M,-21.3213,M,,*6F
$GPGGA,090213.00,4822.49442294,N,00429.54724692,W,1,05,2.87,160.00,M,-21.3213,M,,*6B
$GPGGA,090213.50,4822.49162195,N,00429.54591862,W,1,05,2.87,160.00,M,-21.3213,M,,*66
$GPGGA,090214.00,4822.48871786,N,00429.54453963,W,1,05,2.87,160.00,M,-21.3213,M,,*65
$GPGGA,090214.50,4822.48591654,N,00429.54320846,W,1,05,2.87,160.00,M,-21.3213,M,,*68
$GPGGA,090215.00,4822.48301226,N,00429.54182777,W,1,05,2.87,160.00,M,-21.3213,M,,*65
$GPGGA,090215.50,4822.48021083,N,00429.54049565,W,1,05,2.87,160.00,M,-21.3213,M,,*6B
$GPGGA,090216.00,4822.47730649,N,00429.53911441,W,1,05,2.87,160.00,M,-21.3213,M,,*61
$GPGGA,090216.50,4822.47450502,N,00429.53778199,W,1,05,2.87,160.00,M,-21.3213,M,,*6C
$GPGGA,090217.00,4822.47160066,N,00429.53640056,W,1,05,2.87,160.00,M,-21.3213,M,,*61
$GPGGA,090217.50,4822.46869629,N,00429.53501910,W,1,05,2.87,160.00,M,-21.3213,M,,*65
$GPGGA,090218.00,4822.46589481,N,00429.53368656,W,1,05,2.87,160.00,M,-21.3213,M,,*68
$GPGGA,090218.50,4822.46299044,N,00429.53230508,W,1,05,2.87,160.00,M,-21.3213,M,,*62
$GPGGA,090219.00,4822.46018895,N,00429.53097252,W,1,05,2.87,160.00,M,-21.3213,M,,*6E
$GPGGA,090219.50,4822.45728458,N,00429.52959103,W,1,05,2.87,160.00,M,-21.3213,M,,*6C
$GPGGA,090220.00,4822.45448309,N,00429.52825847,W,1,05,2.87,160.00,M,-21.3213,M,,*66
$GPGGA,090220.50,4822.45157872,N,00429.52687698,W,1,05,2.87,160.00,M,-21.3213,M,,*65
$GPGGA,090221.00,4822.44877723,N,00429.52554443,W,1,05,2.87,160.00,M,-21.3213,M,,*69
$GPGGA,090221.50,4822.44587286,N,00429.52416294,W,1,05,2.87,160.00,M,-21.3213,M,,*6F
$GPGGA,090222.00,4822.44307137,N,00429.52283039,W,1,05,2.87,160.00,M,-21.3213,M,,*61
$GPGGA,090222.50,4822.44016699,N,00429.52144891,W,1,05,2.87,160.00,M,-21.3213,M,,*66
$GPGGA,090223.00,4822.43726261,N,00429.52006743,W,1,05,2.87,160.00,M,-21.3213,M,,*65
$GPGGA,090223.50,4822.43446113,N,00429.51873489,W,1,05,2.87,160.00,M,-21.3213,M,,*6F
$GPGGA,090224.00,4822.43155675,N,00429.51735341,W,1,05,2.87,160.00,M,-21.3213,M,,*63
$GPGGA,090224.50,4822.42875526,N,00429.51602087,W,1,05,2.87,160.00,M,-21.3213,M,,*65
$GPGGA,090225.00,4822.42585088,N,00429.51463940,W,1,05,2.87,160.00,M,-21.3213,M,,*65
$GPGGA,090225.50,4822.42304939,N,00429.51330687,W,1,05,2.87,160.00,M,-21.3213,M,,*69
$GPGGA,090226.00,4822.42014501,N,00429.51192540,W,1,05,2.87,160.00,M,-21.3213,M,,*68
$GPGGA,090226.50,4822.41734352,N,00429.51059288,W,1,05,2.87,160.00,M,-21.3213,M,,*6E
$GPGGA,090227.00,4822.41443915,N,00429.50921141,W,1,05,2.87,160.00,M,-21.3213,M,,*61
$GPGGA,090227.50,4822.41163766,N,00429.50787888,W,1,05,2.87,160.00,M,-21.3213,M,,*67
$GPGGA,090228.00,4822.40873328,N,00429.50649741,W,1,05,2.87,160.00,M,-21.3213,M,,*63
$GPGGA,090228.50,4822.40593180,N,00429.50516488,W,1,05,2.87,160.00,M,-21.3213,M,,*6A
$GPGGA,090229.00,4822.40302743,N,00429.50378339,W,1,05,2.87,160.00,M,-21.3213,M,,*6A
$GPGGA,090229.50,4822.40012307,N,00429.50240187,W,1,05,2.87,160.00,M,-21.3213,M,,*64
$GPGGA,090230.00,4822.39732162,N,00429.50106924,W,1,05,2.87,160.00,M,-21.3213,M,,*63
$GPGGA,090230.50,4822.39441731,N,00429.49968759,W,1,05,2.87,160.00,M,-21.3213,M,,*6D
$GPGGA,090231.00,4822.39161594,N,00429.49835473,W,1,05,2.87,160.00,M,-21.3213,M,,*61
$GPGGA,090231.50,4822.38871177,N,00429.49697264,W,1,05,2.87,160.00,M,-21.3213,M,,*62
$GPGGA,090232.00,4822.38591065,N,00429.49563906,W,1,05,2.87,160.00,M,-21.3213,M,,*62
$GPGGA,090232.50,4822.38300693,N,00429.49425565,W,1,05,2.87,160.00,M,-21.3213,M,,*6C
$GPGGA,090233.00,4822.38020656,N,00429.49291985,W,1,05,2.87,160.00,M,-21.3213,M,,*6B
$GPGGA,090233.50,4822.37730421,N,00429.49153241,W,1,05,2.87,160.00,M,-21.3213,M,,*6B
$GPGGA,090234.00,4822.37440338,N,00429.49014038,W,1,05,2.87,160.00,M,-21.3213,M,,*6C
$GPGGA,090234.50,4822.37160791,N,00429.48879007,W,1,05,2.87,160.00,M,-21.3213,M,,*67
$GPGGA,090235.00,4822.36871432,N,00429.48737633,W,1,05,2.87,160.00,M,-21.3213,M,,*65
$GPGGA,090235.50,4822.36593098,N,00429.48598951,W,1,05,2.87,160.00,M,-21.3213,M,,*69
$GPGGA,090236.00,4822.36305892,N,00429.48450952,W,1,05,2.87,160.00,M,-21.3213,M,,*62
$GPGGA,090236.50,4822.36021027,N,00429.48295407,W,1,05,2.87,160.00,M,-21.3213,M,,*66
$GPGGA,090237.00,4822.35749930,N,00429.48132886,W,1,05,2.87,160.00,M,-21.3213,M,,*6C
$GPGGA,090237.50,4822.35472971,N,00429.47948885,W,1,05,2.87,160.00,M,-21.3213,M,,*6E
$GPGGA,090238.00,4822.35198436,N,00429.47754969,W,1,05,2.87,160.00,M,-21.3213,M,,*6B
$GPGGA,090238.50,4822.34934890,N,00429.47562509,W,1,05,2.87,160.00,M,-21.3213,M,,*6C
$GPGGA,090239.00,4822.34662372,N,00429.47359740,W,1,05,2.87,160.00,M,-21.3213,M,,*62
$GPGGA,090239.50,4822.34399908,N,00429.47162358,W,1,05,2.87,160.00,M,-21.3213,M,,*66
$GPGGA,090240.00,4822.34128031,N,00429.46956657,W,1,05,2.87,160.00,M,-21.3213,M,,*62
$GPGGA,090240.50,4822.33856287,N,00429.46750333,W,1,05,2.87,160.00,M,-21.3213,M,,*60
$GPGGA,090241.00,4822.33594244,N,00429.46550985,W,1,05,2.87,160.00,M,-21.3213,M,,*6D
$GPGGA,090241.50,4822.33322618,N,00429.46344114,W,1,05,2.87,160.00,M,-21.3213,M,,*6D
$GPGGA,090242.00,4822.33060640,N,00429.46144463,W,1,05,2.87,160.00,M,-21.3213,M,,*64
$GPGGA,090242.50,4822.32789052,N,00429.45937414,W,1,05,2.87,160.00,M,-21.3213,M,,*6A
$GPGGA,090243.00,4822.32527094,N,00429.45737664,W,1,05,2.87,160.00,M,-21.3213,M,,*69
$GPGGA,090243.50,4822.32255519,N,00429.45530556,W,1,05,2.87,160.00,M,-21.3213,M,,*69
$GPGGA,090244.00,4822.31993568,N,00429.45330775,W,1,05,2.87,160.00,M,-21.3213,M,,*6A
$GPGGA,090244.50,4822.31721996,N,00429.45123648,W,1,05,2.87,160.00,M,-21.3213,M,,*6A
$GPGGA,090245.00,4822.31450426,N,00429.44916518,W,1,05,2.87,160.00,M,-21.3213,M,,*64
$GPGGA,090245.50,4822.31188477,N,00429.44716725,W,1,05,2.87,160.00,M,-21.3213,M,,*67
$GPGGA,090246.00,4822.30916908,N,00429.44509592,W,1,05,2.87,160.00,M,-21.3213,M,,*68
$GPGGA,090246.50,4822.30654959,N,00429.44309797,W,1,05,2.87,160.00,M,-21.3213,M,,*61
$GPGGA,090247.00,4822.30383390,N,00429.44102663,W,1,05,2.87,160.00,M,-21.3213,M,,*66
$GPGGA,090247.50,4822.30121441,N,00429.43902868,W,1,05,2.87,160.00,M,-21.3213,M,,*68
$GPGGA,090248.00,4822.29849872,N,00429.43695735,W,1,05,2.87,160.00,M,-21.3213,M,,*67
$GPGGA,090248.50,4822.29587923,N,00429.43495941,W,1,05,2.87,160.00,M,-21.3213,M,,*67
$GPGGA,090249.00,4822.29316353,N,00429.43288808,W,1,05,2.87,160.00,M,-21.3213,M,,*66
$GPGGA,090249.50,4822.29054405,N,00429.43089015,W,1,05,2.87,160.00,M,-21.3213,M,,*65
$GPGGA,090250.00,4822.28782835,N,00429.42881883,W,1,05,2.87,160.00,M,-21.3213,M,,*6C
$GPGGA,090250.50,4822.28511265,N,00429.42674751,W,1,05,2.87,160.00,M,-21.3213,M,,*6A
$GPGGA,090251.00,4822.28249316,N,00429.42474959,W,1,05,2.87,160.00,M,-21.3213,M,,*65
$GPGGA,090251.50,4822.27977746,N,00429.42267828,W,1,05,2.87,160.00,M,-21.3213,M,,*6B
$GPGGA,090252.00,4822.27715797,N,00429.42068036,W,1,05,2.87,160.00,M,-21.3213,M,,*61
$GPGGA,090252.50,4822.27444227,N,00429.41860906,W,1,05,2.87,160.00,M,-21.3213,M,,*64
$GPGGA,090253.00,4822.27182278,N,00429.41661114,W,1,05,2.87,160.00,M,-21.3213,M,,*61
$GPGGA,090253.50,4822.26910708,N,00429.41453985,W,1,05,2.87,160.00,M,-21.3213,M,,*67
$GPGGA,090254.00,4822.26648759,N,00429.41254194,W,1,05,2.87,160.00,M,-21.3213,M,,*6A
$GPGGA,090254.50,4822.26377188,N,00429.41047066,W,1,05,2.87,160.00,M,-21.3213,M,,*60
$GPGGA,090255.00,4822.26115239,N,00429.40847276,W,1,05,2.87,160.00,M,-21.3213,M,,*61
$GPGGA,090255.50,4822.25843668,N,00429.40640148,W,1,05,2.87,160.00,M,-21.3213,M,,*6A
$GPGGA,090256.00,4822.25572098,N,00429.40433020,W,1,05,2.87,160.00,M,-21.3213,M,,*63
$GPGGA,090256.50,4822.25310148,N,00429.40233231,W,1,05,2.87,160.00,M,-21.3213,M,,*6C
$GPGGA,090257.00,4822.25038578,N,00429.40026105,W,1,05,2.87,160.00,M,-21.3213,M,,*64
$GPGGA,090257.50,4822.24776628,N,00429.39826316,W,1,05,2.87,160.00,M,-21.3213,M,,*6D
$GPGGA,090258.00,4822.24505057,N,00429.39619190,W,1,05,2.87,160.00,M,-21.3213,M,,*61
$GPGGA,090258.50,4822.24243108,N,00429.39419403,W,1,05,2.87,160.00,M,-21.3213,M,,*67
$GPGGA,090259.00,4822.23971536,N,00429.39212277,W,1,05,2.87,160.00,M,-21.3213,M,,*6F
$GPGGA,090259.50,4822.23709587,N,00429.39012491,W,1,05,2.87,160.00,M,-21.3213,M,,*6D
$GPGGA,090300.00,4822.23438015,N,00429.38805366,W,1,05,2.87,160.00,M,-21.3213,M,,*6A
$GPGGA,090300.50,4822.23166444,N,00429.38598242,W,1,05,2.87,160.00,M,-21.3213,M,,*6F
$GPGGA,090301.00,4822.22904494,N,00429.38398456,W,1,05,2.87,160.00,M,-21.3213,M,,*6E
$GPGGA,090301.50,4822.22632923,N,00429.38191333,W,1,05,2.87,160.00,M,-21.3213,M,,*6F
$GPGGA,090302.00,4822.22370972,N,00429.37991549,W,1,05,2.87,160.00,M,-21.3213,M,,*62
$GPGGA,090302.50,4822.22099400,N,00429.37784427,W,1,05,2.87,160.00,M,-21.3213,M,,*68
$GPGGA,090303.00,4822.21837450,N,00429.37584645,W,1,05,2.87,160.00,M,-21.3213,M,,*62
$GPGGA,090303.50,4822.21565877,N,00429.37377527,W,1,05,2.87,160.00,M,-21.3213,M,,*69
$GPGGA,090304.00,4822.21303924,N,00429.37177749,W,1,05,2.87,160.00,M,-21.3213,M,,*62
$GPGGA,090304.50,4822.21032349,N,00429.36970640,W,1,05,2.87,160.00,M,-21.3213,M,,*61
$GPGGA,090305.00,4822.20770392,N,00429.36770876,W,1,05,2.87,160.00,M,-21.3213,M,,*66
$GPGGA,090305.50,4822.20498808,N,00429.36563792,W,1,05,2.87,160.00,M,-21.3213,M,,*6B
$GPGGA,090306.00,4822.20227216,N,00429.36356734,W,1,05,2.87,160.00,M,-21.3213,M,,*66
$GPGGA,090306.50,4822.19965231,N,00429.36157059,W,1,05,2.87,160.00,M,-21.3213,M,,*6E
$GPGGA,090307.00,4822.19693597,N,00429.35950132,W,1,05,2.87,160.00,M,-21.3213,M,,*67
$GPGGA,090307.50,4822.19431542,N,00429.35750674,W,1,05,2.87,160.00,M,-21.3213,M,,*6B
$GPGGA,090308.00,4822.19159781,N,00429.35544142,W,1,05,2.87,160.00,M,-21.3213,M,,*62
$GPGGA,090308.50,4822.18897512,N,00429.35345349,W,1,05,2.87,160.00,M,-21.3213,M,,*6B
$GPGGA,090309.00,4822.18625362,N,00429.35140018,W,1,05,2.87,160.00,M,-21.3213,M,,*69
$GPGGA,090309.50,4822.18362442,N,00429.34943222,W,1,05,2.87,160.00,M,-21.3213,M,,*6E
$GPGGA,090310.00,4822.18089404,N,00429.34740599,W,1,05,2.87,160.00,M,-21.3213,M,,*6D
$GPGGA,090310.50,4822.17825771,N,00429.34545968,W,1,05,2.87,160.00,M,-21.3213,M,,*6D
$GPGGA,090311.00,4822.17552294,N,00429.34344670,W,1,05,2.87,160.00,M,-21.3213,M,,*6B
$GPGGA,090311.50,4822.17278723,N,00429.34143651,W,1,05,2.87,160.00,M,-21.3213,M,,*6E
$GPGGA,090312.00,4822.17014795,N,00429.33949906,W,1,05,2.87,160.00,M,-21.3213,M,,*65
$GPGGA,090312.50,4822.16741142,N,00429.33749134,W,1,05,2.87,160.00,M,-21.3213,M,,*6D
$GPGGA,090313.00,4822.16477169,N,00429.33555525,W,1,05,2.87,160.00,M,-21.3213,M,,*6D
$GPGGA,090313.50,4822.16203489,N,00429.33354835,W,1,05,2.87,160.00,M,-21.3213,M,,*6D
$GPGGA,090314.00,4822.15939500,N,00429.33161271,W,1,05,2.87,160.00,M,-21.3213,M,,*60
$GPGGA,090314.50,4822.15665811,N,00429.32960608,W,1,05,2.87,160.00,M,-21.3213,M,,*6C
$GPGGA,090315.00,4822.15401818,N,00429.32767060,W,1,05,2.87,160.00,M,-21.3213,M,,*60
$GPGGA,090315.50,4822.15128126,N,00429.32566406,W,1,05,2.87,160.00,M,-21.3213,M,,*68
$GPGGA,090316.00,4822.14854434,N,00429.32365754,W,1,05,2.87,160.00,M,-21.3213,M,,*6A
$GPGGA,090316.50,4822.14590438,N,00429.32172212,W,1,05,2.87,160.00,M,-21.3213,M,,*65
$GPGGA,090317.00,4822.14316745,N,00429.31971563,W,1,05,2.87,160.00,M,-21.3213,M,,*69
$GPGGA,090317.50,4822.14052748,N,00429.31778023,W,1,05,2.87,160.00,M,-21.3213,M,,*64
$GPGGA,090318.00,4822.13779055,N,00429.31577375,W,1,05,2.87,160.00,M,-21.3213,M,,*61
$GPGGA,090318.50,4822.13515058,N,00429.31383836,W,1,05,2.87,160.00,M,-21.3213,M,,*60
$GPGGA,090319.00,4822.13241365,N,00429.31183189,W,1,05,2.87,160.00,M,-21.3213,M,,*60
$GPGGA,090319.50,4822.12977368,N,00429.30989650,W,1,05,2.87,160.00,M,-21.3213,M,,*67
$GPGGA,090320.00,4822.12703674,N,00429.30789004,W,1,05,2.87,160.00,M,-21.3213,M,,*64
$GPGGA,090320.50,4822.12439677,N,00429.30595466,W,1,05,2.87,160.00,M,-21.3213,M,,*67
$GPGGA,090321.00,4822.12165984,N,00429.30394821,W,1,05,2.87,160.00,M,-21.3213,M,,*64
$GPGGA,090321.50,4822.11892290,N,00429.30194175,W,1,05,2.87,160.00,M,-21.3213,M,,*67
$GPGGA,090322.00,4822.11628293,N,00429.30000639,W,1,05,2.87,160.00,M,-21.3213,M,,*6E
$GPGGA,090322.50,4822.11354599,N,00429.29799994,W,1,05,2.87,160.00,M,-21.3213,M,,*6F
$GPGGA,090323.00,4822.11090602,N,00429.29606458,W,1,05,2.87,160.00,M,-21.3213,M,,*6B
$GPGGA,090323.50,4822.10816908,N,00429.29405814,W,1,05,2.87,160.00,M,-21.3213,M,,*69
$GPGGA,090324.00,4822.10552910,N,00429.29212279,W,1,05,2.87,160.00,M,-21.3213,M,,*6E
$GPGGA,090324.50,4822.10279216,N,00429.29011636,W,1,05,2.87,160.00,M,-21.3213,M,,*66
$GPGGA,090325.00,4822.10015219,N,00429.28818101,W,1,05,2.87,160.00,M,-21.3213,M,,*66
$GPGGA,090325.50,4822.09741524,N,00429.28617458,W,1,05,2.87,160.00,M,-21.3213,M,,*6C
$GPGGA,090326.00,4822.09467830,N,00429.28416816,W,1,05,2.87,160.00,M,-21.3213,M,,*60
$GPGGA,090326.50,4822.09203832,N,00429.28223283,W,1,05,2.87,160.00,M,-21.3213,M,,*65
$GPGGA,090327.00,4822.08930138,N,00429.28022641,W,1,05,2.87,160.00,M,-21.3213,M,,*61
$GPGGA,090327.50,4822.08666140,N,00429.27829108,W,1,05,2.87,160.00,M,-21.3213,M,,*61
$GPGGA,090328.00,4822.08392445,N,00429.27628467,W,1,05,2.87,160.00,M,-21.3213,M,,*66
$GPGGA,090328.50,4822.08128448,N,00429.27434936,W,1,05,2.87,160.00,M,-21.3213,M,,*6B
$GPGGA,090329.00,4822.07854753,N,00429.27234295,W,1,05,2.87,160.00,M,-21.3213,M,,*6F
$GPGGA,090329.50,4822.07590755,N,00429.27040764,W,1,05,2.87,160.00,M,-21.3213,M,,*63
$GPGGA,090330.00,4822.07317060,N,00429.26840124,W,1,05,2.87,160.00,M,-21.3213,M,,*6D
$GPGGA,090330.50,4822.07053062,N,00429.26646594,W,1,05,2.87,160.00,M,-21.3213,M,,*6E
$GPGGA,090331.00,4822.06779367,N,00429.26445955,W,1,05,2.87,160.00,M,-21.3213,M,,*62
$GPGGA,090331.50,4822.06505672,N,00429.26245317,W,1,05,2.87,160.00,M,-21.3213,M,,*65
$GPGGA,090332.00,4822.06241674,N,00429.26051787,W,1,05,2.87,160.00,M,-21.3213,M,,*68
$GPGGA,090332.50,4822.05967979,N,00429.25851149,W,1,05,2.87,160.00,M,-21.3213,M,,*6C
$GPGGA,090333.00,4822.05703980,N,00429.25657621,W,1,05,2.87,160.00,M,-21.3213,M,,*63
$GPGGA,090333.50,4822.05430285,N,00429.25456984,W,1,05,2.87,160.00,M,-21.3213,M,,*68
$GPGGA,090334.00,4822.05166287,N,00429.25263456,W,1,05,2.87,160.00,M,-21.3213,M,,*6C
$GPGGA,090334.50,4822.04892591,N,00429.25062821,W,1,05,2.87,160.00,M,-21.3213,M,,*65
$GPGGA,090335.00,4822.04628593,N,00429.24869295,W,1,05,2.87,160.00,M,-21.3213,M,,*6B
$GPGGA,090335.50,4822.04354897,N,00429.24668662,W,1,05,2.87,160.00,M,-21.3213,M,,*6A
$GPGGA,090336.00,4822.04081202,N,00429.24468032,W,1,05,2.87,160.00,M,-21.3213,M,,*60
$GPGGA,090336.50,4822.03817204,N,00429.24274514,W,1,05,2.87,160.00,M,-21.3213,M,,*69
$GPGGA,090337.00,4822.03543509,N,00429.24073895,W,1,05,2.87,160.00,M,-21.3213,M,,*6A
$GPGGA,090337.50,4822.03279511,N,00429.23880396,W,1,05,2.87,160.00,M,-21.3213,M,,*63
$GPGGA,090338.00,4822.03005818,N,00429.23679810,W,1,05,2.87,160.00,M,-21.3213,M,,*69
$GPGGA,090338.50,4822.02741824,N,00429.23486366,W,1,05,2.87,160.00,M,-21.3213,M,,*6D
$GPGGA,090339.00,4822.02468136,N,00429.23285879,W,1,05,2.87,160.00,M,-21.3213,M,,*6B
$GPGGA,090339.50,4822.02204151,N,00429.23092602,W,1,05,2.87,160.00,M,-21.3213,M,,*65
$GPGGA,090340.00,4822.01930479,N,00429.22892417,W,1,05,2.87,160.00,M,-21.3213,M,,*61
$GPGGA,090340.50,4822.01656824,N,00429.22692571,W,1,05,2.87,160.00,M,-21.3213,M,,*60
$GPGGA,090341.00,4822.01392901,N,00429.22500375,W,1,05,2.87,160.00,M,-21.3213,M,,*65
$GPGGA,090341.50,4822.01119330,N,00429.22302137,W,1,05,2.87,160.00,M,-21.3213,M,,*69
$GPGGA,090342.00,4822.00855563,N,00429.22112648,W,1,05,2.87,160.00,M,-21.3213,M,,*63
$GPGGA,090342.50,4822.00582242,N,00429.21919270,W,1,05,2.87,160.00,M,-21.3213,M,,*6A
$GPGGA,090343.00,4822.00309174,N,00429.21731329,W,1,05,2.87,160.00,M,-21.3213,M,,*64
$GPGGA,090343.50,4822.00036501,N,00429.21552795,W,1,05,2.87,160.00,M,-21.3213,M,,*6C
$GPGGA,090344.00,4821.99754483,N,00429.21384838,W,1,05,2.87,160.00,M,-21.3213,M,,*60
$GPGGA,090344.50,4821.99472536,N,00429.21246159,W,1,05,2.87,160.00,M,-21.3213,M,,*6C
$GPGGA,090345.00,4821.99177980,N,00429.21154254,W,1,05,2.87,160.00,M,-21.3213,M,,*67
$GPGGA,090345.50,4821.98875281,N,00429.21125102,W,1,05,2.87,160.00,M,-21.3213,M,,*64
$GPGGA,090346.00,4821.98575243,N,00429.21134555,W,1,05,2.87,160.00,M,-21.3213,M,,*67
$GPGGA,090346.50,4821.98280602,N,00429.21164091,W,1,05,2.87,160.00,M,-21.3213,M,,*66
$GPGGA,090347.00,4821.97982802,N,00429.21205325,W,1,05,2.87,160.00,M,-21.3213,M,,*62
$GPGGA,090347.50,4821.97683122,N,00429.21253341,W,1,05,2.87,160.00,M,-21.3213,M,,*63
$GPGGA,090348.00,4821.97382346,N,00429.21305255,W,1,05,2.87,160.00,M,-21.3213,M,,*6B
$GPGGA,090348.50,4821.97091636,N,00429.21357449,W,1,05,2.87,160.00,M,-21.3213,M,,*61
$GPGGA,090349.00,4821.96789866,N,00429.21412825,W,1,05,2.87,160.00,M,-21.3213,M,,*61
$GPGGA,090349.50,4821.96487887,N,00429.21468938,W,1,05,2.87,160.00,M,-21.3213,M,,*66
$GPGGA,090350.00,4821.96196494,N,00429.21523459,W,1,05,2.87,160.00,M,-21.3213,M,,*64
$GPGGA,090350.50,4821.95894327,N,00429.21580220,W,1,05,2.87,160.00,M,-21.3213,M,,*67
$GPGGA,090351.00,4821.95602829,N,00429.21635101,W,1,05,2.87,160.00,M,-21.3213,M,,*6A
$GPGGA,090351.50,4821.95300600,N,00429.21692074,W,1,05,2.87,160.00,M,-21.3213,M,,*63
$GPGGA,090352.00,4821.95009067,N,00429.21747073,W,1,05,2.87,160.00,M,-21.3213,M,,*66
$GPGGA,090352.50,4821.94706818,N,00429.21804116,W,1,05,2.87,160.00,M,-21.3213,M,,*60
$GPGGA,090353.00,4821.94404566,N,00429.21861174,W,1,05,2.87,160.00,M,-21.3213,M,,*66
$GPGGA,090353.50,4821.94113018,N,00429.21916219,W,1,05,2.87,160.00,M,-21.3213,M,,*65
$GPGGA,090354.00,4821.93810762,N,00429.21973289,W,1,05,2.87,160.00,M,-21.3213,M,,*6A
$GPGGA,090354.50,4821.93519212,N,00429.22028341,W,1,05,2.87,160.00,M,-21.3213,M,,*68
$GPGGA,090355.00,4821.93216955,N,00429.22085416,W,1,05,2.87,160.00,M,-21.3213,M,,*6E
$GPGGA,090355.50,4821.92925405,N,00429.22140470,W,1,05,2.87,160.00,M,-21.3213,M,,*61
$GPGGA,090356.00,4821.92623146,N,00429.22197546,W,1,05,2.87,160.00,M,-21.3213,M,,*62
$GPGGA,090356.50,4821.92331596,N,00429.22252600,W,1,05,2.87,160.00,M,-21.3213,M,,*63
$GPGGA,090357.00,4821.92029337,N,00429.22309676,W,1,05,2.87,160.00,M,-21.3213,M,,*6E
$GPGGA,090357.50,4821.91737787,N,00429.22364730,W,1,05,2.87,160.00,M,-21.3213,M,,*67
$GPGGA,090358.00,4821.91435529,N,00429.22421807,W,1,05,2.87,160.00,M,-21.3213,M,,*67
$GPGGA,090358.50,4821.91133270,N,00429.22478883,W,1,05,2.87,160.00,M,-21.3213,M,,*6A
$GPGGA,090359.00,4821.90841720,N,00429.22533937,W,1,05,2.87,160.00,M,-21.3213,M,,*63
$GPGGA,090359.50,4821.90539461,N,00429.22591013,W,1,05,2.87,160.00,M,-21.3213,M,,*65
$GPGGA,090400.00,4821.90247911,N,00429.22646067,W,1,05,2.87,160.00,M,-21.3213,M,,*65
$GPGGA,090400.50,4821.89945652,N,00429.22703142,W,1,05,2.87,160.00,M,-21.3213,M,,*6F
$GPGGA,090401.00,4821.89654101,N,00429.22758196,W,1,05,2.87,160.00,M,-21.3213,M,,*62
$GPGGA,090401.50,4821.89351843,N,00429.22815272,W,1,05,2.87,160.00,M,-21.3213,M,,*67
$GPGGA,090402.00,4821.89060292,N,00429.22870325,W,1,05,2.87,160.00,M,-21.3213,M,,*66
$GPGGA,090402.50,4821.88758034,N,00429.22927400,W,1,05,2.87,160.00,M,-21.3213,M,,*63
$GPGGA,090403.00,4821.88466483,N,00429.22982454,W,1,05,2.87,160.00,M,-21.3213,M,,*6F
$GPGGA,090403.50,4821.88164225,N,00429.23039529,W,1,05,2.87,160.00,M,-21.3213,M,,*64
$GPGGA,090404.00,4821.87861966,N,00429.23096604,W,1,05,2.87,160.00,M,-21.3213,M,,*60
$GPGGA,090404.50,4821.87570415,N,00429.23151657,W,1,05,2.87,160.00,M,-21.3213,M,,*6D
$GPGGA,090405.00,4821.87268157,N,00429.23208731,W,1,05,2.87,160.00,M,-21.3213,M,,*6A
$GPGGA,090405.50,4821.86976606,N,00429.23263784,W,1,05,2.87,160.00,M,-21.3213,M,,*6A
$GPGGA,090406.00,4821.86674347,N,00429.23320859,W,1,05,2.87,160.00,M,-21.3213,M,,*68
$GPGGA,090406.50,4821.86382797,N,00429.23375911,W,1,05,2.87,160.00,M,-21.3213,M,,*65
$GPGGA,090407.00,4821.86080538,N,00429.23432985,W,1,05,2.87,160.00,M,-21.3213,M,,*6E
$GPGGA,090407.50,4821.85788988,N,00429.23488038,W,1,05,2.87,160.00,M,-21.3213,M,,*6E
$GPGGA,090408.00,4821.85486729,N,00429.23545112,W,1,05,2.87,160.00,M,-21.3213,M,,*65
$GPGGA,090408.50,4821.85195178,N,00429.23600164,W,1,05,2.87,160.00,M,-21.3213,M,,*66
$GPGGA,090409.00,4821.84892919,N,00429.23657238,W,1,05,2.87,160.00,M,-21.3213,M,,*6A
$GPGGA,090409.50,4821.84590661,N,00429.23714312,W,1,05,2.87,160.00,M,-21.3213,M,,*6F
$GPGGA,090410.00,4821.84299110,N,00429.23769363,W,1,05,2.87,160.00,M,-21.3213,M,,*61
$GPGGA,090410.50,4821.83996851,N,00429.23826437,W,1,05,2.87,160.00,M,-21.3213,M,,*69
$GPGGA,090411.00,4821.83705301,N,00429.23881488,W,1,05,2.87,160.00,M,-21.3213,M,,*6E
$GPGGA,090411.50,4821.83403042,N,00429.23938562,W,1,05,2.87,160.00,M,-21.3213,M,,*6C
$GPGGA,090412.00,4821.83111491,N,00429.23993613,W,1,05,2.87,160.00,M,-21.3213,M,,*62
$GPGGA,090412.50,4821.82809232,N,00429.24050686,W,1,05,2.87,160.00,M,-21.3213,M,,*64
$GPGGA,090413.00,4821.82517682,N,00429.24105737,W,1,05,2.87,160.00,M,-21.3213,M,,*67
$GPGGA,090413.50,4821.82215423,N,00429.24162810,W,1,05,2.87,160.00,M,-21.3213,M,,*65
$GPGGA,090414.00,4821.81923872,N,00429.24217861,W,1,05,2.87,160.00,M,-21.3213,M,,*65
$GPGGA,090414.50,4821.81621613,N,00429.24274934,W,1,05,2.87,160.00,M,-21.3213,M,,*60
$GPGGA,090415.00,4821.81319354,N,00429.24332006,W,1,05,2.87,160.00,M,-21.3213,M,,*67
$GPGGA,090415.50,4821.81027804,N,00429.24387057,W,1,05,2.87,160.00,M,-21.3213,M,,*68
$GPGGA,090416.00,4821.80725545,N,00429.24444129,W,1,05,2.87,160.00,M,-21.3213,M,,*62
$GPGGA,090416.50,4821.80433994,N,00429.24499180,W,1,05,2.87,160.00,M,-21.3213,M,,*60
$GPGGA,090417.00,4821.80131735,N,00429.24556252,W,1,05,2.87,160.00,M,-21.3213,M,,*68
$GPGGA,090417.50,4821.79840185,N,00429.24611302,W,1,05,2.87,160.00,M,-21.3213,M,,*6D
$GPGGA,090418.00,4821.79537926,N,00429.24668374,W,1,05,2.87,160.00,M,-21.3213,M,,*64
$GPGGA,090418.50,4821.79246375,N,00429.24723424,W,1,05,2.87,160.00,M,-21.3213,M,,*60
$GPGGA,090419.00,4821.78944116,N,00429.24780495,W,1,05,2.87,160.00,M,-21.3213,M,,*68
$GPGGA,090419.50,4821.78641857,N,00429.24837567,W,1,05,2.87,160.00,M,-21.3213,M,,*64
$GPGGA,090420.00,4821.78350306,N,00429.24892616,W,1,05,2.87,160.00,M,-21.3213,M,,*6B
$GPGGA,090420.50,4821.78048047,N,00429.24949688,W,1,05,2.87,160.00,M,-21.3213,M,,*62
$GPGGA,090421.00,4821.77756496,N,00429.25004737,W,1,05,2.87,160.00,M,-21.3213,M,,*6D
$GPGGA,090421.50,4821.77454237,N,00429.25061808,W,1,05,2.87,160.00,M,-21.3213,M,,*64
$GPGGA,090422.00,4821.77162687,N,00429.25116857,W,1,05,2.87,160.00,M,-21.3213,M,,*66
$GPGGA,090422.50,4821.76860428,N,00429.25173928,W,1,05,2.87,160.00,M,-21.3213,M,,*64
$GPGGA,090423.00,4821.76568877,N,00429.25228977,W,1,05,2.87,160.00,M,-21.3213,M,,*64
$GPGGA,090423.50,4821.76266618,N,00429.25286048,W,1,05,2.87,160.00,M,-21.3213,M,,*6E
$GPGGA,090424.00,4821.75975067,N,00429.25341097,W,1,05,2.87,160.00,M,-21.3213,M,,*60
$GPGGA,090424.50,4821.75672808,N,00429.25398167,W,1,05,2.87,160.00,M,-21.3213,M,,*66
$GPGGA,090425.00,4821.75370549,N,00429.25455238,W,1,05,2.87,160.00,M,-21.3213,M,,*62
$GPGGA,090425.50,4821.75078998,N,00429.25510286,W,1,05,2.87,160.00,M,-21.3213,M,,*69
$GPGGA,090426.00,4821.74776739,N,00429.25567356,W,1,05,2.87,160.00,M,-21.3213,M,,*6E
$GPGGA,090426.50,4821.74485188,N,00429.25622405,W,1,05,2.87,160.00,M,-21.3213,M,,*6B
$GPGGA,090427.00,4821.74182929,N,00429.25679475,W,1,05,2.87,160.00,M,-21.3213,M,,*67
$GPGGA,090427.50,4821.73891379,N,00429.25734523,W,1,05,2.87,160.00,M,-21.3213,M,,*6B
$GPGGA,090428.00,4821.73589120,N,00429.25791593,W,1,05,2.87,160.00,M,-21.3213,M,,*6F
$GPGGA,090428.50,4821.73297570,N,00429.25846642,W,1,05,2.87,160.00,M,-21.3213,M,,*69
$GPGGA,090429.00,4821.72995312,N,00429.25903713,W,1,05,2.87,160.00,M,-21.3213,M,,*62
$GPGGA,090429.50,4821.72703764,N,00429.25958764,W,1,05,2.87,160.00,M,-21.3213,M,,*6D
$GPGGA,090430.00,4821.72401509,N,00429.26015839,W,1,05,2.87,160.00,M,-21.3213,M,,*6C
$GPGGA,090430.50,4821.72099258,N,00429.26072917,W,1,05,2.87,160.00,M,-21.3213,M,,*63
$GPGGA,090431.00,4821.71807721,N,00429.26127981,W,1,05,2.87,160.00,M,-21.3213,M,,*6E
$GPGGA,090431.50,4821.71505486,N,00429.26185079,W,1,05,2.87,160.00,M,-21.3213,M,,*6C
$GPGGA,090432.00,4821.71213976,N,00429.26240175,W,1,05,2.87,160.00,M,-21.3213,M,,*6F
$GPGGA,090432.50,4821.70911791,N,00429.26297334,W,1,05,2.87,160.00,M,-21.3213,M,,*68
$GPGGA,090433.00,4821.70620366,N,00429.26352530,W,1,05,2.87,160.00,M,-21.3213,M,,*67
$GPGGA,090433.50,4821.70318332,N,00429.26409871,W,1,05,2.87,160.00,M,-21.3213,M,,*6C
$GPGGA,090434.00,4821.70027167,N,00429.26465375,W,1,05,2.87,160.00,M,-21.3213,M,,*66
$GPGGA,090434.50,4821.69725594,N,00429.26523272,W,1,05,2.87,160.00,M,-21.3213,M,,*63
$GPGGA,090435.00,4821.69424541,N,00429.26581801,W,1,05,2.87,160.00,M,-21.3213,M,,*6B
$GPGGA,090435.50,4821.69135049,N,00429.26639291,W,1,05,2.87,160.00,M,-21.3213,M,,*65
$GPGGA,090436.00,4821.68836451,N,00429.26700776,W,1,05,2.87,160.00,M,-21.3213,M,,*62
$GPGGA,090436.50,4821.68540591,N,00429.26765571,W,1,05,2.87,160.00,M,-21.3213,M,,*60
$GPGGA,090437.00,4821.68239058,N,00429.26838772,W,1,05,2.87,160.00,M,-21.3213,M,,*6B
$GPGGA,090437.50,4821.67946071,N,00429.26922651,W,1,05,2.87,160.00,M,-21.3213,M,,*63
$GPGGA,090438.00,4821.67657699,N,00429.27028693,W,1,05,2.87,160.00,M,-21.3213,M,,*6A
$GPGGA,090438.50,4821.67375405,N,00429.27178990,W,1,05,2.87,160.00,M,-21.3213,M,,*65
$GPGGA,090439.00,4821.67115583,N,00429.27413840,W,1,05,2.87,160.00,M,-21.3213,M,,*6E
$GPGGA,090439.50,4821.66904550,N,00429.27720921,W,1,05,2.87,160.00,M,-21.3213,M,,*69
$GPGGA,090440.00,4821.66714607,N,00429.28074546,W,1,05,2.87,160.00,M,-21.3213,M,,*68
$GPGGA,090440.50,4821.66543945,N,00429.28436518,W,1,05,2.87,160.00,M,-21.3213,M,,*6D
$GPGGA,090441.00,4821.66376847,N,00429.28817133,W,1,05,2.87,160.00,M,-21.3213,M,,*68
$GPGGA,090441.50,4821.66217487,N,00429.29194960,W,1,05,2.87,160.00,M,-21.3213,M,,*66
$GPGGA,090442.00,4821.66059204,N,00429.29578759,W,1,05,2.87,160.00,M,-21.3213,M,,*67
$GPGGA,090442.50,4821.65901541,N,00429.29965992,W,1,05,2.87,160.00,M,-21.3213,M,,*6A
$GPGGA,090443.00,4821.65749812,N,00429.30341355,W,1,05,2.87,160.00,M,-21.3213,M,,*62
$GPGGA,090443.50,4821.65592697,N,00429.30731652,W,1,05,2.87,160.00,M,-21.3213,M,,*61
$GPGGA,090444.00,4821.65435700,N,00429.31122597,W,1,05,2.87,160.00,M,-21.3213,M,,*6F
$GPGGA,090444.50,4821.65284330,N,00429.31500037,W,1,05,2.87,160.00,M,-21.3213,M,,*6A
$GPGGA,090445.00,4821.65127435,N,00429.31891555,W,1,05,2.87,160.00,M,-21.3213,M,,*62
$GPGGA,090445.50,4821.64976121,N,00429.32269315,W,1,05,2.87,160.00,M,-21.3213,M,,*66
$GPGGA,090446.00,4821.64819259,N,00429.32661022,W,1,05,2.87,160.00,M,-21.3213,M,,*6F
$GPGGA,090446.50,4821.64662405,N,00429.33052767,W,1,05,2.87,160.00,M,-21.3213,M,,*66
$GPGGA,090447.00,4821.64511112,N,00429.33430654,W,1,05,2.87,160.00,M,-21.3213,M,,*67
$GPGGA,090447.50,4821.64354263,N,00429.33822434,W,1,05,2.87,160.00,M,-21.3213,M,,*6B
$GPGGA,090448.00,4821.64202973,N,00429.34200339,W,1,05,2.87,160.00,M,-21.3213,M,,*6E
$GPGGA,090448.50,4821.64046126,N,00429.34592130,W,1,05,2.87,160.00,M,-21.3213,M,,*66
$GPGGA,090449.00,4821.63894836,N,00429.34970041,W,1,05,2.87,160.00,M,-21.3213,M,,*6D
$GPGGA,090449.50,4821.63737990,N,00429.35361834,W,1,05,2.87,160.00,M,-21.3213,M,,*62
$GPGGA,090450.00,4821.63586700,N,00429.35739747,W,1,05,2.87,160.00,M,-21.3213,M,,*62
$GPGGA,090450.50,4821.63429853,N,00429.36131541,W,1,05,2.87,160.00,M,-21.3213,M,,*63
$GPGGA,090451.00,4821.63278563,N,00429.36509453,W,1,05,2.87,160.00,M,-21.3213,M,,*66
$GPGGA,090451.50,4821.63121716,N,00429.36901247,W,1,05,2.87,160.00,M,-21.3213,M,,*6B
$GPGGA,090452.00,4821.62964868,N,00429.37293041,W,1,05,2.87,160.00,M,-21.3213,M,,*66
$GPGGA,090452.50,4821.62813578,N,00429.37670952,W,1,05,2.87,160.00,M,-21.3213,M,,*6C
$GPGGA,090453.00,4821.62656730,N,00429.38062745,W,1,05,2.87,160.00,M,-21.3213,M,,*6B
$GPGGA,090453.50,4821.62505439,N,00429.38440656,W,1,05,2.87,160.00,M,-21.3213,M,,*66
$GPGGA,090454.00,4821.62348591,N,00429.38832448,W,1,05,2.87,160.00,M,-21.3213,M,,*6C
$GPGGA,090454.50,4821.62197299,N,00429.39210358,W,1,05,2.87,160.00,M,-21.3213,M,,*6B
$GPGGA,090455.00,4821.62040451,N,00429.39602149,W,1,05,2.87,160.00,M,-21.3213,M,,*63
$GPGGA,090455.50,4821.61889159,N,00429.39980058,W,1,05,2.87,160.00,M,-21.3213,M,,*61
$GPGGA,090456.00,4821.61732310,N,00429.40371848,W,1,05,2.87,160.00,M,-21.3213,M,,*64
$GPGGA,090456.50,4821.61575460,N,00429.40763638,W,1,05,2.87,160.00,M,-21.3213,M,,*6E
$GPGGA,090457.00,4821.61424168,N,00429.41141547,W,1,05,2.87,160.00,M,-21.3213,M,,*6E
$GPGGA,090457.50,4821.61267318,N,00429.41533336,W,1,05,2.87,160.00,M,-21.3213,M,,*6E
$GPGGA,090458.00,4821.61116025,N,00429.41911243,W,1,05,2.87,160.00,M,-21.3213,M,,*63
$GPGGA,090458.50,4821.60959175,N,00429.42303032,W,1,05,2.87,160.00,M,-21.3213,M,,*6E
$GPGGA,090459.00,4821.60807881,N,00429.42680938,W,1,05,2.87,160.00,M,-21.3213,M,,*6F
$GPGGA,090459.50,4821.60651031,N,00429.43072726,W,1,05,2.87,160.00,M,-21.3213,M,,*6F
$GPGGA,090500.00,4821.60499737,N,00429.43450632,W,1,05,2.87,160.00,M,-21.3213,M,,*60
$GPGGA,090500.50,4821.60342886,N,00429.43842419,W,1,05,2.87,160.00,M,-21.3213,M,,*65
$GPGGA,090501.00,4821.60186034,N,00429.44234205,W,1,05,2.87,160.00,M,-21.3213,M,,*6D
$GPGGA,090501.50,4821.60034740,N,00429.44612110,W,1,05,2.87,160.00,M,-21.3213,M,,*63
$GPGGA,090502.00,4821.59877888,N,00429.45003895,W,1,05,2.87,160.00,M,-21.3213,M,,*68
$GPGGA,090502.50,4821.59726593,N,00429.45381799,W,1,05,2.87,160.00,M,-21.3213,M,,*6B
$GPGGA,090503.00,4821.59569741,N,00429.45773584,W,1,05,2.87,160.00,M,-21.3213,M,,*6C
$GPGGA,090503.50,4821.59418446,N,00429.46151488,W,1,05,2.87,160.00,M,-21.3213,M,,*62
$GPGGA,090504.00,4821.59261593,N,00429.46543272,W,1,05,2.87,160.00,M,-21.3213,M,,*65
$GPGGA,090504.50,4821.59110298,N,00429.46921174,W,1,05,2.87,160.00,M,-21.3213,M,,*64
$GPGGA,090505.00,4821.58953444,N,00429.47312957,W,1,05,2.87,160.00,M,-21.3213,M,,*6B
$GPGGA,090505.50,4821.58802148,N,00429.47690859,W,1,05,2.87,160.00,M,-21.3213,M,,*62
$GPGGA,090506.00,4821.58645295,N,00429.48082642,W,1,05,2.87,160.00,M,-21.3213,M,,*64
$GPGGA,090506.50,4821.58488441,N,00429.48474424,W,1,05,2.87,160.00,M,-21.3213,M,,*62
$GPGGA,090507.00,4821.58337144,N,00429.48852324,W,1,05,2.87,160.00,M,-21.3213,M,,*6A
$GPGGA,090507.50,4821.58180290,N,00429.49244106,W,1,05,2.87,160.00,M,-21.3213,M,,*65
$GPGGA,090508.00,4821.58028993,N,00429.49622005,W,1,05,2.87,160.00,M,-21.3213,M,,*62
$GPGGA,090508.50,4821.57872138,N,00429.50013786,W,1,05,2.87,160.00,M,-21.3213,M,,*66
$GPGGA,090509.00,4821.57720841,N,00429.50391685,W,1,05,2.87,160.00,M,-21.3213,M,,*66
$GPGGA,090509.50,4821.57563985,N,00429.50783465,W,1,05,2.87,160.00,M,-21.3213,M,,*64
$GPGGA,090510.00,4821.57412687,N,00429.51161363,W,1,05,2.87,160.00,M,-21.3213,M,,*69
$GPGGA,090510.50,4821.57255832,N,00429.51553142,W,1,05,2.87,160.00,M,-21.3213,M,,*6D
$GPGGA,090511.00,4821.57098976,N,00429.51944921,W,1,05,2.87,160.00,M,-21.3213,M,,*6C
$GPGGA,090511.50,4821.56947677,N,00429.52322818,W,1,05,2.87,160.00,M,-21.3213,M,,*6F
$GPGGA,090512.00,4821.56790821,N,00429.52714596,W,1,05,2.87,160.00,M,-21.3213,M,,*6A
$GPGGA,090512.50,4821.56639522,N,00429.53092492,W,1,05,2.87,160.00,M,-21.3213,M,,*6E
$GPGGA,090513.00,4821.56482665,N,00429.53484269,W,1,05,2.87,160.00,M,-21.3213,M,,*69
$GPGGA,090513.50,4821.56331366,N,00429.53862165,W,1,05,2.87,160.00,M,-21.3213,M,,*6E
$GPGGA,090514.00,4821.56174509,N,00429.54253941,W,1,05,2.87,160.00,M,-21.3213,M,,*61
$GPGGA,090514.50,4821.56023209,N,00429.54631836,W,1,05,2.87,160.00,M,-21.3213,M,,*61
$GPGGA,090515.00,4821.55866352,N,00429.55023611,W,1,05,2.87,160.00,M,-21.3213,M,,*6F
$GPGGA,090515.50,4821.55709494,N,00429.55415386,W,1,05,2.87,160.00,M,-21.3213,M,,*6B
$GPGGA,090516.00,4821.55558193,N,00429.55793280,W,1,05,2.87,160.00,M,-21.3213,M,,*63
$GPGGA,090516.50,4821.55401335,N,00429.56185054,W,1,05,2.87,160.00,M,-21.3213,M,,*6C
$GPGGA,090517.00,4821.55250034,N,00429.56562947,W,1,05,2.87,160.00,M,-21.3213,M,,*6E
$GPGGA,090517.50,4821.55093175,N,00429.56954721,W,1,05,2.87,160.00,M,-21.3213,M,,*65
$GPGGA,090518.00,4821.54941874,N,00429.57332613,W,1,05,2.87,160.00,M,-21.3213,M,,*6B
$GPGGA,090518.50,4821.54785015,N,00429.57724385,W,1,05,2.87,160.00,M,-21.3213,M,,*6E
$GPGGA,090519.00,4821.54633713,N,00429.58102277,W,1,05,2.87,160.00,M,-21.3213,M,,*66
$GPGGA,090519.50,4821.54476854,N,00429.58494049,W,1,05,2.87,160.00,M,-21.3213,M,,*69
$GPGGA,090520.00,4821.54325551,N,00429.58871940,W,1,05,2.87,160.00,M,-21.3213,M,,*68
$GPGGA,090520.50,4821.54168691,N,00429.59263711,W,1,05,2.87,160.00,M,-21.3213,M,,*6B
$GPGGA,090521.00,4821.54011831,N,00429.59655481,W,1,05,2.87,160.00,M,-21.3213,M,,*6F
$GPGGA,090521.50,4821.53860528,N,00429.60033371,W,1,05,2.87,160.00,M,-21.3213,M,,*62
$GPGGA,090522.00,4821.53703668,N,00429.60425141,W,1,05,2.87,160.00,M,-21.3213,M,,*6B
$GPGGA,090522.50,4821.53552365,N,00429.60803030,W,1,05,2.87,160.00,M,-21.3213,M,,*6F
$GPGGA,090523.00,4821.53395503,N,00429.61194799,W,1,05,2.87,160.00,M,-21.3213,M,,*62
$GPGGA,090523.50,4821.53244200,N,00429.61572687,W,1,05,2.87,160.00,M,-21.3213,M,,*6C
$GPGGA,090524.00,4821.53087338,N,00429.61964455,W,1,05,2.87,160.00,M,-21.3213,M,,*6F
$GPGGA,090524.50,4821.52936034,N,00429.62342342,W,1,05,2.87,160.00,M,-21.3213,M,,*6B
$GPGGA,090525.00,4821.52779172,N,00429.62734110,W,1,05,2.87,160.00,M,-21.3213,M,,*69
$GPGGA,090525.50,4821.52622310,N,00429.63125877,W,1,05,2.87,160.00,M,-21.3213,M,,*6A
$GPGGA,090526.00,4821.52471005,N,00429.63503763,W,1,05,2.87,160.00,M,-21.3213,M,,*65
$GPGGA,090526.50,4821.52314143,N,00429.63895530,W,1,05,2.87,160.00,M,-21.3213,M,,*61
$GPGGA,090527.00,4821.52162837,N,00429.64273415,W,1,05,2.87,160.00,M,-21.3213,M,,*6F
$GPGGA,090527.50,4821.52005974,N,00429.64665181,W,1,05,2.87,160.00,M,-21.3213,M,,*67
$GPGGA,090528.00,4821.51854669,N,00429.65043065,W,1,05,2.87,160.00,M,-21.3213,M,,*69
$GPGGA,090528.50,4821.51697805,N,00429.65434830,W,1,05,2.87,160.00,M,-21.3213,M,,*65
$GPGGA,090529.00,4821.51546499,N,00429.65812714,W,1,05,2.87,160.00,M,-21.3213,M,,*66
$GPGGA,090529.50,4821.51389635,N,00429.66204478,W,1,05,2.87,160.00,M,-21.3213,M,,*65
$GPGGA,090530.00,4821.51232771,N,00429.66596242,W,1,05,2.87,160.00,M,-21.3213,M,,*6B
$GPGGA,090530.50,4821.51081464,N,00429.66974124,W,1,05,2.87,160.00,M,-21.3213,M,,*60
$GPGGA,090531.00,4821.50924600,N,00429.67365887,W,1,05,2.87,160.00,M,-21.3213,M,,*68
$GPGGA,090531.50,4821.50773293,N,00429.67743769,W,1,05,2.87,160.00,M,-21.3213,M,,*60
$GPGGA,090532.00,4821.50616428,N,00429.68135531,W,1,05,2.87,160.00,M,-21.3213,M,,*65
$GPGGA,090532.50,4821.50465120,N,00429.68513412,W,1,05,2.87,160.00,M,-21.3213,M,,*6B
$GPGGA,090533.00,4821.50308255,N,00429.68905174,W,1,05,2.87,160.00,M,-21.3213,M,,*6C
$GPGGA,090533.50,4821.50156947,N,00429.69283054,W,1,05,2.87,160.00,M,-21.3213,M,,*6F
$GPGGA,090534.00,4821.50000081,N,00429.69674815,W,1,05,2.87,160.00,M,-21.3213,M,,*6D
$GPGGA,090534.50,4821.49848773,N,00429.70052694,W,1,05,2.87,160.00,M,-21.3213,M,,*63
$GPGGA,090535.00,4821.49691906,N,00429.70444454,W,1,05,2.87,160.00,M,-21.3213,M,,*6C
$GPGGA,090535.50,4821.49535040,N,00429.70836213,W,1,05,2.87,160.00,M,-21.3213,M,,*63
$GPGGA,090536.00,4821.49383731,N,00429.71214092,W,1,05,2.87,160.00,M,-21.3213,M,,*6F
$GPGGA,090536.50,4821.49226864,N,00429.71605850,W,1,05,2.87,160.00,M,-21.3213,M,,*69
$GPGGA,090537.00,4821.49075554,N,00429.71983728,W,1,05,2.87,160.00,M,-21.3213,M,,*66
$GPGGA,090537.50,4821.48918687,N,00429.72375486,W,1,05,2.87,160.00,M,-21.3213,M,,*6A
$GPGGA,090538.00,4821.48767377,N,00429.72753363,W,1,05,2.87,160.00,M,-21.3213,M,,*60
$GPGGA,090538.50,4821.48610509,N,00429.73145120,W,1,05,2.87,160.00,M,-21.3213,M,,*6E
$GPGGA,090539.00,4821.48459199,N,00429.73522996,W,1,05,2.87,160.00,M,-21.3213,M,,*68
$GPGGA,090539.50,4821.48302330,N,00429.73914752,W,1,05,2.87,160.00,M,-21.3213,M,,*6A
$GPGGA,090540.00,4821.48145462,N,00429.74306508,W,1,05,2.87,160.00,M,-21.3213,M,,*63
$GPGGA,090540.50,4821.47994151,N,00429.74684383,W,1,05,2.87,160.00,M,-21.3213,M,,*62
$GPGGA,090541.00,4821.47837282,N,00429.75076138,W,1,05,2.87,160.00,M,-21.3213,M,,*6B
$GPGGA,090541.50,4821.47685971,N,00429.75454012,W,1,05,2.87,160.00,M,-21.3213,M,,*63
$GPGGA,090542.00,4821.47529101,N,00429.75845767,W,1,05,2.87,160.00,M,-21.3213,M,,*66
$GPGGA,090542.50,4821.47377789,N,00429.76223640,W,1,05,2.87,160.00,M,-21.3213,M,,*65
$GPGGA,090543.00,4821.47220919,N,00429.76615394,W,1,05,2.87,160.00,M,-21.3213,M,,*68
$GPGGA,090543.50,4821.47069607,N,00429.76993267,W,1,05,2.87,160.00,M,-21.3213,M,,*6E
$GPGGA,090544.00,4821.46912737,N,00429.77385019,W,1,05,2.87,160.00,M,-21.3213,M,,*6D
$GPGGA,090544.50,4821.46755866,N,00429.77776771,W,1,05,2.87,160.00,M,-21.3213,M,,*6F
$GPGGA,090545.00,4821.46604554,N,00429.78154643,W,1,05,2.87,160.00,M,-21.3213,M,,*6B
$GPGGA,090545.50,4821.46447683,N,00429.78546394,W,1,05,2.87,160.00,M,-21.3213,M,,*6A
$GPGGA,090546.00,4821.46296370,N,00429.78924265,W,1,05,2.87,160.00,M,-21.3213,M,,*68
$GPGGA,090546.50,4821.46139498,N,00429.79316016,W,1,05,2.87,160.00,M,-21.3213,M,,*66
$GPGGA,090547.00,4821.45988185,N,00429.79693886,W,1,05,2.87,160.00,M,-21.3213,M,,*63
$GPGGA,090547.50,4821.45831313,N,00429.80085636,W,1,05,2.87,160.00,M,-21.3213,M,,*6A
$GPGGA,090548.00,4821.45679999,N,00429.80463506,W,1,05,2.87,160.00,M,-21.3213,M,,*66
