$GPGGA,090000.00,4822.69923106,N,00429.53354033,W,1,05,2.87,160.00,M,-21.3213,M,,*62
$GPGGA,090000.50,4822.69923106,N,00429.53354033,W,1,05,2.87,160.00,M,-21.3213,M,,*67
$GPGGA,090001.00,4822.69923106,N,00429.53354033,W,1,05,2.87,160.00,M,-21.3213,M,,*63
$GPGGA,090001.50,4822.69923106,N,00429.53354033,W,1,05,2.87,160.00,M,-21.3213,M,,*66
$GPGGA,090002.00,4822.69923106,N,00429.53354033,W,1,05,2.87,160.00,M,-21.3213,M,,*60
$GPGGA,090002.50,4822.69923106,N,00429.53354033,W,1,05,2.87,160.00,M,-21.3213,M,,*65
$GPGGA,090003.00,4822.69923106,N,00429.53354033,W,1,05,2.87,160.00,M,-21.3213,M,,*61
$GPGGA,090003.50,4822.69923106,N,00429.53354033,W,1,05,2.87,160.00,M,-21.3213,M,,*64
$GPGGA,090004.00,4822.69923106,N,00429.53354033,W,1,05,2.87,160.00,M,-21.3213,M,,*66
$GPGGA,090004.50,4822.69923106,N,00429.53354033,W,1,05,2.87,160.00,M,-21.3213,M,,*63
$GPGGA,090005.00,4822.69923106,N,00429.53354033,W,1,05,2.87,160.00,M,-21.3213,M,,*67
$GPGGA,090005.50,4822.69923106,N,00429.53354033,W,1,05,2.87,160.00,M,-21.3213,M,,*62
$GPGGA,090006.00,4822.69923106,N,00429.53354033,W,1,05,2.87,160.00,M,-21.3213,M,,*64
$GPGGA,090006.50,4822.69923106,N,00429.53354033,W,1,05,2.87,160.00,M,-21.3213,M,,*61
$GPGGA,090007.00,4822.69923106,N,00429.53354033,W,1,05,2.87,160.00,M,-21.3213,M,,*65
$GPGGA,090007.50,4822.69923106,N,00429.53354033,W,1,05,2.87,160.00,M,-21.3213,M,,*60
$GPGGA,090008.00,4822.69923106,N,00429.53354033,W,1,05,2.87,160.00,M,-21.3213,M,,*6A
$GPGGA,090008.50,4822.69923106,N,00429.53354033,W,1,05,2.87,160.00,M,-21.3213,M,,*6F
$GPGGA,090009.00,4822.69923106,N,00429.53354033,W,1,05,2.87,160.00,M,-21.3213,M,,*6B
$GPGGA,090009.50,4822.69923106,N,00429.53354033,W,1,05,2.87,160.00,M,-21.3213,M,,*6E
$GPGGA,090010.00,4822.69923106,N,00429.53354033,W,1,05,2.87,160.00,M,-21.3213,M,,*63
$GPGGA,090010.50,4822.69923106,N,00429.53354033,W,1,05,2.87,160.00,M,-21.3213,M,,*66
$GPGGA,090011.00,4822.69923106,N,00429.53354033,W,1,05,2.87,160.00,M,-21.3213,M,,*62
$GPGGA,090011.50,4822.69923106,N,00429.53354033,W,1,05,2.87,160.00,M,-21.3213,M,,*67
$GPGGA,090012.00,4822.69923106,N,00429.53354033,W,1,05,2.87,160.00,M,-21.3213,M,,*61
$GPGGA,090012.50,4822.69923106,N,00429.53354033,W,1,05,2.87,160.00,M,-21.3213,M,,*64
$GPGGA,090013.00,4822.69923106,N,00429.53354033,W,1,05,2.87,160.00,M,-21.3213,M,,*60
$GPGGA,090013.50,4822.69923106,N,00429.53354033,W,1,05,2.87,160.00,M,-21.3213,M,,*65
$GPGGA,090014.00,4822.69923106,N,00429.53354033,W,1,05,2.87,160.00,M,-21.3213,M,,*67
$GPGGA,090014.50,4822.69923106,N,00429.53354033,W,1,05,2.87,160.00,M,-21.3213,M,,*62
$GPGGA,090015.00,4822.69923106,N,00429.53354033,W,1,05,2.87,160.00,M,-21.3213,M,,*66
$GPGGA,090015.50,4822.69923106,N,00429.53354033,W,1,05,2.87,160.00,M,-21.3213,M,,*63
$GPGGA,090016.00,4822.69923106,N,00429.53354033,W,1,05,2.87,160.00,M,-21.3213,M,,*65
$GPGGA,090016.50,4822.69923106,N,00429.53354033,W,1,05,2.87,160.00,M,-21.3213,M,,*60
$GPGGA,090017.00,4822.69923106,N,00429.53354033,W,1,05,2.87,160.00,M,-21.3213,M,,*64
$GPGGA,090017.50,4822.69923106,N,00429.53354033,W,1,05,2.87,160.00,M,-21.3213,M,,*61
$GPGGA,090018.00,4822.69923106,N,00429.53354033,W,1,05,2.87,160.00,M,-21.3213,M,,*6B
$GPGGA,090018.50,4822.69923106,N,00429.53354033,W,1,05,2.87,160.00,M,-21.3213,M,,*6E
$GPGGA,090019.00,4822.69923106,N,00429.53354033,W,1,05,2.87,160.00,M,-21.3213,M,,*6A
$GPGGA,090019.50,4822.69923106,N,00429.53354033,W,1,05,2.87,160.00,M,-21.3213,M,,*6F
$GPGGA,090020.00,4822.69923106,N,00429.53354033,W,1,05,2.87,160.00,M,-21.3213,M,,*60
$GPGGA,090020.50,4822.69923106,N,00429.53354033,W,1,05,2.87,160.00,M,-21.3213,M,,*65
$GPGGA,090021.00,4822.69923106,N,00429.53354033,W,1,05,2.87,160.00,M,-21.3213,M,,*61
$GPGGA,090021.50,4822.69923106,N,00429.53354033,W,1,05,2.87,160.00,M,-21.3213,M,,*64
$GPGGA,090022.00,4822.69923106,N,00429.53354033,W,1,05,2.87,160.00,M,-21.3213,M,,*62
$GPGGA,090022.50,4822.69923106,N,00429.53354033,W,1,05,2.87,160.00,M,-21.3213,M,,*67
$GPGGA,090023.00,4822.69923106,N,00429.53354033,W,1,05,2.87,160.00,M,-21.3213,M,,*63
$GPGGA,090023.50,4822.69923106,N,00429.53354033,W,1,05,2.87,160.00,M,-21.3213,M,,*66
$GPGGA,090024.00,4822.69923106,N,00429.53354033,W,1,05,2.87,160.00,M,-21.3213,M,,*64
$GPGGA,090024.50,4822.69923106,N,00429.53354033,W,1,05,2.87,160.00,M,-21.3213,M,,*61
$GPGGA,090025.00,4822.69923106,N,00429.53354033,W,1,05,2.87,160.00,M,-21.3213,M,,*65
$GPGGA,090025.50,4822.69923106,N,00429.53354033,W,1,05,2.87,160.00,M,-21.3213,M,,*60
$GPGGA,090026.00,4822.69923106,N,00429.53354033,W,1,05,2.87,160.00,M,-21.3213,M,,*66
$GPGGA,090026.50,4822.69923106,N,00429.53354033,W,1,05,2.87,160.00,M,-21.3213,M,,*63
$GPGGA,090027.00,4822.69923106,N,00429.53354033,W,1,05,2.87,160.00,M,-21.3213,M,,*67
$GPGGA,090027.50,4822.69923106,N,00429.53354033,W,1,05,2.87,160.00,M,-21.3213,M,,*62
$GPGGA,090028.00,4822.69923106,N,00429.53354033,W,1,05,2.87,160.00,M,-21.3213,M,,*68
$GPGGA,090028.50,4822.69923106,N,00429.53354033,W,1,05,2.87,160.00,M,-21.3213,M,,*6D
$GPGGA,090029.00,4822.69923106,N,00429.53354033,W,1,05,2.87,160.00,M,-21.3213,M,,*69
$GPGGA,090029.50,4822.69923106,N,00429.53354033,W,1,05,2.87,160.00,M,-21.3213,M,,*6C
$GPGGA,090030.00,4822.69923106,N,00429.53354033,W,1,05,2.87,160.00,M,-21.3213,M,,*61
$GPGGA,090030.50,4822.69923106,N,00429.53354033,W,1,05,2.87,160.00,M,-21.3213,M,,*64
$GPGGA,090031.00,4822.69923106,N,00429.53354033,W,1,05,2.87,160.00,M,-21.3213,M,,*60
$GPGGA,090031.50,4822.69923106,N,00429.53354033,W,1,05,2.87,160.00,M,-21.3213,M,,*65
$GPGGA,090032.00,4822.69923106,N,00429.53354033,W,1,05,2.87,160.00,M,-21.3213,M,,*63
$GPGGA,090032.50,4822.69923106,N,00429.53354033,W,1,05,2.87,160.00,M,-21.3213,M,,*66
$GPGGA,090033.00,4822.69923106,N,00429.53354033,W,1,05,2.87,160.00,M,-21.3213,M,,*62
$GPGGA,090033.50,4822.69923106,N,00429.53354033,W,1,05,2.87,160.00,M,-21.3213,M,,*67
$GPGGA,090034.00,4822.69923106,N,00429.53354033,W,1,05,2.87,160.00,M,-21.3213,M,,*65
$GPGGA,090034.50,4822.69923106,N,00429.53354033,W,1,05,2.87,160.00,M,-21.3213,M,,*60
$GPGGA,090035.00,4822.69923106,N,00429.53354033,W,1,05,2.87,160.00,M,-21.3213,M,,*64
$GPGGA,090035.50,4822.69923106,N,00429.53354033,W,1,05,2.87,160.00,M,-21.3213,M,,*61
$GPGGA,090036.00,4822.69923106,N,00429.53354033,W,1,05,2.87,160.00,M,-21.3213,M,,*67
$GPGGA,090036.50,4822.69923106,N,00429.53354033,W,1,05,2.87,160.00,M,-21.3213,M,,*62
$GPGGA,090037.00,4822.69923106,N,00429.53354033,W,1,05,2.87,160.00,M,-21.3213,M,,*66
$GPGGA,090037.50,4822.69923106,N,00429.53354033,W,1,05,2.87,160.00,M,-21.3213,M,,*63
$GPGGA,090038.00,4822.69923106,N,00429.53354033,W,1,05,2.87,160.00,M,-21.3213,M,,*69
$GPGGA,090038.50,4822.69923106,N,00429.53354033,W,1,05,2.87,160.00,M,-21.3213,M,,*6C
$GPGGA,090039.00,4822.69923106,N,00429.53354033,W,1,05,2.87,160.00,M,-21.3213,M,,*68
$GPGGA,090039.50,4822.69923106,N,00429.53354033,W,1,05,2.87,160.00,M,-21.3213,M,,*6D
$GPGGA,090040.00,4822.69923106,N,00429.53354033,W,1,05,2.87,160.00,M,-21.3213,M,,*66
$GPGGA,090040.50,4822.69923106,N,00429.53354033,W,1,05,2.87,160.00,M,-21.3213,M,,*63
$GPGGA,090041.00,4822.69923106,N,00429.53354033,W,1,05,2.87,160.00,M,-21.3213,M,,*67
$GPGGA,090041.50,4822.69923106,N,00429.53354033,W,1,05,2.87,160.00,M,-21.3213,M,,*62
$GPGGA,090042.00,4822.69923106,N,00429.53354033,W,1,05,2.87,160.00,M,-21.3213,M,,*64
$GPGGA,090042.50,4822.69923106,N,00429.53354033,W,1,05,2.87,160.00,M,-21.3213,M,,*61
$GPGGA,090043.00,4822.69923106,N,00429.53354033,W,1,05,2.87,160.00,M,-21.3213,M,,*65
$GPGGA,090043.50,4822.69923106,N,00429.53354033,W,1,05,2.87,160.00,M,-21.3213,M,,*60
$GPGGA,090044.00,4822.69923106,N,00429.53354033,W,1,05,2.87,160.00,M,-21.3213,M,,*62
$GPGGA,090044.50,4822.69923106,N,00429.53354033,W,1,05,2.87,160.00,M,-21.3213,M,,*67
$GPGGA,090045.00,4822.69923106,N,00429.53354033,W,1,05,2.87,160.00,M,-21.3213,M,,*63
$GPGGA,090045.50,4822.69923106,N,00429.53354033,W,1,05,2.87,160.00,M,-21.3213,M,,*66
$GPGGA,090046.00,4822.69923106,N,00429.53354033,W,1,05,2.87,160.00,M,-21.3213,M,,*60
$GPGGA,090046.50,4822.69923106,N,00429.53354033,W,1,05,2.87,160.00,M,-21.3213,M,,*65
$GPGGA,090047.00,4822.69923106,N,00429.53354033,W,1,05,2.87,160.00,M,-21.3213,M,,*61
$GPGGA,090047.50,4822.69923106,N,00429.53354033,W,1,05,2.87,160.00,M,-21.3213,M,,*64
$GPGGA,090048.00,4822.69923106,N,00429.53354033,W,1,05,2.87,160.00,M,-21.3213,M,,*6E
$GPGGA,090048.50,4822.69923106,N,00429.53354033,W,1,05,2.87,160.00,M,-21.3213,M,,*6B
$GPGGA,090049.00,4822.69923106,N,00429.53354033,W,1,05,2.87,160.00,M,-21.3213,M,,*6F
$GPGGA,090049.50,4822.69923106,N,00429.53354033,W,1,05,2.87,160.00,M,-21.3213,M,,*6A
$GPGGA,090050.00,4822.69923106,N,00429.53354033,W,1,05,2.87,160.00,M,-21.3213,M,,*67
$GPGGA,090050.50,4822.69923106,N,00429.53354033,W,1,05,2.87,160.00,M,-21.3213,M,,*62
$GPGGA,090051.00,4822.69923106,N,00429.53354033,W,1,05,2.87,160.00,M,-21.3213,M,,*66
$GPGGA,090051.50,4822.69923106,N,00429.53354033,W,1,05,2.87,160.00,M,-21.3213,M,,*63
$GPGGA,090052.00,4822.69923106,N,00429.53354033,W,1,05,2.87,160.00,M,-21.3213,M,,*65
$GPGGA,090052.50,4822.69923106,N,00429.53354033,W,1,05,2.87,160.00,M,-21.3213,M,,*60
$GPGGA,090053.00,4822.69923106,N,00429.53354033,W,1,05,2.87,160.00,M,-21.3213,M,,*64
$GPGGA,090053.50,4822.69923106,N,00429.53354033,W,1,05,2.87,160.00,M,-21.3213,M,,*61
$GPGGA,090054.00,4822.69923106,N,00429.53354033,W,1,05,2.87,160.00,M,-21.3213,M,,*63
$GPGGA,090054.50,4822.69923106,N,00429.53354033,W,1,05,2.87,160.00,M,-21.3213,M,,*66
$GPGGA,090055.00,4822.69923106,N,00429.53354033,W,1,05,2.87,160.00,M,-21.3213,M,,*62
$GPGGA,090055.50,4822.69923106,N,00429.53354033,W,1,05,2.87,160.00,M,-21.3213,M,,*67
$GPGGA,090056.00,4822.69923106,N,00429.53354033,W,1,05,2.87,160.00,M,-21.3213,M,,*61
$GPGGA,090056.50,4822.69923106,N,00429.53354033,W,1,05,2.87,160.00,M,-21.3213,M,,*64
$GPGGA,090057.00,4822.69923106,N,00429.53354033,W,1,05,2.87,160.00,M,-21.3213,M,,*60
$GPGGA,090057.50,4822.69923106,N,00429.53354033,W,1,05,2.87,160.00,M,-21.3213,M,,*65
$GPGGA,090058.00,4822.69923106,N,00429.53354033,W,1,05,2.87,160.00,M,-21.3213,M,,*6F
$GPGGA,090058.50,4822.69923106,N,00429.53354033,W,1,05,2.87,160.00,M,-21.3213,M,,*6A
$GPGGA,090059.00,4822.69923106,N,00429.53354033,W,1,05,2.87,160.00,M,-21.3213,M,,*6E
$GPGGA,090059.50,4822.69923106,N,00429.53354033,W,1,05,2.87,160.00,M,-21.3213,M,,*6B
$GPGGA,090100.00,4822.69923106,N,00429.53354033,W,1,05,2.87,160.00,M,-21.3213,M,,*63
$GPGGA,090100.50,4822.69923106,N,00429.53354033,W,1,05,2.87,160.00,M,-21.3213,M,,*66
$GPGGA,090101.00,4822.69923106,N,00429.53354033,W,1,05,2.87,160.00,M,-21.3213,M,,*62
$GPGGA,090101.50,4822.69923106,N,00429.53354033,W,1,05,2.87,160.00,M,-21.3213,M,,*67
$GPGGA,090102.00,4822.69923106,N,00429.53354033,W,1,05,2.87,160.00,M,-21.3213,M,,*61
$GPGGA,090102.50,4822.69923106,N,00429.53354033,W,1,05,2.87,160.00,M,-21.3213,M,,*64
$GPGGA,090103.00,4822.69923106,N,00429.53354033,W,1,05,2.87,160.00,M,-21.3213,M,,*60
$GPGGA,090103.50,4822.69923106,N,00429.53354033,W,1,05,2.87,160.00,M,-21.3213,M,,*65
$GPGGA,090104.00,4822.69923106,N,00429.53354033,W,1,05,2.87,160.00,M,-21.3213,M,,*67
$GPGGA,090104.50,4822.69923106,N,00429.53354033,W,1,05,2.87,160.00,M,-21.3213,M,,*62
$GPGGA,090105.00,4822.69923106,N,00429.53354033,W,1,05,2.87,160.00,M,-21.3213,M,,*66
$GPGGA,090105.50,4822.69923106,N,00429.53354033,W,1,05,2.87,160.00,M,-21.3213,M,,*63
$GPGGA,090106.00,4822.69923106,N,00429.53354033,W,1,05,2.87,160.00,M,-21.3213,M,,*65
$GPGGA,090106.50,4822.69923106,N,00429.53354033,W,1,05,2.87,160.00,M,-21.3213,M,,*60
$GPGGA,090107.00,4822.69923106,N,00429.53354033,W,1,05,2.87,160.00,M,-21.3213,M,,*64
$GPGGA,090107.50,4822.69923106,N,00429.53354033,W,1,05,2.87,160.00,M,-21.3213,M,,*61
$GPGGA,090108.00,4822.69923106,N,00429.53354033,W,1,05,2.87,160.00,M,-21.3213,M,,*6B
$GPGGA,090108.50,4822.69923106,N,00429.53354033,W,1,05,2.87,160.00,M,-21.3213,M,,*6E
$GPGGA,090109.00,4822.69923106,N,00429.53354033,W,1,05,2.87,160.00,M,-21.3213,M,,*6A
$GPGGA,090109.50,4822.69923106,N,00429.53354033,W,1,05,2.87,160.00,M,-21.3213,M,,*6F
$GPGGA,090110.00,4822.69923106,N,00429.53354033,W,1,05,2.87,160.00,M,-21.3213,M,,*62
$GPGGA,090110.50,4822.69923106,N,00429.53354033,W,1,05,2.87,160.00,M,-21.3213,M,,*67
$GPGGA,090111.00,4822.69923106,N,00429.53354033,W,1,05,2.87,160.00,M,-21.3213,M,,*63
$GPGGA,090111.50,4822.69923106,N,00429.53354033,W,1,05,2.87,160.00,M,-21.3213,M,,*66
$GPGGA,090112.00,4822.69923106,N,00429.53354033,W,1,05,2.87,160.00,M,-21.3213,M,,*60
$GPGGA,090112.50,4822.69923106,N,00429.53354033,W,1,05,2.87,160.00,M,-21.3213,M,,*65
$GPGGA,090113.00,4822.69923106,N,00429.53354033,W,1,05,2.87,160.00,M,-21.3213,M,,*61
$GPGGA,090113.50,4822.69923106,N,00429.53354033,W,1,05,2.87,160.00,M,-21.3213,M,,*64
$GPGGA,090114.00,4822.69923106,N,00429.53354033,W,1,05,2.87,160.00,M,-21.3213,M,,*66
$GPGGA,090114.50,4822.69923106,N,00429.53354033,W,1,05,2.87,160.00,M,-21.3213,M,,*63
$GPGGA,090115.00,4822.69923106,N,00429.53354033,W,1,05,2.87,160.00,M,-21.3213,M,,*67
$GPGGA,090115.50,4822.69923106,N,00429.53354033,W,1,05,2.87,160.00,M,-21.3213,M,,*62
$GPGGA,090116.00,4822.69923106,N,00429.53354033,W,1,05,2.87,160.00,M,-21.3213,M,,*64
$GPGGA,090116.50,4822.69923106,N,00429.53354033,W,1,05,2.87,160.00,M,-21.3213,M,,*61
$GPGGA,090117.00,4822.69923106,N,00429.53354033,W,1,05,2.87,160.00,M,-21.3213,M,,*65
$GPGGA,090117.50,4822.69923106,N,00429.53354033,W,1,05,2.87,160.00,M,-21.3213,M,,*60
$GPGGA,090118.00,4822.69923106,N,00429.53354033,W,1,05,2.87,160.00,M,-21.3213,M,,*6A
$GPGGA,090118.50,4822.69923106,N,00429.53354033,W,1,05,2.87,160.00,M,-21.3213,M,,*6F
$GPGGA,090119.00,4822.69923106,N,00429.53354033,W,1,05,2.87,160.00,M,-21.3213,M,,*6B
$GPGGA,090119.50,4822.69923106,N,00429.53354033,W,1,05,2.87,160.00,M,-21.3213,M,,*6E
$GPGGA,090120.00,4822.69923106,N,00429.53354033,W,1,05,2.87,160.00,M,-21.3213,M,,*61
$GPGGA,090120.50,4822.69923106,N,00429.53354033,W,1,05,2.87,160.00,M,-21.3213,M,,*64
$GPGGA,090121.00,4822.69923106,N,00429.53354033,W,1,05,2.87,160.00,M,-21.3213,M,,*60
$GPGGA,090121.50,4822.69923106,N,00429.53354033,W,1,05,2.87,160.00,M,-21.3213,M,,*65
$GPGGA,090122.00,4822.69923106,N,00429.53354033,W,1,05,2.87,160.00,M,-21.3213,M,,*63
$GPGGA,090122.50,4822.69923106,N,00429.53354033,W,1,05,2.87,160.00,M,-21.3213,M,,*66
$GPGGA,090123.00,4822.69923106,N,00429.53354033,W,1,05,2.87,160.00,M,-21.3213,M,,*62
$GPGGA,090123.50,4822.69923106,N,00429.53354033,W,1,05,2.87,160.00,M,-21.3213,M,,*67
$GPGGA,090124.00,4822.69923106,N,00429.53354033,W,1,05,2.87,160.00,M,-21.3213,M,,*65
$GPGGA,090124.50,4822.69923106,N,00429.53354033,W,1,05,2.87,160.00,M,-21.3213,M,,*60
$GPGGA,090125.00,4822.69923106,N,00429.53354033,W,1,05,2.87,160.00,M,-21.3213,M,,*64
$GPGGA,090125.50,4822.69923106,N,00429.53354033,W,1,05,2.87,160.00,M,-21.3213,M,,*61
$GPGGA,090126.00,4822.69923106,N,00429.53354033,W,1,05,2.87,160.00,M,-21.3213,M,,*67
$GPGGA,090126.50,4822.69923106,N,00429.53354033,W,1,05,2.87,160.00,M,-21.3213,M,,*62
$GPGGA,090127.00,4822.69923106,N,00429.53354033,W,1,05,2.87,160.00,M,-21.3213,M,,*66
$GPGGA,090127.50,4822.69923106,N,00429.53354033,W,1,05,2.87,160.00,M,-21.3213,M,,*63
$GPGGA,090128.00,4822.69923106,N,00429.53354033,W,1,05,2.87,160.00,M,-21.3213,M,,*69
$GPGGA,090128.50,4822.69923106,N,00429.53354033,W,1,05,2.87,160.00,M,-21.3213,M,,*6C
$GPGGA,090129.00,4822.69923106,N,00429.53354033,W,1,05,2.87,160.00,M,-21.3213,M,,*68
$GPGGA,090129.50,4822.69923106,N,00429.53354033,W,1,05,2.87,160.00,M,-21.3213,M,,*6D
$GPGGA,090130.00,4822.69923106,N,00429.53354033,W,1,05,2.87,160.00,M,-21.3213,M,,*60
$GPGGA,090130.50,4822.69923106,N,00429.53354033,W,1,05,2.87,160.00,M,-21.3213,M,,*65
$GPGGA,090131.00,4822.69923106,N,00429.53354033,W,1,05,2.87,160.00,M,-21.3213,M,,*61
$GPGGA,090131.50,4822.69923106,N,00429.53354033,W,1,05,2.87,160.00,M,-21.3213,M,,*64
$GPGGA,090132.00,4822.69923106,N,00429.53354033,W,1,05,2.87,160.00,M,-21.3213,M,,*62
$GPGGA,090132.50,4822.69923106,N,00429.53354033,W,1,05,2.87,160.00,M,-21.3213,M,,*67
$GPGGA,090133.00,4822.69923106,N,00429.53354033,W,1,05,2.87,160.00,M,-21.3213,M,,*63
$GPGGA,090133.50,4822.69923106,N,00429.53354033,W,1,05,2.87,160.00,M,-21.3213,M,,*66
$GPGGA,090134.00,4822.69923106,N,00429.53354033,W,1,05,2.87,160.00,M,-21.3213,M,,*64
$GPGGA,090134.50,4822.69923106,N,00429.53354033,W,1,05,2.87,160.00,M,-21.3213,M,,*61
$GPGGA,090135.00,4822.69923106,N,00429.53354033,W,1,05,2.87,160.00,M,-21.3213,M,,*65
$GPGGA,090135.50,4822.69923106,N,00429.53354033,W,1,05,2.87,160.00,M,-21.3213,M,,*60
$GPGGA,090136.00,4822.69923106,N,00429.53354033,W,1,05,2.87,160.00,M,-21.3213,M,,*66
$GPGGA,090136.50,4822.69923106,N,00429.53354033,W,1,05,2.87,160.00,M,-21.3213,M,,*63
$GPGGA,090137.00,4822.69923106,N,00429.53354033,W,1,05,2.87,160.00,M,-21.3213,M,,*67
$GPGGA,090137.50,4822.69923106,N,00429.53354033,W,1,05,2.87,160.00,M,-21.3213,M,,*62
$GPGGA,090138.00,4822.69923106,N,00429.53354033,W,1,05,2.87,160.00,M,-21.3213,M,,*68
$GPGGA,090138.50,4822.69923106,N,00429.53354033,W,1,05,2.87,160.00,M,-21.3213,M,,*6D
$GPGGA,090139.00,4822.69923106,N,00429.53354033,W,1,05,2.87,160.00,M,-21.3213,M,,*69
$GPGGA,090139.50,4822.69923106,N,00429.53354033,W,1,05,2.87,160.00,M,-21.3213,M,,*6C
$GPGGA,090140.00,4822.69793413,N,00429.53407221,W,1,05,2.87,160.00,M,-21.3213,M,,*63
$GPGGA,090140.50,4822.69543861,N,00429.53509565,W,1,05,2.87,160.00,M,-21.3213,M,,*68
$GPGGA,090141.00,4822.69257567,N,00429.53626977,W,1,05,2.87,160.00,M,-21.3213,M,,*64
$GPGGA,090141.50,4822.68973343,N,00429.53743540,W,1,05,2.87,160.00,M,-21.3213,M,,*67
$GPGGA,090142.00,4822.68681000,N,00429.53863433,W,1,05,2.87,160.00,M,-21.3213,M,,*6F
$GPGGA,090142.50,4822.68389042,N,00429.53983167,W,1,05,2.87,160.00,M,-21.3213,M,,*6A
$GPGGA,090143.00,4822.68102037,N,00429.54100870,W,1,05,2.87,160.00,M,-21.3213,M,,*66
$GPGGA,090143.50,4822.67812083,N,00429.54219782,W,1,05,2.87,160.00,M,-21.3213,M,,*62
$GPGGA,090144.00,4822.67520449,N,00429.54339382,W,1,05,2.87,160.00,M,-21.3213,M,,*69
$GPGGA,090144.50,4822.67238253,N,00429.54455112,W,1,05,2.87,160.00,M,-21.3213,M,,*69
$GPGGA,090145.00,4822.66945183,N,00429.54575301,W,1,05,2.87,160.00,M,-21.3213,M,,*60
$GPGGA,090145.50,4822.66651741,N,00429.54695642,W,1,05,2.87,160.00,M,-21.3213,M,,*68
$GPGGA,090146.00,4822.66368529,N,00429.54811788,W,1,05,2.87,160.00,M,-21.3213,M,,*68
$GPGGA,090146.50,4822.66074808,N,00429.54932243,W,1,05,2.87,160.00,M,-21.3213,M,,*6F
$GPGGA,090147.00,4822.65791439,N,00429.55048453,W,1,05,2.87,160.00,M,-21.3213,M,,*68
$GPGGA,090147.50,4822.65497627,N,00429.55168945,W,1,05,2.87,160.00,M,-21.3213,M,,*6C
$GPGGA,090148.00,4822.65214207,N,00429.55285175,W,1,05,2.87,160.00,M,-21.3213,M,,*66
$GPGGA,090148.50,4822.64920365,N,00429.55405679,W,1,05,2.87,160.00,M,-21.3213,M,,*6E
$GPGGA,090149.00,4822.64626517,N,00429.55526184,W,1,05,2.87,160.00,M,-21.3213,M,,*65
$GPGGA,090149.50,4822.64343076,N,00429.55642421,W,1,05,2.87,160.00,M,-21.3213,M,,*6F
$GPGGA,090150.00,4822.64049223,N,00429.55762927,W,1,05,2.87,160.00,M,-21.3213,M,,*61
$GPGGA,090150.50,4822.63765779,N,00429.55879162,W,1,05,2.87,160.00,M,-21.3213,M,,*6C
$GPGGA,090151.00,4822.63471925,N,00429.55999663,W,1,05,2.87,160.00,M,-21.3213,M,,*60
$GPGGA,090151.50,4822.63188481,N,00429.56115889,W,1,05,2.87,160.00,M,-21.3213,M,,*60
$GPGGA,090152.00,4822.62894629,N,00429.56236375,W,1,05,2.87,160.00,M,-21.3213,M,,*69
$GPGGA,090152.50,4822.62611189,N,00429.56352575,W,1,05,2.87,160.00,M,-21.3213,M,,*67
$GPGGA,090153.00,4822.62317344,N,00429.56473013,W,1,05,2.87,160.00,M,-21.3213,M,,*62
$GPGGA,090153.50,4822.62033918,N,00429.56589134,W,1,05,2.87,160.00,M,-21.3213,M,,*61
$GPGGA,090154.00,4822.61740095,N,00429.56709430,W,1,05,2.87,160.00,M,-21.3213,M,,*64
$GPGGA,090154.50,4822.61446298,N,00429.56829564,W,1,05,2.87,160.00,M,-21.3213,M,,*66
$GPGGA,090155.00,4822.61162956,N,00429.56945173,W,1,05,2.87,160.00,M,-21.3213,M,,*61
$GPGGA,090155.50,4822.60869281,N,00429.57064543,W,1,05,2.87,160.00,M,-21.3213,M,,*6A
$GPGGA,090156.00,4822.60586153,N,00429.57178865,W,1,05,2.87,160.00,M,-21.3213,M,,*69
$GPGGA,090156.50,4822.60292848,N,00429.57295915,W,1,05,2.87,160.00,M,-21.3213,M,,*6B
$GPGGA,090157.00,4822.59999951,N,00429.57410349,W,1,05,2.87,160.00,M,-21.3213,M,,*64
$GPGGA,090157.50,4822.59707750,N,00429.57520209,W,1,05,2.87,160.00,M,-21.3213,M,,*60
$GPGGA,090158.00,4822.59416722,N,00429.57622122,W,1,05,2.87,160.00,M,-21.3213,M,,*67
$GPGGA,090158.50,4822.59127594,N,00429.57710366,W,1,05,2.87,160.00,M,-21.3213,M,,*68
$GPGGA,090159.00,4822.58830855,N,00429.57777203,W,1,05,2.87,160.00,M,-21.3213,M,,*61
$GPGGA,090159.50,4822.58526684,N,00429.57801368,W,1,05,2.87,160.00,M,-21.3213,M,,*6E
$GPGGA,090200.00,4822.58232754,N,00429.57765938,W,1,05,2.87,160.00,M,-21.3213,M,,*68
$GPGGA,090200.50,4822.57935948,N,00429.57691031,W,1,05,2.87,160.00,M,-21.3213,M,,*67
$GPGGA,090201.00,4822.57646976,N,00429.57596668,W,1,05,2.87,160.00,M,-21.3213,M,,*6B
$GPGGA,090201.50,4822.57356290,N,00429.57489622,W,1,05,2.87,160.00,M,-21.3213,M,,*68
$GPGGA,090202.00,4822.57064552,N,00429.57375215,W,1,05,2.87,160.00,M,-21.3213,M,,*61
$GPGGA,090202.50,4822.56772191,N,00429.57256577,W,1,05,2.87,160.00,M,-21.3213,M,,*6D
$GPGGA,090203.00,4822.56479465,N,00429.57135519,W,1,05,2.87,160.00,M,-21.3213,M,,*61
$GPGGA,090203.50,4822.56196917,N,00429.57017440,W,1,05,2.87,160.00,M,-21.3213,M,,*64
$GPGGA,090204.00,4822.55903861,N,00429.56894239,W,1,05,2.87,160.00,M,-21.3213,M,,*6B
$GPGGA,090204.50,4822.55621122,N,00429.56774971,W,1,05,2.87,160.00,M,-21.3213,M,,*69
$GPGGA,090205.00,4822.55327956,N,00429.56651065,W,1,05,2.87,160.00,M,-21.3213,M,,*6F
$GPGGA,090205.50,4822.55045154,N,00429.56531407,W,1,05,2.87,160.00,M,-21.3213,M,,*62
$GPGGA,090206.00,4822.54751952,N,00429.56407270,W,1,05,2.87,160.00,M,-21.3213,M,,*6B
$GPGGA,090206.50,4822.54469130,N,00429.56287484,W,1,05,2.87,160.00,M,-21.3213,M,,*69
$GPGGA,090207.00,4822.54175917,N,00429.56163272,W,1,05,2.87,160.00,M,-21.3213,M,,*6E
$GPGGA,090207.50,4822.53882700,N,00429.56039043,W,1,05,2.87,160.00,M,-21.3213,M,,*6B
$GPGGA,090208.00,4822.53599870,N,00429.55919207,W,1,05,2.87,160.00,M,-21.3213,M,,*64
$GPGGA,090208.50,4822.53306652,N,00429.55794965,W,1,05,2.87,160.00,M,-21.3213,M,,*6B
$GPGGA,090209.00,4822.53023820,N,00429.55675122,W,1,05,2.87,160.00,M,-21.3213,M,,*65
$GPGGA,090209.50,4822.52730601,N,00429.55550876,W,1,05,2.87,160.00,M,-21.3213,M,,*65
$GPGGA,090210.00,4822.52447769,N,00429.55431030,W,1,05,2.87,160.00,M,-21.3213,M,,*68
$GPGGA,090210.50,4822.52154549,N,00429.55306783,W,1,05,2.87,160.00,M,-21.3213,M,,*66
$GPGGA,090211.00,4822.51871717,N,00429.55186937,W,1,05,2.87,160.00,M,-21.3213,M,,*6D
$GPGGA,090211.50,4822.51578498,N,00429.55062690,W,1,05,2.87,160.00,M,-21.3213,M,,*61
$GPGGA,090212.00,4822.51295665,N,00429.54942844,W,1,05,2.87,160.00,M,-21.3213,M,,*6E
$GPGGA,090212.50,4822.51002445,N,00429.54818597,W,1,05,2.87,160.00,M,-21.3213,M,,*6A
$GPGGA,090213.00,4822.50709168,N,00429.54694326,W,1,05,2.87,160.00,M,-21.3213,M,,*6F
$GPGGA,090213.50,4822.50426336,N,00429.54574481,W,1,05,2.87,160.00,M,-21.3213,M,,*6A
$GPGGA,090214.00,4822.50133116,N,00429.54450234,W,1,05,2.87,160.00,M,-21.3213,M,,*66
$GPGGA,090214.50,4822.49850283,N,00429.54330390,W,1,05,2.87,160.00,M,-21.3213,M,,*66
$GPGGA,090215.00,4822.49557064,N,00429.54206144,W,1,05,2.87,160.00,M,-21.3213,M,,*6C
$GPGGA,090215.50,4822.49274231,N,00429.54086299,W,1,05,2.87,160.00,M,-21.3213,M,,*64
$GPGGA,090216.00,4822.48981011,N,00429.53962054,W,1,05,2.87,160.00,M,-21.3213,M,,*65
$GPGGA,090216.50,4822.48698179,N,00429.53842210,W,1,05,2.87,160.00,M,-21.3213,M,,*69
$GPGGA,090217.00,4822.48404959,N,00429.53717965,W,1,05,2.87,160.00,M,-21.3213,M,,*66
$GPGGA,090217.50,4822.48122126,N,00429.53598121,W,1,05,2.87,160.00,M,-21.3213,M,,*6F
$GPGGA,090218.00,4822.47828907,N,00429.53473875,W,1,05,2.87,160.00,M,-21.3213,M,,*6E
$GPGGA,090218.50,4822.47546074,N,00429.53354031,W,1,05,2.87,160.00,M,-21.3213,M,,*69
$GPGGA,090219.00,4822.47252855,N,00429.53229783,W,1,05,2.87,160.00,M,-21.3213,M,,*61
$GPGGA,090219.50,4822.46959637,N,00429.53105534,W,1,05,2.87,160.00,M,-21.3213,M,,*6C
$GPGGA,090220.00,4822.46676807,N,00429.52985683,W,1,05,2.87,160.00,M,-21.3213,M,,*62
$GPGGA,090220.50,4822.46383591,N,00429.52861423,W,1,05,2.87,160.00,M,-21.3213,M,,*69
$GPGGA,090221.00,4822.46100766,N,00429.52741554,W,1,05,2.87,160.00,M,-21.3213,M,,*62
$GPGGA,090221.50,4822.45807560,N,00429.52617261,W,1,05,2.87,160.00,M,-21.3213,M,,*6D
$GPGGA,090222.00,4822.45524752,N,00429.52497336,W,1,05,2.87,160.00,M,-21.3213,M,,*6D
$GPGGA,090222.50,4822.45231575,N,00429.52372942,W,1,05,2.87,160.00,M,-21.3213,M,,*69
$GPGGA,090223.00,4822.44948816,N,00429.52252845,W,1,05,2.87,160.00,M,-21.3213,M,,*64
$GPGGA,090223.50,4822.44655729,N,00429.52128139,W,1,05,2.87,160.00,M,-21.3213,M,,*6D
$GPGGA,090224.00,4822.44373122,N,00429.52007519,W,1,05,2.87,160.00,M,-21.3213,M,,*69
$GPGGA,090224.50,4822.44080306,N,00429.51881864,W,1,05,2.87,160.00,M,-21.3213,M,,*65
$GPGGA,090225.00,4822.43787797,N,00429.51755130,W,1,05,2.87,160.00,M,-21.3213,M,,*64
$GPGGA,090225.50,4822.43506160,N,00429.51631097,W,1,05,2.87,160.00,M,-21.3213,M,,*6B
$GPGGA,090226.00,4822.43215073,N,00429.51499252,W,1,05,2.87,160.00,M,-21.3213,M,,*60
$GPGGA,090226.50,4822.42935784,N,00429.51366618,W,1,05,2.87,160.00,M,-21.3213,M,,*6F
$GPGGA,090227.00,4822.42648753,N,00429.51219147,W,1,05,2.87,160.00,M,-21.3213,M,,*60
$GPGGA,090227.50,4822.42364838,N,00429.51058433,W,1,05,2.87,160.00,M,-21.3213,M,,*6D
$GPGGA,090228.00,4822.42092789,N,00429.50895158,W,1,05,2.87,160.00,M,-21.3213,M,,*68
$GPGGA,090228.50,4822.41811748,N,00429.50720944,W,1,05,2.87,160.00,M,-21.3213,M,,*64
$GPGGA,090229.00,4822.41531282,N,00429.50543848,W,1,05,2.87,160.00,M,-21.3213,M,,*66
$GPGGA,090229.50,4822.41261063,N,00429.50371464,W,1,05,2.87,160.00,M,-21.3213,M,,*69
$GPGGA,090230.00,4822.40981093,N,00429.50191820,W,1,05,2.87,160.00,M,-21.3213,M,,*6F
$GPGGA,090230.50,4822.40711143,N,00429.50018027,W,1,05,2.87,160.00,M,-21.3213,M,,*6E
$GPGGA,090231.00,4822.40431335,N,00429.49837546,W,1,05,2.87,160.00,M,-21.3213,M,,*67
$GPGGA,090231.50,4822.40161473,N,00429.49663290,W,1,05,2.87,160.00,M,-21.3213,M,,*64
$GPGGA,090232.00,4822.39881717,N,00429.49482534,W,1,05,2.87,160.00,M,-21.3213,M,,*6E
$GPGGA,090232.50,4822.39611884,N,00429.49308127,W,1,05,2.87,160.00,M,-21.3213,M,,*6A
$GPGGA,090233.00,4822.39332145,N,00429.49127282,W,1,05,2.87,160.00,M,-21.3213,M,,*6D
$GPGGA,090233.50,4822.39052409,N,00429.48946417,W,1,05,2.87,160.00,M,-21.3213,M,,*64
$GPGGA,090234.00,4822.38782587,N,00429.48771951,W,1,05,2.87,160.00,M,-21.3213,M,,*6F
$GPGGA,090234.50,4822.38502855,N,00429.48591070,W,1,05,2.87,160.00,M,-21.3213,M,,*64
$GPGGA,090235.00,4822.38233035,N,00429.48416595,W,1,05,2.87,160.00,M,-21.3213,M,,*6B
$GPGGA,090235.50,4822.37953304,N,00429.48235710,W,1,05,2.87,160.00,M,-21.3213,M,,*65
$GPGGA,090236.00,4822.37683484,N,00429.48061233,W,1,05,2.87,160.00,M,-21.3213,M,,*69
$GPGGA,090236.50,4822.37403753,N,00429.47880346,W,1,05,2.87,160.00,M,-21.3213,M,,*64
$GPGGA,090237.00,4822.37133933,N,00429.47705868,W,1,05,2.87,160.00,M,-21.3213,M,,*6B
$GPGGA,090237.50,4822.36854202,N,00429.47524982,W,1,05,2.87,160.00,M,-21.3213,M,,*6A
$GPGGA,090238.00,4822.36574471,N,00429.47344095,W,1,05,2.87,160.00,M,-21.3213,M,,*62
$GPGGA,090238.50,4822.36304651,N,00429.47169618,W,1,05,2.87,160.00,M,-21.3213,M,,*68
$GPGGA,090239.00,4822.36024920,N,00429.46988732,W,1,05,2.87,160.00,M,-21.3213,M,,*6B
$GPGGA,090239.50,4822.35755100,N,00429.46814256,W,1,05,2.87,160.00,M,-21.3213,M,,*65
$GPGGA,090240.00,4822.35475369,N,00429.46633370,W,1,05,2.87,160.00,M,-21.3213,M,,*6C
$GPGGA,090240.50,4822.35205549,N,00429.46458894,W,1,05,2.87,160.00,M,-21.3213,M,,*62
$GPGGA,090241.00,4822.34925818,N,00429.46278010,W,1,05,2.87,160.00,M,-21.3213,M,,*67
$GPGGA,090241.50,4822.34655997,N,00429.46103534,W,1,05,2.87,160.00,M,-21.3213,M,,*60
$GPGGA,090242.00,4822.34376266,N,00429.45922650,W,1,05,2.87,160.00,M,-21.3213,M,,*6E
$GPGGA,090242.50,4822.34106446,N,00429.45748175,W,1,05,2.87,160.00,M,-21.3213,M,,*68
$GPGGA,090243.00,4822.33826714,N,00429.45567292,W,1,05,2.87,160.00,M,-21.3213,M,,*61
$GPGGA,090243.50,4822.33546983,N,00429.45386409,W,1,05,2.87,160.00,M,-21.3213,M,,*62
$GPGGA,090244.00,4822.33277163,N,00429.45211935,W,1,05,2.87,160.00,M,-21.3213,M,,*6E
$GPGGA,090244.50,4822.32997431,N,00429.45031053,W,1,05,2.87,160.00,M,-21.3213,M,,*64
$GPGGA,090245.00,4822.32727610,N,00429.44856580,W,1,05,2.87,160.00,M,-21.3213,M,,*67
$GPGGA,090245.50,4822.32447879,N,00429.44675698,W,1,05,2.87,160.00,M,-21.3213,M,,*63
$GPGGA,090246.00,4822.32178058,N,00429.44501225,W,1,05,2.87,160.00,M,-21.3213,M,,*65
$GPGGA,090246.50,4822.31898326,N,00429.44320344,W,1,05,2.87,160.00,M,-21.3213,M,,*6D
$GPGGA,090247.00,4822.31628506,N,00429.44145872,W,1,05,2.87,160.00,M,-21.3213,M,,*67
$GPGGA,090247.50,4822.31348774,N,00429.43964992,W,1,05,2.87,160.00,M,-21.3213,M,,*65
$GPGGA,090248.00,4822.31069042,N,00429.43784112,W,1,05,2.87,160.00,M,-21.3213,M,,*6D
$GPGGA,090248.50,4822.30799221,N,00429.43609641,W,1,05,2.87,160.00,M,-21.3213,M,,*63
$GPGGA,090249.00,4822.30519489,N,00429.43428762,W,1,05,2.87,160.00,M,-21.3213,M,,*68
$GPGGA,090249.50,4822.30249668,N,00429.43254291,W,1,05,2.87,160.00,M,-21.3213,M,,*66
$GPGGA,090250.00,4822.29969936,N,00429.43073412,W,1,05,2.87,160.00,M,-21.3213,M,,*64
$GPGGA,090250.50,4822.29700115,N,00429.42898943,W,1,05,2.87,160.00,M,-21.3213,M,,*6C
$GPGGA,090251.00,4822.29420383,N,00429.42718064,W,1,05,2.87,160.00,M,-21.3213,M,,*6F
$GPGGA,090251.50,4822.29150561,N,00429.42543595,W,1,05,2.87,160.00,M,-21.3213,M,,*65
$GPGGA,090252.00,4822.28870829,N,00429.42362718,W,1,05,2.87,160.00,M,-21.3213,M,,*6A
$GPGGA,090252.50,4822.28591097,N,00429.42181840,W,1,05,2.87,160.00,M,-21.3213,M,,*6D
$GPGGA,090253.00,4822.28321276,N,00429.42007372,W,1,05,2.87,160.00,M,-21.3213,M,,*6C
$GPGGA,090253.50,4822.28041543,N,00429.41826495,W,1,05,2.87,160.00,M,-21.3213,M,,*6B
$GPGGA,090254.00,4822.27771722,N,00429.41652027,W,1,05,2.87,160.00,M,-21.3213,M,,*67
$GPGGA,090254.50,4822.27491990,N,00429.41471150,W,1,05,2.87,160.00,M,-21.3213,M,,*6A
$GPGGA,090255.00,4822.27222169,N,00429.41296681,W,1,05,2.87,160.00,M,-21.3213,M,,*6A
$GPGGA,090255.50,4822.26942437,N,00429.41115803,W,1,05,2.87,160.00,M,-21.3213,M,,*61
$GPGGA,090256.00,4822.26672617,N,00429.40941331,W,1,05,2.87,160.00,M,-21.3213,M,,*69
$GPGGA,090256.50,4822.26392887,N,00429.40760447,W,1,05,2.87,160.00,M,-21.3213,M,,*6B
$GPGGA,090257.00,4822.26123070,N,00429.40585964,W,1,05,2.87,160.00,M,-21.3213,M,,*62
$GPGGA,090257.50,4822.25843345,N,00429.40405060,W,1,05,2.87,160.00,M,-21.3213,M,,*6A
$GPGGA,090258.00,4822.25563627,N,00429.40224134,W,1,05,2.87,160.00,M,-21.3213,M,,*6B
$GPGGA,090258.50,4822.25293830,N,00429.40049580,W,1,05,2.87,160.00,M,-21.3213,M,,*6C
$GPGGA,090259.00,4822.25014142,N,00429.39868545,W,1,05,2.87,160.00,M,-21.3213,M,,*65
$GPGGA,090259.50,4822.24744396,N,00429.39693810,W,1,05,2.87,160.00,M,-21.3213,M,,*6F
$GPGGA,090300.00,4822.24464800,N,00429.39512445,W,1,05,2.87,160.00,M,-21.3213,M,,*64
$GPGGA,090300.50,4822.24195209,N,00429.39337153,W,1,05,2.87,160.00,M,-21.3213,M,,*6A
$GPGGA,090301.00,4822.23915893,N,00429.39154780,W,1,05,2.87,160.00,M,-21.3213,M,,*6F
$GPGGA,090301.50,4822.23646770,N,00429.38977789,W,1,05,2.87,160.00,M,-21.3213,M,,*60
$GPGGA,090302.00,4822.23368213,N,00429.38792644,W,1,05,2.87,160.00,M,-21.3213,M,,*6A
$GPGGA,090302.50,4822.23089987,N,00429.38606279,W,1,05,2.87,160.00,M,-21.3213,M,,*63
$GPGGA,090303.00,4822.22821794,N,00429.38425856,W,1,05,2.87,160.00,M,-21.3213,M,,*64
$GPGGA,090303.50,4822.22543857,N,00429.38238416,W,1,05,2.87,160.00,M,-21.3213,M,,*6A
$GPGGA,090304.00,4822.22275823,N,00429.38057399,W,1,05,2.87,160.00,M,-21.3213,M,,*62
$GPGGA,090304.50,4822.21997979,N,00429.37869606,W,1,05,2.87,160.00,M,-21.3213,M,,*64
$GPGGA,090305.00,4822.21729997,N,00429.37688394,W,1,05,2.87,160.00,M,-21.3213,M,,*64
$GPGGA,090305.50,4822.21452185,N,00429.37500486,W,1,05,2.87,160.00,M,-21.3213,M,,*62
$GPGGA,090306.00,4822.21184219,N,00429.37319211,W,1,05,2.87,160.00,M,-21.3213,M,,*6A
$GPGGA,090306.50,4822.20906417,N,00429.37131266,W,1,05,2.87,160.00,M,-21.3213,M,,*6C
$GPGGA,090307.00,4822.20638457,N,00429.36949970,W,1,05,2.87,160.00,M,-21.3213,M,,*64
$GPGGA,090307.50,4822.20360657,N,00429.36762013,W,1,05,2.87,160.00,M,-21.3213,M,,*60
$GPGGA,090308.00,4822.20092699,N,00429.36580712,W,1,05,2.87,160.00,M,-21.3213,M,,*6E
$GPGGA,090308.50,4822.19814901,N,00429.36392751,W,1,05,2.87,160.00,M,-21.3213,M,,*6B
$GPGGA,090309.00,4822.19537103,N,00429.36204790,W,1,05,2.87,160.00,M,-21.3213,M,,*6A
$GPGGA,090309.50,4822.19269145,N,00429.36023487,W,1,05,2.87,160.00,M,-21.3213,M,,*63
$GPGGA,090310.00,4822.18991347,N,00429.35835525,W,1,05,2.87,160.00,M,-21.3213,M,,*66
$GPGGA,090310.50,4822.18723390,N,00429.35654222,W,1,05,2.87,160.00,M,-21.3213,M,,*67
$GPGGA,090311.00,4822.18445592,N,00429.35466261,W,1,05,2.87,160.00,M,-21.3213,M,,*60
$GPGGA,090311.50,4822.18177634,N,00429.35284959,W,1,05,2.87,160.00,M,-21.3213,M,,*64
$GPGGA,090312.00,4822.17899836,N,00429.35096999,W,1,05,2.87,160.00,M,-21.3213,M,,*65
$GPGGA,090312.50,4822.17631878,N,00429.34915697,W,1,05,2.87,160.00,M,-21.3213,M,,*64
$GPGGA,090313.00,4822.17354080,N,00429.34727737,W,1,05,2.87,160.00,M,-21.3213,M,,*6D
$GPGGA,090313.50,4822.17086122,N,00429.34546436,W,1,05,2.87,160.00,M,-21.3213,M,,*6A
$GPGGA,090314.00,4822.16808324,N,00429.34358477,W,1,05,2.87,160.00,M,-21.3213,M,,*6F
$GPGGA,090314.50,4822.16540366,N,00429.34177176,W,1,05,2.87,160.00,M,-21.3213,M,,*66
$GPGGA,090315.00,4822.16262567,N,00429.33989218,W,1,05,2.87,160.00,M,-21.3213,M,,*67
$GPGGA,090315.50,4822.15984769,N,00429.33801260,W,1,05,2.87,160.00,M,-21.3213,M,,*60
$GPGGA,090316.00,4822.15716810,N,00429.33619960,W,1,05,2.87,160.00,M,-21.3213,M,,*6E
$GPGGA,090316.50,4822.15439012,N,00429.33432003,W,1,05,2.87,160.00,M,-21.3213,M,,*68
$GPGGA,090317.00,4822.15171054,N,00429.33250704,W,1,05,2.87,160.00,M,-21.3213,M,,*65
$GPGGA,090317.50,4822.14893255,N,00429.33062747,W,1,05,2.87,160.00,M,-21.3213,M,,*63
$GPGGA,090318.00,4822.14625297,N,00429.32881449,W,1,05,2.87,160.00,M,-21.3213,M,,*6D
$GPGGA,090318.50,4822.14347498,N,00429.32693493,W,1,05,2.87,160.00,M,-21.3213,M,,*6A
$GPGGA,090319.00,4822.14079539,N,00429.32512195,W,1,05,2.87,160.00,M,-21.3213,M,,*63
$GPGGA,090319.50,4822.13801740,N,00429.32324240,W,1,05,2.87,160.00,M,-21.3213,M,,*62
$GPGGA,090320.00,4822.13533782,N,00429.32142943,W,1,05,2.87,160.00,M,-21.3213,M,,*65
$GPGGA,090320.50,4822.13255983,N,00429.31954988,W,1,05,2.87,160.00,M,-21.3213,M,,*63
$GPGGA,090321.00,4822.12988024,N,00429.31773692,W,1,05,2.87,160.00,M,-21.3213,M,,*66
$GPGGA,090321.50,4822.12710225,N,00429.31585738,W,1,05,2.87,160.00,M,-21.3213,M,,*65
$GPGGA,090322.00,4822.12432426,N,00429.31397785,W,1,05,2.87,160.00,M,-21.3213,M,,*66
$GPGGA,090322.50,4822.12164467,N,00429.31216490,W,1,05,2.87,160.00,M,-21.3213,M,,*6F
$GPGGA,090323.00,4822.11886668,N,00429.31028539,W,1,05,2.87,160.00,M,-21.3213,M,,*6D
$GPGGA,090323.50,4822.11618709,N,00429.30847246,W,1,05,2.87,160.00,M,-21.3213,M,,*68
$GPGGA,090324.00,4822.11340910,N,00429.30659297,W,1,05,2.87,160.00,M,-21.3213,M,,*69
$GPGGA,090324.50,4822.11072952,N,00429.30478009,W,1,05,2.87,160.00,M,-21.3213,M,,*6C
$GPGGA,090325.00,4822.10795153,N,00429.30290069,W,1,05,2.87,160.00,M,-21.3213,M,,*68
$GPGGA,090325.50,4822.10527196,N,00429.30108795,W,1,05,2.87,160.00,M,-21.3213,M,,*69
$GPGGA,090326.00,4822.10249400,N,00429.29920878,W,1,05,2.87,160.00,M,-21.3213,M,,*6C
$GPGGA,090326.50,4822.09981446,N,00429.29739644,W,1,05,2.87,160.00,M,-21.3213,M,,*6B
$GPGGA,090327.00,4822.09703656,N,00429.29551799,W,1,05,2.87,160.00,M,-21.3213,M,,*65
$GPGGA,090327.50,4822.09435715,N,00429.29370685,W,1,05,2.87,160.00,M,-21.3213,M,,*69
$GPGGA,090328.00,4822.09157945,N,00429.29183057,W,1,05,2.87,160.00,M,-21.3213,M,,*6E
$GPGGA,090328.50,4822.08880198,N,00429.28995673,W,1,05,2.87,160.00,M,-21.3213,M,,*6F
$GPGGA,090329.00,4822.08612332,N,00429.28815338,W,1,05,2.87,160.00,M,-21.3213,M,,*6F
$GPGGA,090329.50,4822.08334692,N,00429.28629114,W,1,05,2.87,160.00,M,-21.3213,M,,*69
$GPGGA,090330.00,4822.08067018,N,00429.28450731,W,1,05,2.87,160.00,M,-21.3213,M,,*68
$GPGGA,090330.50,4822.07789703,N,00429.28268017,W,1,05,2.87,160.00,M,-21.3213,M,,*66
$GPGGA,090331.00,4822.07512735,N,00429.28089245,W,1,05,2.87,160.00,M,-21.3213,M,,*6F
$GPGGA,090331.50,4822.07236352,N,00429.27917325,W,1,05,2.87,160.00,M,-21.3213,M,,*68
$GPGGA,090332.00,4822.06960918,N,00429.27757197,W,1,05,2.87,160.00,M,-21.3213,M,,*62
$GPGGA,090332.50,4822.06676879,N,00429.27612422,W,1,05,2.87,160.00,M,-21.3213,M,,*62
$GPGGA,090333.00,4822.06383881,N,00429.27500665,W,1,05,2.87,160.00,M,-21.3213,M,,*6F
$GPGGA,090333.50,4822.06088433,N,00429.27451808,W,1,05,2.87,160.00,M,-21.3213,M,,*67
$GPGGA,090334.00,4822.05785551,N,00429.27463157,W,1,05,2.87,160.00,M,-21.3213,M,,*6B
$GPGGA,090334.50,4822.05486537,N,00429.27508129,W,1,05,2.87,160.00,M,-21.3213,M,,*6B
$GPGGA,090335.00,4822.05193741,N,00429.27570103,W,1,05,2.87,160.00,M,-21.3213,M,,*6A
$GPGGA,090335.50,4822.04898348,N,00429.27642729,W,1,05,2.87,160.00,M,-21.3213,M,,*6D
$GPGGA,090336.00,4822.04601419,N,00429.27721527,W,1,05,2.87,160.00,M,-21.3213,M,,*6E
$GPGGA,090336.50,4822.04303595,N,00429.27803870,W,1,05,2.87,160.00,M,-21.3213,M,,*69
$GPGGA,090337.00,4822.04005256,N,00429.27888239,W,1,05,2.87,160.00,M,-21.3213,M,,*64
$GPGGA,090337.50,4822.03717213,N,00429.27970715,W,1,05,2.87,160.00,M,-21.3213,M,,*6E
$GPGGA,090338.00,4822.03418410,N,00429.28056877,W,1,05,2.87,160.00,M,-21.3213,M,,*64
$GPGGA,090338.50,4822.03130104,N,00429.28140346,W,1,05,2.87,160.00,M,-21.3213,M,,*61
$GPGGA,090339.00,4822.02831148,N,00429.28227098,W,1,05,2.87,160.00,M,-21.3213,M,,*66
$GPGGA,090339.50,4822.02542755,N,00429.28310894,W,1,05,2.87,160.00,M,-21.3213,M,,*61
$GPGGA,090340.00,4822.02243749,N,00429.28397838,W,1,05,2.87,160.00,M,-21.3213,M,,*68
$GPGGA,090340.50,4822.01944733,N,00429.28484824,W,1,05,2.87,160.00,M,-21.3213,M,,*67
$GPGGA,090341.00,4822.01656306,N,00429.28568749,W,1,05,2.87,160.00,M,-21.3213,M,,*6A
$GPGGA,090341.50,4822.01357280,N,00429.28655770,W,1,05,2.87,160.00,M,-21.3213,M,,*63
$GPGGA,090342.00,4822.01068847,N,00429.28739715,W,1,05,2.87,160.00,M,-21.3213,M,,*63
$GPGGA,090342.50,4822.00769819,N,00429.28826748,W,1,05,2.87,160.00,M,-21.3213,M,,*63
$GPGGA,090343.00,4822.00481384,N,00429.28910699,W,1,05,2.87,160.00,M,-21.3213,M,,*64
$GPGGA,090343.50,4822.00182355,N,00429.28997735,W,1,05,2.87,160.00,M,-21.3213,M,,*63
$GPGGA,090344.00,4821.99893919,N,00429.29081689,W,1,05,2.87,160.00,M,-21.3213,M,,*60
$GPGGA,090344.50,4821.99594889,N,00429.29168726,W,1,05,2.87,160.00,M,-21.3213,M,,*65
$GPGGA,090345.00,4821.99306454,N,00429.29252679,W,1,05,2.87,160.00,M,-21.3213,M,,*61
$GPGGA,090345.50,4821.99007424,N,00429.29339716,W,1,05,2.87,160.00,M,-21.3213,M,,*65
$GPGGA,090346.00,4821.98708394,N,00429.29426753,W,1,05,2.87,160.00,M,-21.3213,M,,*6E
$GPGGA,090346.50,4821.98419958,N,00429.29510707,W,1,05,2.87,160.00,M,-21.3213,M,,*67
$GPGGA,090347.00,4821.98120928,N,00429.29597744,W,1,05,2.87,160.00,M,-21.3213,M,,*63
$GPGGA,090347.50,4821.97832492,N,00429.29681697,W,1,05,2.87,160.00,M,-21.3213,M,,*64
$GPGGA,090348.00,4821.97533462,N,00429.29768733,W,1,05,2.87,160.00,M,-21.3213,M,,*64
$GPGGA,090348.50,4821.97245027,N,00429.29852686,W,1,05,2.87,160.00,M,-21.3213,M,,*6B
$GPGGA,090349.00,4821.96945996,N,00429.29939722,W,1,05,2.87,160.00,M,-21.3213,M,,*65
$GPGGA,090349.50,4821.96657561,N,00429.30023674,W,1,05,2.87,160.00,M,-21.3213,M,,*60
$GPGGA,090350.00,4821.96358530,N,00429.30110710,W,1,05,2.87,160.00,M,-21.3213,M,,*61
$GPGGA,090350.50,4821.96059500,N,00429.30197746,W,1,05,2.87,160.00,M,-21.3213,M,,*69
$GPGGA,090351.00,4821.95771064,N,00429.30281698,W,1,05,2.87,160.00,M,-21.3213,M,,*62
$GPGGA,090351.50,4821.95472034,N,00429.30368733,W,1,05,2.87,160.00,M,-21.3213,M,,*64
$GPGGA,090352.00,4821.95183598,N,00429.30452685,W,1,05,2.87,160.00,M,-21.3213,M,,*68
$GPGGA,090352.50,4821.94884568,N,00429.30539720,W,1,05,2.87,160.00,M,-21.3213,M,,*6F
$GPGGA,090353.00,4821.94596132,N,00429.30623671,W,1,05,2.87,160.00,M,-21.3213,M,,*63
$GPGGA,090353.50,4821.94297102,N,00429.30710706,W,1,05,2.87,160.00,M,-21.3213,M,,*63
$GPGGA,090354.00,4821.94008666,N,00429.30794657,W,1,05,2.87,160.00,M,-21.3213,M,,*69
$GPGGA,090354.50,4821.93709636,N,00429.30881691,W,1,05,2.87,160.00,M,-21.3213,M,,*69
$GPGGA,090355.00,4821.93421200,N,00429.30965642,W,1,05,2.87,160.00,M,-21.3213,M,,*60
$GPGGA,090355.50,4821.93122170,N,00429.31052676,W,1,05,2.87,160.00,M,-21.3213,M,,*6C
$GPGGA,090356.00,4821.92823139,N,00429.31139710,W,1,05,2.87,160.00,M,-21.3213,M,,*63
$GPGGA,090356.50,4821.92534703,N,00429.31223660,W,1,05,2.87,160.00,M,-21.3213,M,,*6C
$GPGGA,090357.00,4821.92235673,N,00429.31310694,W,1,05,2.87,160.00,M,-21.3213,M,,*62
$GPGGA,090357.50,4821.91947237,N,00429.31394643,W,1,05,2.87,160.00,M,-21.3213,M,,*68
$GPGGA,090358.00,4821.91648206,N,00429.31481677,W,1,05,2.87,160.00,M,-21.3213,M,,*64
$GPGGA,090358.50,4821.91359770,N,00429.31565626,W,1,05,2.87,160.00,M,-21.3213,M,,*6F
$GPGGA,090359.00,4821.91060740,N,00429.31652659,W,1,05,2.87,160.00,M,-21.3213,M,,*6E
$GPGGA,090359.50,4821.90772304,N,00429.31736608,W,1,05,2.87,160.00,M,-21.3213,M,,*6D
$GPGGA,090400.00,4821.90473273,N,00429.31823641,W,1,05,2.87,160.00,M,-21.3213,M,,*66
$GPGGA,090400.50,4821.90174243,N,00429.31910673,W,1,05,2.87,160.00,M,-21.3213,M,,*62
$GPGGA,090401.00,4821.89885807,N,00429.31994622,W,1,05,2.87,160.00,M,-21.3213,M,,*6B
$GPGGA,090401.50,4821.89586776,N,00429.32081654,W,1,05,2.87,160.00,M,-21.3213,M,,*66
$GPGGA,090402.00,4821.89298340,N,00429.32165602,W,1,05,2.87,160.00,M,-21.3213,M,,*61
$GPGGA,090402.50,4821.88999310,N,00429.32252634,W,1,05,2.87,160.00,M,-21.3213,M,,*68
$GPGGA,090403.00,4821.88710874,N,00429.32336582,W,1,05,2.87,160.00,M,-21.3213,M,,*67
$GPGGA,090403.50,4821.88411843,N,00429.32423614,W,1,05,2.87,160.00,M,-21.3213,M,,*6B
$GPGGA,090404.00,4821.88123407,N,00429.32507561,W,1,05,2.87,160.00,M,-21.3213,M,,*67
$GPGGA,090404.50,4821.87824377,N,00429.32594593,W,1,05,2.87,160.00,M,-21.3213,M,,*64
$GPGGA,090405.00,4821.87535941,N,00429.32678540,W,1,05,2.87,160.00,M,-21.3213,M,,*6D
$GPGGA,090405.50,4821.87236911,N,00429.32765572,W,1,05,2.87,160.00,M,-21.3213,M,,*65
$GPGGA,090406.00,4821.86937882,N,00429.32852604,W,1,05,2.87,160.00,M,-21.3213,M,,*6A
$GPGGA,090406.50,4821.86649448,N,00429.32936553,W,1,05,2.87,160.00,M,-21.3213,M,,*61
$GPGGA,090407.00,4821.86350421,N,00429.33023586,W,1,05,2.87,160.00,M,-21.3213,M,,*63
$GPGGA,090407.50,4821.86061992,N,00429.33107539,W,1,05,2.87,160.00,M,-21.3213,M,,*61
$GPGGA,090408.00,4821.85762974,N,00429.33194580,W,1,05,2.87,160.00,M,-21.3213,M,,*6C
$GPGGA,090408.50,4821.85474560,N,00429.33278545,W,1,05,2.87,160.00,M,-21.3213,M,,*6C
$GPGGA,090409.00,4821.85175568,N,00429.33365608,W,1,05,2.87,160.00,M,-21.3213,M,,*63
$GPGGA,090409.50,4821.84887199,N,00429.33449610,W,1,05,2.87,160.00,M,-21.3213,M,,*69
$GPGGA,090410.00,4821.84588288,N,00429.33536741,W,1,05,2.87,160.00,M,-21.3213,M,,*69
$GPGGA,090410.50,4821.84289466,N,00429.33623951,W,1,05,2.87,160.00,M,-21.3213,M,,*64
$GPGGA,090411.00,4821.84001389,N,00429.33708198,W,1,05,2.87,160.00,M,-21.3213,M,,*61
$GPGGA,090411.50,4821.83702997,N,00429.33795776,W,1,05,2.87,160.00,M,-21.3213,M,,*60
$GPGGA,090412.00,4821.83415654,N,00429.33880638,W,1,05,2.87,160.00,M,-21.3213,M,,*63
$GPGGA,090412.50,4821.83118571,N,00429.33969333,W,1,05,2.87,160.00,M,-21.3213,M,,*62
$GPGGA,090413.00,4821.82822955,N,00429.34059288,W,1,05,2.87,160.00,M,-21.3213,M,,*61
$GPGGA,090413.50,4821.82529902,N,00429.34151439,W,1,05,2.87,160.00,M,-21.3213,M,,*65
$GPGGA,090414.00,4821.82241307,N,00429.34247372,W,1,05,2.87,160.00,M,-21.3213,M,,*6D
$GPGGA,090414.50,4821.81950294,N,00429.34353623,W,1,05,2.87,160.00,M,-21.3213,M,,*6E
$GPGGA,090415.00,4821.81653622,N,00429.34480762,W,1,05,2.87,160.00,M,-21.3213,M,,*62
$GPGGA,090415.50,4821.81373363,N,00429.34636940,W,1,05,2.87,160.00,M,-21.3213,M,,*61
$GPGGA,090416.00,4821.81119351,N,00429.34850894,W,1,05,2.87,160.00,M,-21.3213,M,,*6E
$GPGGA,090416.50,4821.80910840,N,00429.35173759,W,1,05,2.87,160.00,M,-21.3213,M,,*67
$GPGGA,090417.00,4821.80752691,N,00429.35567697,W,1,05,2.87,160.00,M,-21.3213,M,,*6B
$GPGGA,090417.50,4821.80630035,N,00429.35962598,W,1,05,2.87,160.00,M,-21.3213,M,,*66
$GPGGA,090418.00,4821.80515841,N,00429.36387226,W,1,05,2.87,160.00,M,-21.3213,M,,*63
$GPGGA,090418.50,4821.80410297,N,00429.36814219,W,1,05,2.87,160.00,M,-21.3213,M,,*6E
$GPGGA,090419.00,4821.80310965,N,00429.37235636,W,1,05,2.87,160.00,M,-21.3213,M,,*6A
$GPGGA,090419.50,4821.80213070,N,00429.37662348,W,1,05,2.87,160.00,M,-21.3213,M,,*6A
$GPGGA,090420.00,4821.80119444,N,00429.38076794,W,1,05,2.87,160.00,M,-21.3213,M,,*66
$GPGGA,090420.50,4821.80022838,N,00429.38508251,W,1,05,2.87,160.00,M,-21.3213,M,,*6D
$GPGGA,090421.00,4821.79926509,N,00429.38940710,W,1,05,2.87,160.00,M,-21.3213,M,,*6D
$GPGGA,090421.50,4821.79833744,N,00429.39358384,W,1,05,2.87,160.00,M,-21.3213,M,,*6D
$GPGGA,090422.00,4821.79737659,N,00429.39791734,W,1,05,2.87,160.00,M,-21.3213,M,,*63
$GPGGA,090422.50,4821.79645027,N,00429.40209906,W,1,05,2.87,160.00,M,-21.3213,M,,*68
$GPGGA,090423.00,4821.79549022,N,00429.40643549,W,1,05,2.87,160.00,M,-21.3213,M,,*6B
$GPGGA,090423.50,4821.79453033,N,00429.41077253,W,1,05,2.87,160.00,M,-21.3213,M,,*68
$GPGGA,090424.00,4821.79360454,N,00429.41495623,W,1,05,2.87,160.00,M,-21.3213,M,,*63
$GPGGA,090424.50,4821.79264479,N,00429.41929381,W,1,05,2.87,160.00,M,-21.3213,M,,*6B
$GPGGA,090425.00,4821.79171908,N,00429.42347781,W,1,05,2.87,160.00,M,-21.3213,M,,*66
$GPGGA,090425.50,4821.79075938,N,00429.42781556,W,1,05,2.87,160.00,M,-21.3213,M,,*63
$GPGGA,090426.00,4821.78983369,N,00429.43199965,W,1,05,2.87,160.00,M,-21.3213,M,,*68
$GPGGA,090426.50,4821.78887399,N,00429.43633746,W,1,05,2.87,160.00,M,-21.3213,M,,*6F
$GPGGA,090427.00,4821.78794831,N,00429.44052158,W,1,05,2.87,160.00,M,-21.3213,M,,*60
$GPGGA,090427.50,4821.78698861,N,00429.44485940,W,1,05,2.87,160.00,M,-21.3213,M,,*62
$GPGGA,090428.00,4821.78602892,N,00429.44919722,W,1,05,2.87,160.00,M,-21.3213,M,,*65
$GPGGA,090428.50,4821.78510323,N,00429.45338135,W,1,05,2.87,160.00,M,-21.3213,M,,*69
$GPGGA,090429.00,4821.78414353,N,00429.45771917,W,1,05,2.87,160.00,M,-21.3213,M,,*6E
$GPGGA,090429.50,4821.78321784,N,00429.46190330,W,1,05,2.87,160.00,M,-21.3213,M,,*61
$GPGGA,090430.00,4821.78225813,N,00429.46624111,W,1,05,2.87,160.00,M,-21.3213,M,,*61
$GPGGA,090430.50,4821.78133243,N,00429.47042523,W,1,05,2.87,160.00,M,-21.3213,M,,*6D
$GPGGA,090431.00,4821.78037272,N,00429.47476304,W,1,05,2.87,160.00,M,-21.3213,M,,*6E
$GPGGA,090431.50,4821.77944702,N,00429.47894716,W,1,05,2.87,160.00,M,-21.3213,M,,*6C
$GPGGA,090432.00,4821.77848730,N,00429.48328496,W,1,05,2.87,160.00,M,-21.3213,M,,*6E
$GPGGA,090432.50,4821.77752759,N,00429.48762276,W,1,05,2.87,160.00,M,-21.3213,M,,*62
$GPGGA,090433.00,4821.77660187,N,00429.49180687,W,1,05,2.87,160.00,M,-21.3213,M,,*62
$GPGGA,090433.50,4821.77564215,N,00429.49614467,W,1,05,2.87,160.00,M,-21.3213,M,,*6E
$GPGGA,090434.00,4821.77471643,N,00429.50032877,W,1,05,2.87,160.00,M,-21.3213,M,,*69
$GPGGA,090434.50,4821.77375671,N,00429.50466656,W,1,05,2.87,160.00,M,-21.3213,M,,*66
$GPGGA,090435.00,4821.77283098,N,00429.50885066,W,1,05,2.87,160.00,M,-21.3213,M,,*6F
$GPGGA,090435.50,4821.77187125,N,00429.51318845,W,1,05,2.87,160.00,M,-21.3213,M,,*6D
$GPGGA,090436.00,4821.77094552,N,00429.51737254,W,1,05,2.87,160.00,M,-21.3213,M,,*6F
$GPGGA,090436.50,4821.76998578,N,00429.52171032,W,1,05,2.87,160.00,M,-21.3213,M,,*63
$GPGGA,090437.00,4821.76906005,N,00429.52589441,W,1,05,2.87,160.00,M,-21.3213,M,,*6C
$GPGGA,090437.50,4821.76810031,N,00429.53023218,W,1,05,2.87,160.00,M,-21.3213,M,,*66
$GPGGA,090438.00,4821.76714056,N,00429.53456996,W,1,05,2.87,160.00,M,-21.3213,M,,*6D
$GPGGA,090438.50,4821.76621482,N,00429.53875404,W,1,05,2.87,160.00,M,-21.3213,M,,*69
$GPGGA,090439.00,4821.76525507,N,00429.54309180,W,1,05,2.87,160.00,M,-21.3213,M,,*68
$GPGGA,090439.50,4821.76432932,N,00429.54727588,W,1,05,2.87,160.00,M,-21.3213,M,,*64
$GPGGA,090440.00,4821.76336956,N,00429.55161364,W,1,05,2.87,160.00,M,-21.3213,M,,*6F
$GPGGA,090440.50,4821.76244381,N,00429.55579771,W,1,05,2.87,160.00,M,-21.3213,M,,*63
$GPGGA,090441.00,4821.76148405,N,00429.56013547,W,1,05,2.87,160.00,M,-21.3213,M,,*6E
$GPGGA,090441.50,4821.76055829,N,00429.56431953,W,1,05,2.87,160.00,M,-21.3213,M,,*69
$GPGGA,090442.00,4821.75959852,N,00429.56865728,W,1,05,2.87,160.00,M,-21.3213,M,,*6A
$GPGGA,090442.50,4821.75863875,N,00429.57299503,W,1,05,2.87,160.00,M,-21.3213,M,,*61
$GPGGA,090443.00,4821.75771299,N,00429.57717909,W,1,05,2.87,160.00,M,-21.3213,M,,*64
$GPGGA,090443.50,4821.75675321,N,00429.58151683,W,1,05,2.87,160.00,M,-21.3213,M,,*60
$GPGGA,090444.00,4821.75582744,N,00429.58570088,W,1,05,2.87,160.00,M,-21.3213,M,,*64
$GPGGA,090444.50,4821.75486766,N,00429.59003862,W,1,05,2.87,160.00,M,-21.3213,M,,*68
$GPGGA,090445.00,4821.75394188,N,00429.59422267,W,1,05,2.87,160.00,M,-21.3213,M,,*66
$GPGGA,090445.50,4821.75298210,N,00429.59856040,W,1,05,2.87,160.00,M,-21.3213,M,,*64
$GPGGA,090446.00,4821.75205632,N,00429.60274444,W,1,05,2.87,160.00,M,-21.3213,M,,*62
$GPGGA,090446.50,4821.75109652,N,00429.60708217,W,1,05,2.87,160.00,M,-21.3213,M,,*60
$GPGGA,090447.00,4821.75013673,N,00429.61141990,W,1,05,2.87,160.00,M,-21.3213,M,,*63
$GPGGA,090447.50,4821.74921094,N,00429.61560393,W,1,05,2.87,160.00,M,-21.3213,M,,*6E
$GPGGA,090448.00,4821.74825114,N,00429.61994165,W,1,05,2.87,160.00,M,-21.3213,M,,*64
$GPGGA,090448.50,4821.74732535,N,00429.62412568,W,1,05,2.87,160.00,M,-21.3213,M,,*66
$GPGGA,090449.00,4821.74636554,N,00429.62846339,W,1,05,2.87,160.00,M,-21.3213,M,,*6F
$GPGGA,090449.50,4821.74543974,N,00429.63264741,W,1,05,2.87,160.00,M,-21.3213,M,,*65
$GPGGA,090450.00,4821.74447993,N,00429.63698512,W,1,05,2.87,160.00,M,-21.3213,M,,*67
$GPGGA,090450.50,4821.74355413,N,00429.64116914,W,1,05,2.87,160.00,M,-21.3213,M,,*6F
$GPGGA,090451.00,4821.74259431,N,00429.64550684,W,1,05,2.87,160.00,M,-21.3213,M,,*66
$GPGGA,090451.50,4821.74163450,N,00429.64984455,W,1,05,2.87,160.00,M,-21.3213,M,,*65
$GPGGA,090452.00,4821.74070868,N,00429.65402856,W,1,05,2.87,160.00,M,-21.3213,M,,*6A
$GPGGA,090452.50,4821.73974886,N,00429.65836625,W,1,05,2.87,160.00,M,-21.3213,M,,*64
$GPGGA,090453.00,4821.73882304,N,00429.66255026,W,1,05,2.87,160.00,M,-21.3213,M,,*60
$GPGGA,090453.50,4821.73786321,N,00429.66688795,W,1,05,2.87,160.00,M,-21.3213,M,,*62
$GPGGA,090454.00,4821.73693739,N,00429.67107195,W,1,05,2.87,160.00,M,-21.3213,M,,*6F
$GPGGA,090454.50,4821.73597756,N,00429.67540963,W,1,05,2.87,160.00,M,-21.3213,M,,*62
$GPGGA,090455.00,4821.73505173,N,00429.67959363,W,1,05,2.87,160.00,M,-21.3213,M,,*62
$GPGGA,090455.50,4821.73409189,N,00429.68393131,W,1,05,2.87,160.00,M,-21.3213,M,,*69
$GPGGA,090456.00,4821.73316605,N,00429.68811529,W,1,05,2.87,160.00,M,-21.3213,M,,*69
$GPGGA,090456.50,4821.73220621,N,00429.69245297,W,1,05,2.87,160.00,M,-21.3213,M,,*66
$GPGGA,090457.00,4821.73124636,N,00429.69679064,W,1,05,2.87,160.00,M,-21.3213,M,,*66
$GPGGA,090457.50,4821.73032052,N,00429.70097462,W,1,05,2.87,160.00,M,-21.3213,M,,*6D
$GPGGA,090458.00,4821.72936067,N,00429.70531229,W,1,05,2.87,160.00,M,-21.3213,M,,*6D
$GPGGA,090458.50,4821.72843482,N,00429.70949627,W,1,05,2.87,160.00,M,-21.3213,M,,*6D
$GPGGA,090459.00,4821.72747496,N,00429.71383393,W,1,05,2.87,160.00,M,-21.3213,M,,*60
$GPGGA,090459.50,4821.72654911,N,00429.71801790,W,1,05,2.87,160.00,M,-21.3213,M,,*62
$GPGGA,090500.00,4821.72558925,N,00429.72235555,W,1,05,2.87,160.00,M,-21.3213,M,,*67
$GPGGA,090500.50,4821.72466339,N,00429.72653952,W,1,05,2.87,160.00,M,-21.3213,M,,*66
$GPGGA,090501.00,4821.72370352,N,00429.73087717,W,1,05,2.87,160.00,M,-21.3213,M,,*6E
$GPGGA,090501.50,4821.72274365,N,00429.73521482,W,1,05,2.87,160.00,M,-21.3213,M,,*6C
$GPGGA,090502.00,4821.72181779,N,00429.73939878,W,1,05,2.87,160.00,M,-21.3213,M,,*66
$GPGGA,090502.50,4821.72085791,N,00429.74373642,W,1,05,2.87,160.00,M,-21.3213,M,,*64
$GPGGA,090503.00,4821.71993204,N,00429.74792037,W,1,05,2.87,160.00,M,-21.3213,M,,*6B
$GPGGA,090503.50,4821.71897216,N,00429.75225801,W,1,05,2.87,160.00,M,-21.3213,M,,*6D
$GPGGA,090504.00,4821.71804628,N,00429.75644196,W,1,05,2.87,160.00,M,-21.3213,M,,*68
$GPGGA,090504.50,4821.71708639,N,00429.76077959,W,1,05,2.87,160.00,M,-21.3213,M,,*60
$GPGGA,090505.00,4821.71616051,N,00429.76496353,W,1,05,2.87,160.00,M,-21.3213,M,,*69
$GPGGA,090505.50,4821.71520062,N,00429.76930116,W,1,05,2.87,160.00,M,-21.3213,M,,*68
$GPGGA,090506.00,4821.71424072,N,00429.77363879,W,1,05,2.87,160.00,M,-21.3213,M,,*67
$GPGGA,090506.50,4821.71331484,N,00429.77782272,W,1,05,2.87,160.00,M,-21.3213,M,,*66
$GPGGA,090507.00,4821.71235493,N,00429.78216034,W,1,05,2.87,160.00,M,-21.3213,M,,*66
$GPGGA,090507.50,4821.71142904,N,00429.78634427,W,1,05,2.87,160.00,M,-21.3213,M,,*61
$GPGGA,090508.00,4821.71046913,N,00429.79068188,W,1,05,2.87,160.00,M,-21.3213,M,,*66
$GPGGA,090508.50,4821.70954324,N,00429.79486581,W,1,05,2.87,160.00,M,-21.3213,M,,*6F
$GPGGA,090509.00,4821.70858332,N,00429.79920341,W,1,05,2.87,160.00,M,-21.3213,M,,*6A
$GPGGA,090509.50,4821.70765742,N,00429.80338733,W,1,05,2.87,160.00,M,-21.3213,M,,*69
$GPGGA,090510.00,4821.70669750,N,00429.80772493,W,1,05,2.87,160.00,M,-21.3213,M,,*69
$GPGGA,090510.50,4821.70573758,N,00429.81206253,W,1,05,2.87,160.00,M,-21.3213,M,,*61
$GPGGA,090511.00,4821.70481166,N,00429.81624644,W,1,05,2.87,160.00,M,-21.3213,M,,*64
$GPGGA,090511.50,4821.70385172,N,00429.82058403,W,1,05,2.87,160.00,M,-21.3213,M,,*68
$GPGGA,090512.00,4821.70292579,N,00429.82476793,W,1,05,2.87,160.00,M,-21.3213,M,,*64
$GPGGA,090512.50,4821.70196582,N,00429.82910550,W,1,05,2.87,160.00,M,-21.3213,M,,*62
$GPGGA,090513.00,4821.70103985,N,00429.83328937,W,1,05,2.87,160.00,M,-21.3213,M,,*6C
$GPGGA,090513.50,4821.70007981,N,00429.83762690,W,1,05,2.87,160.00,M,-21.3213,M,,*60
$GPGGA,090514.00,4821.69915372,N,00429.84181070,W,1,05,2.87,160.00,M,-21.3213,M,,*62
$GPGGA,090514.50,4821.69819348,N,00429.84614811,W,1,05,2.87,160.00,M,-21.3213,M,,*67
$GPGGA,090515.00,4821.69726704,N,00429.85033171,W,1,05,2.87,160.00,M,-21.3213,M,,*61
$GPGGA,090515.50,4821.69630617,N,00429.85466877,W,1,05,2.87,160.00,M,-21.3213,M,,*6A
$GPGGA,090516.00,4821.69534460,N,00429.85900542,W,1,05,2.87,160.00,M,-21.3213,M,,*6F
$GPGGA,090516.50,4821.69441593,N,00429.86318777,W,1,05,2.87,160.00,M,-21.3213,M,,*60
$GPGGA,090517.00,4821.69345103,N,00429.86752255,W,1,05,2.87,160.00,M,-21.3213,M,,*65
$GPGGA,090517.50,4821.69251677,N,00429.87170175,W,1,05,2.87,160.00,M,-21.3213,M,,*66
$GPGGA,090518.00,4821.69154174,N,00429.87603087,W,1,05,2.87,160.00,M,-21.3213,M,,*61
$GPGGA,090518.50,4821.69059042,N,00429.88020061,W,1,05,2.87,160.00,M,-21.3213,M,,*6C
$GPGGA,090519.00,4821.68958443,N,00429.88451283,W,1,05,2.87,160.00,M,-21.3213,M,,*68
$GPGGA,090519.50,4821.68858784,N,00429.88865834,W,1,05,2.87,160.00,M,-21.3213,M,,*69
$GPGGA,090520.00,4821.68753605,N,00429.89294656,W,1,05,2.87,160.00,M,-21.3213,M,,*65
$GPGGA,090520.50,4821.68647344,N,00429.89722926,W,1,05,2.87,160.00,M,-21.3213,M,,*64
$GPGGA,090521.00,4821.68544263,N,00429.90135728,W,1,05,2.87,160.00,M,-21.3213,M,,*6C
$GPGGA,090521.50,4821.68437047,N,00429.90563519,W,1,05,2.87,160.00,M,-21.3213,M,,*6F
$GPGGA,090522.00,4821.68333437,N,00429.90976057,W,1,05,2.87,160.00,M,-21.3213,M,,*6E
$GPGGA,090522.50,4821.68225908,N,00429.91403691,W,1,05,2.87,160.00,M,-21.3213,M,,*6E
$GPGGA,090523.00,4821.68122125,N,00429.91816142,W,1,05,2.87,160.00,M,-21.3213,M,,*68
$GPGGA,090523.50,4821.68014492,N,00429.92243725,W,1,05,2.87,160.00,M,-21.3213,M,,*6E
$GPGGA,090524.00,4821.67910652,N,00429.92656148,W,1,05,2.87,160.00,M,-21.3213,M,,*6D
$GPGGA,090524.50,4821.67802985,N,00429.93083713,W,1,05,2.87,160.00,M,-21.3213,M,,*68
$GPGGA,090525.00,4821.67695310,N,00429.93511274,W,1,05,2.87,160.00,M,-21.3213,M,,*60
$GPGGA,090525.50,4821.67591446,N,00429.93923685,W,1,05,2.87,160.00,M,-21.3213,M,,*61
$GPGGA,090526.00,4821.67483765,N,00429.94351243,W,1,05,2.87,160.00,M,-21.3213,M,,*61
$GPGGA,090526.50,4821.67379897,N,00429.94763651,W,1,05,2.87,160.00,M,-21.3213,M,,*66
$GPGGA,090527.00,4821.67272214,N,00429.95191207,W,1,05,2.87,160.00,M,-21.3213,M,,*64
$GPGGA,090527.50,4821.67168344,N,00429.95603614,W,1,05,2.87,160.00,M,-21.3213,M,,*67
$GPGGA,090528.00,4821.67060659,N,00429.96031169,W,1,05,2.87,160.00,M,-21.3213,M,,*64
$GPGGA,090528.50,4821.66956789,N,00429.96443576,W,1,05,2.87,160.00,M,-21.3213,M,,*6B
$GPGGA,090529.00,4821.66849103,N,00429.96871130,W,1,05,2.87,160.00,M,-21.3213,M,,*6F
$GPGGA,090529.50,4821.66741417,N,00429.97298684,W,1,05,2.87,160.00,M,-21.3213,M,,*69
$GPGGA,090530.00,4821.66637546,N,00429.97711090,W,1,05,2.87,160.00,M,-21.3213,M,,*66
$GPGGA,090530.50,4821.66529859,N,00429.98138644,W,1,05,2.87,160.00,M,-21.3213,M,,*61
$GPGGA,090531.00,4821.66425988,N,00429.98551048,W,1,05,2.87,160.00,M,-21.3213,M,,*64
$GPGGA,090531.50,4821.66318301,N,00429.98978601,W,1,05,2.87,160.00,M,-21.3213,M,,*6F
$GPGGA,090532.00,4821.66214428,N,00429.99391006,W,1,05,2.87,160.00,M,-21.3213,M,,*65
$GPGGA,090532.50,4821.66106741,N,00429.99818558,W,1,05,2.87,160.00,M,-21.3213,M,,*68
$GPGGA,090533.00,4821.66002868,N,00430.00230962,W,1,05,2.87,160.00,M,-21.3213,M,,*60
$GPGGA,090533.50,4821.65895180,N,00430.00658514,W,1,05,2.87,160.00,M,-21.3213,M,,*68
$GPGGA,090534.00,4821.65791307,N,00430.01070917,W,1,05,2.87,160.00,M,-21.3213,M,,*6E
$GPGGA,090534.50,4821.65683618,N,00430.01498468,W,1,05,2.87,160.00,M,-21.3213,M,,*65
$GPGGA,090535.00,4821.65575929,N,00430.01926019,W,1,05,2.87,160.00,M,-21.3213,M,,*6C
$GPGGA,090535.50,4821.65472055,N,00430.02338421,W,1,05,2.87,160.00,M,-21.3213,M,,*64
$GPGGA,090536.00,4821.65364365,N,00430.02765972,W,1,05,2.87,160.00,M,-21.3213,M,,*65
$GPGGA,090536.50,4821.65260491,N,00430.03178373,W,1,05,2.87,160.00,M,-21.3213,M,,*69
$GPGGA,090537.00,4821.65152801,N,00430.03605923,W,1,05,2.87,160.00,M,-21.3213,M,,*68
$GPGGA,090537.50,4821.65048926,N,00430.04018324,W,1,05,2.87,160.00,M,-21.3213,M,,*63
$GPGGA,090538.00,4821.64941236,N,00430.04445874,W,1,05,2.87,160.00,M,-21.3213,M,,*60
$GPGGA,090538.50,4821.64837360,N,00430.04858274,W,1,05,2.87,160.00,M,-21.3213,M,,*6D
$GPGGA,090539.00,4821.64729669,N,00430.05285823,W,1,05,2.87,160.00,M,-21.3213,M,,*66
$GPGGA,090539.50,4821.64621978,N,00430.05713371,W,1,05,2.87,160.00,M,-21.3213,M,,*63
$GPGGA,090540.00,4821.64518101,N,00430.06125771,W,1,05,2.87,160.00,M,-21.3213,M,,*63
$GPGGA,090540.50,4821.64410410,N,00430.06553318,W,1,05,2.87,160.00,M,-21.3213,M,,*64
$GPGGA,090541.00,4821.64306533,N,00430.06965718,W,1,05,2.87,160.00,M,-21.3213,M,,*6D
$GPGGA,090541.50,4821.64198840,N,00430.07393265,W,1,05,2.87,160.00,M,-21.3213,M,,*69
$GPGGA,090542.00,4821.64094963,N,00430.07805663,W,1,05,2.87,160.00,M,-21.3213,M,,*64
$GPGGA,090542.50,4821.63987270,N,00430.08233210,W,1,05,2.87,160.00,M,-21.3213,M,,*64
$GPGGA,090543.00,4821.63883393,N,00430.08645608,W,1,05,2.87,160.00,M,-21.3213,M,,*61
$GPGGA,090543.50,4821.63775699,N,00430.09073154,W,1,05,2.87,160.00,M,-21.3213,M,,*61
$GPGGA,090544.00,4821.63668005,N,00430.09500699,W,1,05,2.87,160.00,M,-21.3213,M,,*6A
$GPGGA,090544.50,4821.63564127,N,00430.09913097,W,1,05,2.87,160.00,M,-21.3213,M,,*67
$GPGGA,090545.00,4821.63456433,N,00430.10340642,W,1,05,2.87,160.00,M,-21.3213,M,,*69
$GPGGA,090545.50,4821.63352554,N,00430.10753038,W,1,05,2.87,160.00,M,-21.3213,M,,*62
$GPGGA,090546.00,4821.63244859,N,00430.11180583,W,1,05,2.87,160.00,M,-21.3213,M,,*6E
$GPGGA,090546.50,4821.63140980,N,00430.11592979,W,1,05,2.87,160.00,M,-21.3213,M,,*67
$GPGGA,090547.00,4821.63033284,N,00430.12020523,W,1,05,2.87,160.00,M,-21.3213,M,,*65
$GPGGA,090547.50,4821.62929404,N,00430.12432918,W,1,05,2.87,160.00,M,-21.3213,M,,*6E
$GPGGA,090548.00,4821.62821709,N,00430.12860461,W,1,05,2.87,160.00,M,-21.3213,M,,*6B
